%time,field.header.seq,field.header.stamp,field.header.frame_id,field.roll,field.pitch,field.jaw,field.roll_dot,field.pitch_dot,field.jaw_dot
1800000000,44,1800000000,,-0.000130011219881,-6.55447001918e-05,-7.78286266723e-06,-3.43687960036e-11,-4.78413142435e-11,-8.80660832887e-13
1840000000,45,1840000000,,-0.000137323091622,-7.59402173571e-05,-7.98601558927e-06,-2.6566202363e-11,-3.95108945561e-11,-8.08047964478e-13
1880000000,46,1880000000,,-0.000143022509292,-8.63408931764e-05,-8.19569959276e-06,-1.5670688705e-11,-3.60325241866e-11,-7.32926902763e-13
1920000000,47,1920000000,,-0.000146705220686,-9.60188990575e-05,-8.40871598484e-06,-7.44172692219e-12,-2.59930913599e-11,-6.1881023309e-13
1960000000,48,1960000000,,-0.000147781669511,-0.000104852770164,-8.62308843352e-06,1.09837150226e-12,-2.30113671174e-11,-5.82908775502e-13
2000000000,49,2000000000,,-0.000146016202052,-0.000112561006972,-8.84673227119e-06,7.20298473644e-12,-1.58525536448e-11,-5.10935694795e-13
2040000000,50,2040000000,,-0.000141049924423,-0.000118737647426,-9.06629611563e-06,1.79880294687e-11,-1.56835516796e-11,-6.04880403578e-13
2080000000,51,2080000000,,-0.000132834058604,-0.000124557525851,-9.27337987378e-06,3.55793693119e-11,-2.33774284653e-11,-6.97702529431e-13
2120000000,52,2120000000,,-0.000121381497593,-0.000131502441945,-9.44374005485e-06,6.8129953068e-11,-3.99961730402e-11,-8.04273477244e-13
2160000000,53,2160000000,,-0.000105741622974,-0.000140069445479,-9.59093267738e-06,9.72125852039e-11,-5.13250587864e-11,-7.34892452881e-13
2202000000,54,2202000000,,-8.66032860358e-05,-0.000149881860125,-9.70308974502e-06,1.37250030785e-10,-6.25976631641e-11,-6.42032759422e-13
2241000000,55,2241000000,,-6.41412698315e-05,-0.000157371119712,-9.74589147518e-06,2.64387123305e-10,-6.78256201203e-11,3.74893868661e-14
2280000000,56,2280000000,,-2.87529564957e-05,-0.000163493852597,-9.68763106357e-06,5.34374045014e-10,-6.04481117938e-11,1.33925693886e-12
2322000000,57,2322000000,,1.99955775315e-05,-0.000166403973708,-9.52605569182e-06,7.23397064473e-10,-1.58977414566e-11,2.90266920742e-12
2364000000,58,2364000000,,6.18621706963e-05,-0.000166063648066,-9.34260788199e-06,8.97969421043e-10,2.90667195174e-11,4.14660103129e-12
2400000000,59,2400000000,,0.00010876217857,-0.000163015487487,-9.10894323169e-06,9.88337633956e-10,9.07342950773e-11,5.27828432004e-12
2440000000,60,2440000000,,0.000147250830196,-0.000158535127412,-8.89270722837e-06,1.0700611508e-09,1.4644718771e-10,6.18310871253e-12
2482000000,61,2482000000,,0.000246036826866,-0.000139903990203,-8.28352585813e-06,1.25055144018e-09,3.02932096075e-10,8.27431786282e-12
2520000000,62,2520000000,,0.00030684354715,-0.000123693534988,-7.87638327893e-06,1.38110001213e-09,4.04528133213e-10,9.44636990158e-12
2560000000,63,2560000000,,0.000369859510101,-0.00010256828682,-7.42453948988e-06,1.39050815307e-09,5.1671705803e-10,1.03324467038e-11
2600000000,64,2600000000,,0.000439001771156,-7.47672747821e-05,-6.89559647071e-06,1.38534550498e-09,6.12179584802e-10,1.10161749514e-11
2643000000,65,2643000000,,0.000496306107379,-4.6394936362e-05,-6.41477981844e-06,1.32794963914e-09,7.10319414399e-10,1.15147145291e-11
2680000000,66,2680000000,,0.000557128514629,-1.14689237307e-05,-5.86208170716e-06,1.19918608377e-09,7.62210350391e-10,1.15838406575e-11
2720000000,67,2720000000,,0.000608202884905,2.50809825957e-05,-5.32990907232e-06,1.05535302719e-09,8.20298495796e-10,1.16023163299e-11
2762000000,68,2762000000,,0.000657270487864,6.7057160777e-05,-4.74181797472e-06,8.30567170595e-10,8.17172385315e-10,1.10958733521e-11
2803000000,69,2803000000,,0.000698454328813,0.000115739960165,-4.09564245274e-06,5.43863454272e-10,7.57218621139e-10,1.0047389136e-11
2842000000,70,2842000000,,0.000726060301531,0.0001618040842,-3.49800416188e-06,3.92252813564e-10,8.20219892006e-10,1.02440946351e-11
2880000000,71,2880000000,,0.000741775787901,0.000206989891012,-2.93449943456e-06,1.84178602924e-10,7.60475793449e-10,9.55427317123e-12
2920000000,72,2920000000,,0.00074623990804,0.000255072925938,-2.33498963098e-06,-4.04555798583e-11,7.89313503446e-10,9.7172435029e-12
2965000000,73,2965000000,,0.000734703789931,0.000305903115077,-1.70067164618e-06,-3.36431049686e-10,7.62002017041e-10,9.90181287658e-12
3001000000,74,3001000000,,0.000702817458659,0.000355273223249,-1.05503613668e-06,-7.56051499184e-10,8.85039708187e-10,1.17446287071e-11
3040000000,75,3040000000,,0.000658331962768,0.000395321054384,-5.04217382513e-07,-1.33452360274e-09,9.60706514341e-10,1.38127998622e-11
3080000000,76,3080000000,,0.000583931105211,0.000439033901785,1.47966318309e-07,-0.00198678905144,0.000977776013315,1.51696667672e-05
3120000000,77,3120000000,,0.000489331840072,0.000476565037388,7.54571146899e-07,-0.00277251587249,0.000932033406571,1.58316033776e-05
3160000000,78,3160000000,,0.000368748500478,0.000510891899467,1.42021269767e-06,-0.00314227072522,0.000722437165678,1.70978964888e-05
3201000000,79,3201000000,,0.000230948237004,0.000533187179826,2.15537238546e-06,-0.00327511364594,0.000340785889421,1.77585225174e-05
3241000000,80,3241000000,,9.94607908069e-05,0.000538170279469,2.88233263745e-06,-0.00328853353858,-7.0256908657e-05,1.8332968466e-05
3280000000,81,3280000000,,-2.37426120293e-05,0.000528789008968,3.58655347554e-06,-0.00320456642658,-0.000458198599517,1.89940583368e-05
3320000000,82,3320000000,,-0.000147252823808,0.000502666982356,4.34461526311e-06,-0.00313863693736,-0.000819541339297,1.96466098714e-05
3361000000,83,3361000000,,-0.000270988151897,0.000463252217742,5.16192494615e-06,-0.00285426806659,-0.00112696329597,2.02541650651e-05
3401000000,84,3401000000,,-0.000386090629036,0.000410961976741,6.02229874858e-06,-0.00265963096172,-0.00131814554334,2.07069551834e-05
3440000000,85,3440000000,,-0.00048069722834,0.000356056261808,6.82081690684e-06,-0.00231167883612,-0.00153787003364,2.12286540773e-05
3480000000,86,3480000000,,-0.000567912589759,0.000292849319521,7.67466826801e-06,-0.00204557739198,-0.00158128002658,2.14435640373e-05
3520000000,87,3520000000,,-0.000643102277536,0.000224842922762,8.56102997204e-06,-0.00164677551948,-0.00170295056887,2.1752259272e-05
3561000000,88,3561000000,,-0.000700125994626,0.000161205884069,9.38646917348e-06,-0.00134106259793,-0.00166322092991,2.17888828047e-05
3600000000,89,3600000000,,-0.000746427918784,9.20153324842e-05,1.02816275103e-05,-9.21280773891e-10,-1.64931523994e-09,2.1266464284e-11
3640000000,90,3640000000,,-0.000775847118348,2.92407239613e-05,1.11574390758e-05,-3.64262647823e-10,-1.06726694149e-09,1.57342611162e-11
3680000000,91,3680000000,,-0.000789261073805,-2.87313505396e-05,1.19971236927e-05,-1.54763937776e-10,-1.07101005842e-09,1.54045162043e-11
3720000000,92,3720000000,,-0.000793924322352,-8.47866831464e-05,1.27962593979e-05,-2.70522944323e-11,-1.20320375885e-09,1.64347355169e-11
3761000000,93,3761000000,,-0.000790936173871,-0.000155987319886,1.37165679917e-05,1.46049713989e-10,-1.45790790551e-09,1.83635849582e-11
3800000000,94,3800000000,,-0.000781310198363,-0.000221237394726,1.45155454447e-05,3.45463463391e-10,-1.74149761278e-09,2.04230399953e-11
3840000000,95,3840000000,,-0.000760066497605,-0.000301144376863,1.54271747306e-05,6.36562580425e-10,-1.89514581805e-09,2.16462282127e-11
3880000000,96,3880000000,,-0.000729188672267,-0.00037953624269,1.62939759321e-05,0.000899154867511,-0.00204557343386,2.1774920242e-05
3920000000,97,3920000000,,-0.000683567428496,-0.000468055572128,1.71832853084e-05,0.00131102628075,-0.00216743652709,2.21635255002e-05
3960000000,98,3960000000,,-0.000625804997981,-0.000553635996766,1.80644547072e-05,0.00161829974968,-0.00214779260568,2.21388145292e-05
4000000000,99,4000000000,,-0.000554484548047,-0.00063209986547,1.89381607925e-05,0.00186416611541,-0.00173002318479,2.13884613913e-05
4041000000,100,4041000000,,-0.000485773838591,-0.000687131192535,1.96958517336e-05,0.00199373532087,-0.00132075673901,2.08102828765e-05
4080000000,101,4080000000,,-0.00039502690197,-0.000730202067643,2.05887990887e-05,0.00207863724791,-0.000679450109601,1.98850175366e-05
4120000000,102,4120000000,,-0.000311132142087,-0.000745538796764,2.13754319702e-05,0.00210578064434,-0.000129637483042,1.92770476133e-05
4163000000,103,4163000000,,-0.000222125090659,-0.000739798357245,2.21886857616e-05,0.00200090138242,0.000375659787096,1.86324650713e-05
4200000000,104,4200000000,,-0.000151194501086,-0.00071784236934,2.28417629842e-05,0.00205266033299,0.000842233770527,1.85900316865e-05
4240000000,105,4240000000,,-6.72363094054e-05,-0.000673252623528,2.36191699514e-05,0.00190598913468,0.00124186789617,1.83804404514e-05
4286000000,106,4286000000,,3.53786367668e-06,-0.000621154438704,2.43121630774e-05,0.00181779265404,0.00144815864041,1.80772076419e-05
4320000000,107,4320000000,,7.31522522983e-05,-0.000557369494345,2.50474295171e-05,0.00161284080241,0.0016999989748,1.79670587386e-05
4360000000,108,4360000000,,0.000132157714688,-0.000490338134114,2.57256415352e-05,0.00147647166159,0.00178744143341,1.77405399882e-05
4400000000,109,4400000000,,0.000188878999325,-0.000412436784245,2.64662885456e-05,0.00125427288003,0.00191115518101,1.75770692294e-05
4441000000,110,4441000000,,0.000231067111599,-0.000344578118529,2.70930086117e-05,0.0010792753892,0.0018905478064,1.7340262275e-05
4480000000,111,4480000000,,0.000273968820693,-0.000258830346866,2.78674269794e-05,0.000850892043673,0.00188427383546,1.70320017787e-05
4520000000,112,4520000000,,0.000303142267512,-0.000185984448763,2.85293444904e-05,6.35040742214e-10,1.84857040786e-09,1.66959085446e-11
4560000000,113,4560000000,,0.000322963809595,-0.000117225717986,2.91889828077e-05,3.23199356167e-10,1.33259636659e-09,1.33855062451e-11
4602000000,114,4602000000,,0.000335640943376,-5.35361687071e-05,2.98318118439e-05,2.08671066537e-10,1.34669686513e-09,1.32303716593e-11
4640000000,115,4640000000,,0.000344363274053,1.61417920026e-05,3.04898912873e-05,1.53748166976e-10,1.5063809089e-09,1.39354690981e-11
4681000000,116,4681000000,,0.000349979382008,9.00061277207e-05,3.11332223646e-05,1.08462024084e-10,1.95133287306e-09,1.60061061627e-11
4722000000,117,4722000000,,0.000352668052074,0.000166914323927,3.17463309329e-05,3.09148999804e-05,0.00205649668351,1.61040479725e-05
4761000000,118,4761000000,,0.000352041766746,0.000246247014729,3.23418316839e-05,-6.11332216067e-05,0.00222611567006,1.61218795256e-05
4800000000,119,4800000000,,0.000346717366483,0.000357449025614,3.30780858349e-05,-0.000188446356333,0.00262796855532,1.64358607435e-05
4840000000,120,4840000000,,0.000336436904036,0.000461939751403,3.3736199839e-05,-0.000322902924381,0.00251018069685,1.62781179824e-05
4880000000,121,4880000000,,0.000320810533594,0.00054648303194,3.4341657738e-05,-0.000473392196,0.00197132886387,1.56217956828e-05
4921000000,122,4921000000,,0.000297515303828,0.000618107616901,3.50010559487e-05,-4.51580578487e-10,9.90078796725e-10,1.10469402723e-11
4961000000,123,4961000000,,0.000271549244644,0.000655758311041,3.55787633453e-05,-2.89949314558e-10,2.53826931695e-10,6.11794469252e-12
5000000000,124,5000000000,,0.000244591908995,0.000669456610922,3.6102032027e-05,-3.1156477398e-10,6.93165941312e-11,5.42363506537e-12
5040000000,125,5040000000,,0.000209489648114,0.000670737004839,3.66572385246e-05,-4.20347201491e-10,-4.09719584649e-11,6.23191342281e-12
5083000000,126,5083000000,,0.000166809084476,0.000662042060867,3.72253998648e-05,-6.52336573648e-10,-1.73169922846e-10,7.83043768715e-12
5121000000,127,5121000000,,0.000135335707455,0.000651423993986,3.75884555979e-05,-7.76821773574e-10,-3.1296215619e-10,8.68829314049e-12
5160000000,128,5160000000,,9.59021490416e-05,0.000633607036434,3.8005404349e-05,-1.01429342703e-09,-4.98046881514e-10,1.00479399107e-11
5200000000,129,5200000000,,1.09979037006e-05,0.000585156492889,3.87785912608e-05,-1.44582934514e-09,-9.74792357944e-10,1.24415183017e-11
5241000000,130,5241000000,,-6.08374211879e-05,0.000535259605385,3.93497175537e-05,-0.00175851711538,-0.00130350992549,1.32936947921e-05
5281000000,131,5281000000,,-0.000132247412694,0.000475793960504,3.98812371714e-05,-0.00183825334534,-0.00163835904095,1.32387422127e-05
5329000000,132,5329000000,,-0.000233591388678,0.000384248211049,4.0543040086e-05,-0.00203791284002,-0.00204570777714,1.37235365401e-05
5363000000,133,5363000000,,-0.000305305817164,0.000309221941279,4.10130960518e-05,-0.00220814277418,-0.00236998288892,1.43903998833e-05
5400000000,134,5400000000,,-0.000379605480703,0.000225720985327,4.1525636334e-05,-0.00189098203555,-0.00235509104095,1.41970840559e-05
5440000000,135,5440000000,,-0.000447506201454,0.000131181936013,4.21006297984e-05,-0.00145622552373,-0.00218233722262,1.37560109579e-05
5492000000,136,5492000000,,-0.000505907286424,2.32834845519e-05,4.28128332715e-05,-0.000763415766414,-0.00192326039542,1.31696233439e-05
5524000000,137,5524000000,,-0.000524084316567,-3.45946682501e-05,4.32288616139e-05,-3.34841543381e-10,-1.44973255622e-09,1.10331032505e-11
5560000000,138,5560000000,,-0.000527463736944,-9.11695460672e-05,4.36804330093e-05,1.14579144783e-10,-9.24556597948e-10,8.09206781444e-12
5601000000,139,5601000000,,-0.000512918748427,-0.000142045348184,4.41537231382e-05,3.28294696983e-10,-7.30352833767e-10,7.16232238449e-12
5642000000,140,5642000000,,-0.00048568053171,-0.000190822349396,4.4619799155e-05,5.89497062276e-10,-8.87094786517e-10,8.30221742049e-12
5680000000,141,5680000000,,-0.000454992812593,-0.000230530364206,4.49932995252e-05,8.29816493297e-10,-9.94160198609e-10,9.15416267094e-12
5720000000,142,5720000000,,-0.000401683239033,-0.000289035000606,4.55069348391e-05,1.28274257882e-09,-1.2679641781e-09,1.0796558092e-11
5760000000,143,5760000000,,-0.000339728372637,-0.000343201361829,4.59699804196e-05,0.00164201273583,-0.0013527055271,1.12505485959e-05
5800000000,144,5800000000,,-0.000270055577857,-0.000396024290239,4.6398381528e-05,0.002179866191,-0.00151780061424,1.1566898138e-05
5840000000,145,5840000000,,-0.000175058783498,-0.00045640047756,4.68623111374e-05,0.00249155284837,-0.00150772009511,1.1588525922e-05
5882000000,146,5882000000,,-7.36043002689e-05,-0.000510056037456,4.73152904306e-05,0.00257875025272,-0.00113391783088,1.10553992272e-05
5920000000,147,5920000000,,2.7501515433e-05,-0.00054813362658,4.77588582726e-05,0.00239338329993,-0.00072534440551,1.07545447463e-05
5960000000,148,5960000000,,0.000117456147564,-0.000567507755477,4.81437637063e-05,0.00207672314718,-0.000254870479694,8.56360929902e-06
6000000000,149,6000000000,,0.000190307575394,-0.000569622032344,4.84447955387e-05,1.25772625648e-09,1.30907007456e-10,5.22873411235e-12
6040000000,150,6040000000,,0.00024617346935,-0.000556284794584,4.86710705445e-05,6.47152609279e-10,3.15685561025e-10,2.8079654487e-12
6082000000,151,6082000000,,0.000275911268545,-0.000531588157173,4.88030054839e-05,3.36489058839e-10,4.04488720296e-10,1.47363328137e-12
6120000000,152,6120000000,,0.000303094100673,-0.000493888452183,4.89054618811e-05,4.05166206141e-10,6.16400319675e-10,1.30778710344e-12
6160000000,153,6160000000,,0.000330512615619,-0.000449205515906,4.89814046887e-05,5.20428145023e-10,9.02589725182e-10,1.16306844797e-12
6200000000,154,6200000000,,0.000359489145922,-0.000395026989281,4.90331767651e-05,6.06459327201e-10,1.24085675068e-09,8.88995311827e-13
6240000000,155,6240000000,,0.000387082138332,-0.000333402480464,4.90648708364e-05,6.78465728043e-10,1.5877428261e-09,5.10438317048e-13
6281000000,156,6281000000,,0.000417768169427,-0.000252529629506,4.90778547828e-05,0.000656094402075,0.00200327159837,1.1607303918e-07
6320000000,157,6320000000,,0.00044390259427,-0.000165817284142,4.90822712891e-05,0.000664293649606,0.00236138142645,6.34322461224e-08
6360000000,158,6360000000,,0.000466846511699,-6.76766285324e-05,4.9077141739e-05,0.000521038251463,0.00261689838953,-6.58566037259e-08
6400000000,159,6400000000,,0.000483154639369,3.49423717125e-05,4.90563325002e-05,0.000286676018732,0.0024833525531,-6.29514431694e-07
6440000000,160,6440000000,,0.00048886804143,0.000130226049805,4.90236998303e-05,1.5407869796e-05,0.00234545068815,-1.0851335901e-06
6480000000,161,6480000000,,0.000483286858071,0.000212295402889,4.89631820528e-05,-2.98200741877e-10,1.86893345244e-09,-1.78319295094e-12
6520000000,162,6520000000,,0.000466088851681,0.0002769655257,4.88698242407e-05,-4.09673711621e-10,9.34498256555e-10,-2.28723420412e-12
6562000000,163,6562000000,,0.000432806322351,0.000327996356646,4.87136385345e-05,-5.88601667406e-10,6.89622747796e-10,-2.4476609975e-12
6600000000,164,6600000000,,0.000395557348384,0.000362471473636,4.85659038532e-05,-7.74235286993e-10,5.84243764479e-10,-2.82089911326e-12
6640000000,165,6640000000,,0.000347099034116,0.000394723610952,4.84086594952e-05,-1.05901409864e-09,6.39842845374e-10,-3.18246058846e-12
6680000000,166,6680000000,,0.00028525837115,0.000427176710218,4.82416253362e-05,-1.52881918236e-09,6.67135180432e-10,-3.8618192845e-12
6722000000,167,6722000000,,0.000215655352804,0.000454379245639,4.80743547087e-05,-0.00189204269554,0.000666708161589,-4.29771398558e-06
6762000000,168,6762000000,,0.000123935824377,0.000480595190311,4.78868969367e-05,-0.00246874149889,0.000605645065662,-4.09789163314e-06
6800000000,169,6800000000,,2.91768665193e-05,0.000500331050716,4.77350658912e-05,-0.00267546251416,0.000457531772554,-4.06048911827e-06
6840000000,170,6840000000,,-8.01969799795e-05,0.000513024104293,4.75648739666e-05,-0.00271651288494,0.000182449410204,-4.38261258751e-06
6880000000,171,6880000000,,-0.000185982848052,0.000513505190611,4.73812579003e-05,-0.00248727272265,-0.000153651519213,-4.57216538052e-06
6922000000,172,6922000000,,-0.000278002262348,0.000501508708112,4.71987805213e-05,-0.00217900634743,-0.000463745702291,-4.72140254715e-06
6962000000,173,6962000000,,-0.000356391072273,0.000476652552607,4.7008637921e-05,-1.75852177264e-09,-7.53066831116e-10,-4.66059742882e-12
7001000000,174,7001000000,,-0.000417378265411,0.000441419251729,4.67852223665e-05,-8.64698090908e-10,-7.11447900592e-10,-4.19786167632e-12
7040000000,175,7040000000,,-0.000456160196336,0.000401263154345,4.65723096568e-05,-6.67480237748e-10,-8.16651302138e-10,-4.12721072596e-12
7081000000,176,7081000000,,-0.000488822290208,0.000345247448422,4.64601580461e-05,-7.42118755337e-10,-1.76832615217e-09,2.81285845311e-13
7120000000,177,7120000000,,-0.000518181361258,0.000252503028605,4.6613127779e-05,-0.000667964399327,-0.00250492012128,6.52737935525e-06
7160000000,178,7160000000,,-0.00054370588623,0.000131100794533,4.70049781143e-05,-0.000587026006542,-0.00339037785307,1.24148573377e-05
7200000000,179,7200000000,,-0.000564157671761,-1.0012086932e-05,4.75892047689e-05,-0.000397117750254,-0.00349744502455,1.62868818734e-05
7240000000,180,7240000000,,-0.000573365192395,-0.000146346588735,4.82852155983e-05,-8.16641986603e-05,-0.00343374954537,1.9225604774e-05
7281000000,181,7281000000,,-0.000569508702029,-0.000272301578661,4.90974562126e-05,0.000272812263574,-0.00292862788774,2.13389284909e-05
7322000000,182,7322000000,,-0.000550622236915,-0.000379963661544,4.9990019761e-05,0.000643121195026,-0.0024082257878,2.2988038836e-05
7360000000,183,7360000000,,-0.000518202490639,-0.000461896270281,5.09334531671e-05,0.000979623990133,-0.00177137809806,2.42882815655e-05
7400000000,184,7400000000,,-0.000471842678962,-0.000520388130099,5.19310669915e-05,1.12713094413e-09,-1.03034836219e-09,2.20960801739e-11
7440000000,185,7440000000,,-0.0004165629216,-0.000554599275347,5.29677927261e-05,9.81379755238e-10,-3.49427847768e-10,1.80369434666e-11
7481000000,186,7481000000,,-0.00038952002069,-0.000562097120564,5.34476930625e-05,1.12857079237e-09,-2.40856556921e-10,1.9336603499e-11
7520000000,187,7520000000,,-0.000287895381916,-0.000565270893276,5.50312724954e-05,1.72365410833e-09,1.20604110032e-10,2.4869871787e-11
7560000000,188,7560000000,,-0.000207875214983,-0.000556595157832,5.60929365747e-05,0.00222240481526,0.00031277970993,2.76641512755e-05
7600000000,189,7600000000,,-0.00010578869842,-0.000538476801012,5.72599892621e-05,0.00277727842331,0.000565901573282,2.92365602945e-05
7640000000,190,7640000000,,1.20116619655e-05,-0.000511600810569,5.84413937759e-05,0.00308348517865,0.000792406091932,2.99622206512e-05
7680000000,191,7680000000,,0.000130034677568,-0.000476430053823,5.96154022787e-05,0.00309899053536,0.00102677661926,3.04397490254e-05
7721000000,192,7721000000,,0.000254369981121,-0.00043103605276,6.0866579588e-05,0.00290966290049,0.00121709879022,3.06802430714e-05
7760000000,193,7760000000,,0.000362632417819,-0.000379376782803,6.20939754299e-05,0.00254713487811,0.00133617932443,3.06464353343e-05
7800000000,194,7800000000,,0.000454553752206,-0.000324543681927,6.33191884845e-05,0.00202868063934,0.00142840074841,3.06374568027e-05
7841000000,195,7841000000,,0.000527841853909,-0.00026602804428,6.45700565656e-05,0.00156623276416,0.00139084854163,3.03253746097e-05
7880000000,196,7880000000,,0.000576001068112,-0.000212406157516,6.56967022223e-05,9.70869606931e-10,1.37671285483e-09,2.80435431821e-11
7921000000,197,7921000000,,0.000606841000263,-0.000155483110575,6.69238797855e-05,3.24661991735e-10,8.78318473507e-10,2.01139920691e-11
7960000000,198,7960000000,,0.000618924386799,-0.000102535050246,6.80993034621e-05,9.75318298346e-11,9.01439756174e-10,1.97331526119e-11
8000000000,199,8000000000,,0.000619731727056,-4.65452976641e-05,6.93000474712e-05,-6.99670738014e-11,9.99795912726e-10,2.07733066859e-11
8040000000,200,8040000000,,0.000611768977251,1.4421774722e-05,7.04813865013e-05,-2.37340286313e-10,1.34032562826e-09,2.45162050383e-11
8081000000,201,8081000000,,0.000596645171754,7.93348299339e-05,7.16516078683e-05,-4.23108242886e-10,1.5795837971e-09,2.74938041084e-11
8122000000,202,8122000000,,0.0005747526302,0.000153511879034,7.2885035479e-05,-0.000659796583932,0.00189959560521,3.10334944515e-05
8160000000,203,8160000000,,0.000540313310921,0.000236404768657,7.41783078411e-05,-0.000995303737,0.00219294778071,3.20794606523e-05
8202000000,204,8202000000,,0.000491391459946,0.000330541835865,7.55384317017e-05,-0.00131886289455,0.00212505483069,3.23013264278e-05
8241000000,205,8241000000,,0.000436945061665,0.000407473446103,7.67910532886e-05,-0.00145139032975,0.00184463127516,3.19807804772e-05
8280000000,206,8280000000,,0.000374204973923,0.000474018102977,7.80166301411e-05,-0.00174909003545,0.00152175920084,3.1999865314e-05
8320000000,207,8320000000,,0.000301707332255,0.000527052208781,7.93192666606e-05,-0.00180367892608,0.00107162503991,3.16603654937e-05
8360000000,208,8360000000,,0.000227417505812,0.000559442501981,8.05734161986e-05,-1.87618742764e-09,5.62888846645e-10,3.08226014156e-11
8402000000,209,8402000000,,0.000160619849339,0.00057121948339,8.17348482087e-05,-1.35106181798e-09,6.08796346668e-11,2.4702568116e-11
8440000000,210,8440000000,,9.13132535061e-05,0.000567314913496,8.29572600196e-05,-1.49396539584e-09,-2.12693224144e-10,2.57747503896e-11
8480000000,211,8480000000,,2.00577978831e-05,0.000552225392312,8.41472210595e-05,-1.81302728386e-09,-4.80880446574e-10,2.88349517874e-11
8520000000,212,8520000000,,-5.81513741054e-05,0.000529333949089,8.53103847476e-05,-0.0020917172078,-0.000692408764735,2.99116527458e-05
8560000000,213,8560000000,,-0.000155717600137,0.000492616673,8.65844194777e-05,-0.00253666751087,-0.00101110991091,3.05406028929e-05
8600000000,214,8600000000,,-0.000258155720076,0.000449111888884,8.77796555869e-05,-0.00261876615696,-0.00124333461281,3.07104746753e-05
8640000000,215,8640000000,,-0.000363324506907,0.000394271453843,8.9036198915e-05,-0.00251825735904,-0.00136696733534,3.04733730445e-05
8681000000,216,8681000000,,-0.00045419880189,0.00033848817111,9.02205429156e-05,-0.00211454299279,-0.00149627018254,3.02610078506e-05
8720000000,217,8720000000,,-0.000530701538082,0.000278216728475,9.1422953119e-05,-0.00171172851697,-0.00146367459092,2.9812053981e-05
8760000000,218,8760000000,,-0.000587658607401,0.000219797118916,9.2565009254e-05,-1.2073452238e-09,-1.47879930523e-09,2.81163495264e-11
8802000000,219,8802000000,,-0.000628341047559,0.000160655399668,9.37523509492e-05,-4.74243921911e-10,-8.98373708758e-10,1.89674352613e-11
8840000000,220,8840000000,,-0.000646869884804,0.000110926193884,9.47499211179e-05,-2.19776474797e-10,-8.99152419187e-10,1.75462491758e-11
8880000000,221,8880000000,,-0.000654788338579,5.73748620809e-05,9.57676311373e-05,-4.96071274336e-11,-9.72763647411e-10,1.75943617314e-11
8921000000,222,8921000000,,-0.000653058057651,1.70262796928e-06,9.66988372966e-05,1.27608978939e-10,-1.26175225823e-09,1.9939952467e-11
8964000000,223,8964000000,,-0.000637731805909,-7.68173922552e-05,9.78893003776e-05,4.30365354465e-10,-1.58992685684e-09,2.24024236661e-11
9000000000,224,9000000000,,-0.000616408360656,-0.000140876960359,9.87505918602e-05,7.43196726383e-10,-1.83097126349e-09,2.41998799472e-11
9041000000,225,9041000000,,-0.000583224406,-0.000210044148844,9.96447415673e-05,0.00103286851663,-0.00195181497838,2.40462741203e-05
9087000000,226,9087000000,,-0.000530875404365,-0.000295203295536,0.000100634795672,0.00153978995513,-0.00216920231469,2.43180093094e-05
9120000000,227,9120000000,,-0.000458200927824,-0.000387673760997,0.000101650868601,0.00188369839452,-0.0021884443704,2.39948494709e-05
9160000000,228,9160000000,,-0.000376408861484,-0.000468198093586,0.000102592872281,0.00216574571095,-0.00181705260184,2.31531066675e-05
9203000000,229,9203000000,,-0.000279335275991,-0.000538823544048,0.000103590697108,0.00228901114315,-0.00137451232877,2.22906928684e-05
9240000000,230,9240000000,,-0.00019583197718,-0.000578790670261,0.00010437558376,0.002362113446,-0.000883255444933,2.1608922907e-05
9280000000,231,9280000000,,-0.000100796285551,-0.000604967586696,0.00010524589743,0.00235713436268,-0.00037913522101,2.10580328712e-05
9320000000,232,9320000000,,-8.1125572251e-06,-0.000610353832599,0.000106073683128,0.00226637511514,0.00010878375906,2.05681080843e-05
9360000000,233,9360000000,,8.11684731161e-05,-0.00059889559634,0.000106888910523,0.00221036770381,0.000401669647545,2.003669033e-05
9400000000,234,9400000000,,0.000168716040207,-0.000578817678615,0.000107685707917,0.00208800495602,0.000604810833465,1.97117515199e-05
9442000000,235,9442000000,,0.000253714853898,-0.000548556272406,0.000108508087578,0.00194299640134,0.000796340056695,1.92948937183e-05
9481000000,236,9481000000,,0.00032411844586,-0.000512639351655,0.000109258275188,1.61218327577e-09,9.91478787959e-10,1.85925476404e-11
9521000000,237,9521000000,,0.00038210846833,-0.000471313222079,0.000109985863674,9.58494061898e-10,8.36910929447e-10,1.42252390423e-11
9560000000,238,9560000000,,0.000423671241151,-0.00042617553845,0.000110677268822,7.67533592239e-10,1.00645525247e-09,1.40695224568e-11
9600000000,239,9600000000,,0.000462015945232,-0.000370063818991,0.000111402645416,7.77236441873e-10,1.27933319494e-09,1.53581262291e-11
9644000000,240,9644000000,,0.000494800391607,-0.000307827780489,0.00011208239448,8.59763205074e-10,1.77248049571e-09,1.7958612028e-11
9682000000,241,9682000000,,0.00053061399376,-0.000226847521844,0.000112859786896,0.000785236188676,0.00201698043384,1.81250761671e-05
9724000000,242,9724000000,,0.000562686473131,-0.000134397385409,0.000113630398118,0.000716390437447,0.00230458681472,1.83140527952e-05
9762000000,243,9762000000,,0.000591932970565,-3.29847352987e-05,0.000114375048724,0.000655861978885,0.0027032000944,1.9071616407e-05
9800000000,244,9800000000,,0.000615178490989,7.87714816397e-05,0.000115122631541,0.000497842207551,0.00293148169294,1.96414293896e-05
9840000000,245,9840000000,,0.000627397210337,0.000190693695913,0.000115894865303,0.000118430354632,0.0027165596839,1.90650080185e-05
9880000000,246,9880000000,,0.000624292530119,0.000284858833766,0.000116600313049,-0.000293082848657,0.00219587050378,1.80626739166e-05
9920000000,247,9920000000,,0.000603270251304,0.000364754116163,0.000117322531878,-6.47301823253e-10,1.60661539628e-09,1.60375514952e-11
9960000000,248,9960000000,,0.000568986171857,0.000418370094849,0.000117969575513,-7.24500348603e-10,7.25797644208e-10,1.0990836713e-11
10000000000,249,10000000000,,0.000521548558027,0.000453958142316,0.000118591153296,-9.66923208168e-10,5.42111799895e-10,1.11343590598e-11
10040000000,250,10040000000,,0.000463426695205,0.000479053705931,0.000119171461847,-1.44434764149e-09,5.14607689794e-10,1.30361893155e-11
10080000000,251,10080000000,,0.000391283916542,0.000501248112414,0.000119770280435,-0.00197667931207,0.000506227544975,1.49451989273e-05
10120000000,252,10120000000,,0.000296860322123,0.000520731613506,0.000120391006931,-0.00256605702452,0.000452988315374,1.53736764332e-05
10160000000,253,10160000000,,0.000203168136068,0.000534105172846,0.00012092772522,-0.00290087843314,0.000322530540871,1.54105127876e-05
10200000000,254,10200000000,,7.56823283155e-05,0.000542466645129,0.000121579774714,-0.00298148556612,6.8456371082e-05,1.50611022036e-05
10240000000,255,10240000000,,-4.49808321719e-05,0.00053915247554,0.000122188663227,-0.00295797130093,-0.00021806298173,1.46470356412e-05
10280000000,256,10280000000,,-0.000160578812938,0.000523732393049,0.000122785175336,-0.00263116043061,-0.000521422130987,1.44056957652e-05
10320000000,257,10320000000,,-0.000248803349677,0.000501203234307,0.000123284567962,-0.00241631129757,-0.000718416937161,1.40993288369e-05
10360000000,258,10360000000,,-0.000344248808688,0.000463298260001,0.000123902093037,-0.00193352566566,-0.000978747499175,1.39415669764e-05
10400000000,259,10400000000,,-0.000416048424086,0.000419905700255,0.000124467944261,-1.48520795662e-09,-1.05937258965e-09,1.30395408013e-11
10440000000,260,10440000000,,-0.000463544361992,0.00037665644777,0.000124970290926,-7.29844851222e-10,-8.59232907047e-10,9.56536152369e-12
10483000000,261,10483000000,,-0.000500062829815,0.000324641208863,0.000125523234601,-4.98824537232e-10,-9.08716601966e-10,9.0072550113e-12
10520000000,262,10520000000,,-0.000522949034348,0.000273534882581,0.000125991180539,-4.49103199074e-10,-1.16423448659e-09,1.00251760018e-11
10560000000,263,10560000000,,-0.000545990013052,0.000211491584196,0.00012651355064,-4.58007909376e-10,-1.3576194613e-09,1.08598191204e-11
10602000000,264,10602000000,,-0.000568590941839,0.000141120544868,0.000127056540805,-4.63443644572e-10,-1.50587498027e-09,1.14234481249e-11
10647000000,265,10647000000,,-0.000585033267271,7.92284627096e-05,0.000127508363221,-3.98411859059e-10,-1.80636428038e-09,1.24964882192e-11
10680000000,266,10680000000,,-0.000598052691203,-3.1657573345e-06,0.000128052430227,-0.0002198775328,-0.00200859224424,1.2936395251e-05
10720000000,267,10720000000,,-0.000601643288974,-8.98872531252e-05,0.000128568237415,1.82717212738e-05,-0.00256185675971,1.39572975968e-05
10761000000,268,10761000000,,-0.000593867909629,-0.000198236142751,0.000129150459543,0.000345876993379,-0.00257856212556,1.38666237035e-05
10800000000,269,10800000000,,-0.000573001801968,-0.000301121210214,0.000129700027173,0.000692058412824,-0.0024986974895,1.35375930768e-05
10840000000,270,10840000000,,-0.000539187458344,-0.000388652726542,0.000130208936753,0.00102128461003,-0.00202249316499,1.26579398056e-05
10882000000,271,10882000000,,-0.000491416023578,-0.000461581134005,0.000130700980662,0.0013767122291,-0.00161589728668,1.19030737551e-05
10921000000,272,10921000000,,-0.000436838367023,-0.00051098188851,0.000131112916279,0.00162293342873,-0.0011783487862,1.1076980627e-05
10960000000,273,10960000000,,-0.00035576877417,-0.000554130063392,0.000131604378112,0.00204976066016,-0.000742277770769,1.10655510071e-05
11002000000,274,11002000000,,-0.000263150315732,-0.000574804376811,0.000132069297251,0.00220313831232,-0.000259689200902,1.06280995169e-05
11041000000,275,11041000000,,-0.00017501959519,-0.000576161313802,0.000132475877763,0.00227879197337,0.000133875044412,1.00724155345e-05
11080000000,276,11080000000,,-8.82025487954e-05,-0.000563747016713,0.00013286183821,0.00217345450073,0.000491712300573,9.80475215329e-06
11120000000,277,11120000000,,-2.28634894484e-06,-0.000538398104254,0.000133244830067,0.00211788504384,0.000776418542955,9.4515753517e-06
11160000000,278,11160000000,,7.43560085539e-05,-0.000503854826093,0.000133600275149,0.00194926862605,0.00104216858745,9.36584183364e-06
11200000000,279,11200000000,,0.000153151704581,-0.000457278394606,0.00013398421288,0.00179184321314,0.00121166172903,9.1029514806e-06
11240000000,280,11240000000,,0.000220169822569,-0.000404777994845,0.000134347239509,0.00159273343161,0.00139330618549,9.04863372853e-06
11280000000,281,11280000000,,0.000279897358268,-0.00034861205495,0.000134703601361,1.36172406684e-09,1.42789180479e-09,8.76039778913e-12
11324000000,282,11324000000,,0.000325874279952,-0.000294203928206,0.000135034657433,8.21800960615e-10,1.0826326502e-09,6.62030109552e-12
11360000000,283,11360000000,,0.000362524297088,-0.000241548390477,0.000135351467179,6.65373200981e-10,1.08826792022e-09,6.27415480681e-12
11400000000,284,11400000000,,0.000395827169996,-0.000181930052349,0.000135676673381,6.91949220144e-10,1.29410537841e-09,6.78639783258e-12
11440000000,285,11440000000,,0.000426560465712,-0.000119376039947,0.000135988200782,7.44485695314e-10,1.65849822764e-09,7.74720825686e-12
11480000000,286,11480000000,,0.000458691967651,-4.4003376388e-05,0.000136324029882,0.000763592019212,0.00187267782167,8.13904171082e-06
11520000000,287,11520000000,,0.000488893536385,3.86378924304e-05,0.000136654954986,0.000769748876337,0.00231573870406,8.78898845258e-06
11560000000,288,11560000000,,0.000516010273714,0.000126512735733,0.000136985399877,0.000664040679112,0.00234008952975,8.76841750141e-06
11602000000,289,11602000000,,0.000538388150744,0.000223720853683,0.000137349226861,0.000410741806263,0.00224903295748,8.54652535054e-06
11641000000,290,11641000000,,0.000548636482563,0.000306808651658,0.000137683746289,8.17447290413e-11,1.77197023721e-09,7.53302715345e-12
11681000000,291,11681000000,,0.000545380113181,0.000372259266442,0.00013798494183,-1.69412886497e-10,8.52957815489e-10,4.46945909102e-12
11720000000,292,11720000000,,0.00052888476057,0.000415578018874,0.000138240735396,-3.052584574e-10,5.38635913649e-10,3.47016079066e-12
11760000000,293,11760000000,,0.000501493632328,0.000451089406852,0.000138487695949,-4.79453809987e-10,4.6408465959e-10,3.48253001957e-12
11802000000,294,11802000000,,0.000461154559162,0.000483364856336,0.000138741350383,-6.99447832986e-10,4.91494900334e-10,3.97914990888e-12
11840000000,295,11840000000,,0.000417726085288,0.000508871104103,0.000138959483593,-1.01394448393e-09,4.77903105978e-10,4.43751068877e-12
11881000000,296,11881000000,,0.00035772274714,0.000532406498678,0.000139214025694,-1.26777710552e-09,4.17527734609e-10,5.37521893315e-12
11920000000,297,11920000000,,0.000290152005618,0.000549011398107,0.000139485200634,-1.68505753795e-09,3.13001402574e-10,6.4728465643e-12
11960000000,298,11960000000,,0.000211284015677,0.000558903382625,0.000139782947372,-0.00203068903647,0.000133436566102,7.49060154703e-06
12002000000,299,12002000000,,0.00011653223919,0.000558934640139,0.000140107847983,-0.00233496935107,-0.000104996077425,7.71190207161e-06
12051000000,300,12051000000,,-1.23798254208e-05,0.000546603288967,0.000140516640386,-0.00277088279836,-0.000416663708165,8.47962928674e-06
12080000000,301,12080000000,,-8.47361516207e-05,0.000535129278433,0.000140734264278,-0.00298519758508,-0.000560351298191,9.06876084628e-06
12120000000,302,12120000000,,-0.00021639141778,0.000501223432366,0.00014114935766,-0.00295251444913,-0.000941022764891,9.56123949436e-06
12160000000,303,12160000000,,-0.000329694710672,0.000457991933217,0.000141538621392,-0.00250871293247,-0.00120242824778,9.50614321482e-06
12201000000,304,12201000000,,-0.000419779447839,0.000405368453357,0.00014191774244,-0.0020474542398,-0.00140071904752,9.47065746004e-06
12242000000,305,12242000000,,-0.000493140425533,0.000344090221915,0.000142311910167,-0.00144906004425,-0.00154993694741,9.36788273975e-06
12280000000,306,12280000000,,-0.000538217078429,0.000283528119326,0.000142664677696,-9.64653357194e-10,-1.59788382526e-09,9.251746938e-12
12322000000,307,12322000000,,-0.000564477755688,0.000219563095015,0.000143021752592,-3.10767328537e-10,-1.29664723403e-09,6.98202780314e-12
12360000000,308,12360000000,,-0.00057234603446,0.000156839727424,0.000143350946018,-3.064265508e-11,-1.30194932613e-09,6.74263379505e-12
12402000000,309,12402000000,,-0.000567703682464,8.43251909828e-05,0.00014370190911,2.42153658236e-10,-1.84097659339e-09,8.45176966607e-12
12440000000,310,12440000000,,-0.000552242621779,3.28090436597e-06,0.000144062782056,0.00048509251792,-0.00208743289113,8.95222819963e-06
12483000000,311,12483000000,,-0.000528895179741,-8.34888560348e-05,0.000144412406371,0.000775903579779,-0.00262583117001,9.83614972938e-06
12522000000,312,12522000000,,-0.000488923396915,-0.000197495435714,0.000144834135426,0.00106160098221,-0.00273224106058,9.83584322967e-06
12561000000,313,12561000000,,-0.000440810777945,-0.000306608999381,0.000145225261804,0.0013030130649,-0.00255071860738,9.38572338782e-06
12601000000,314,12601000000,,-0.000391818000935,-0.000390299537685,0.000145550249727,0.00139860005584,-0.00217588595115,8.73166300153e-06
12640000000,315,12640000000,,-0.000328793597873,-0.000472598330816,0.000145906567923,0.00163263326976,-0.00174383830745,8.37467905512e-06
12680000000,316,12680000000,,-0.000258691696217,-0.000534551858436,0.000146250109538,0.00167899869848,-0.00125310092699,8.03113471193e-06
12724000000,317,12724000000,,-0.000185311961104,-0.000576664460823,0.000146582417074,1.58849955412e-09,-6.6509542318e-10,6.94385391201e-12
12762000000,318,12762000000,,-0.000122732337331,-0.000593407137785,0.000146856895299,1.22296806015e-09,-1.49751627765e-10,5.3564071581e-12
12800000000,319,12800000000,,-6.12650546827e-05,-0.000594484678004,0.000147115657455,1.27520305426e-09,8.74474173629e-11,5.24789846995e-12
12844000000,320,12844000000,,9.74963313638e-06,-0.000584435707424,0.000147401515278,1.5434313827e-09,3.03766012344e-10,5.92882166972e-12
12881000000,321,12881000000,,7.83506548032e-05,-0.000569395488128,0.000147652579471,1.89458893018e-09,4.88575291335e-10,6.76634182711e-12
12920000000,322,12920000000,,0.000156266600243,-0.000546052120626,0.000147923768964,0.00209557451308,0.000691011548042,6.96440292813e-06
12960000000,323,12960000000,,0.000251365068834,-0.000511769030709,0.000148223087308,0.00244451593608,0.00098434346728,7.5756734077e-06
13000000000,324,13000000000,,0.000349367881427,-0.000468415004434,0.000148525898112,0.0025322760921,0.00117904518265,7.741445188e-06
13040000000,325,13040000000,,0.000443500117399,-0.000419526448241,0.000148827573867,0.00226771901362,0.00134405470453,7.77851983003e-06
13080000000,326,13080000000,,0.000529114797246,-0.000362859689631,0.000149142899318,0.00190721021499,0.0013830071548,7.55999053581e-06
13120000000,327,13120000000,,0.000594043754973,-0.000306026398903,0.000149442086695,1.36459976652e-09,1.4565274542e-09,7.46503379945e-12
13160000000,328,13160000000,,0.000633923860732,-0.000252871861449,0.000149708692334,5.12438369515e-10,9.15925668643e-10,4.52425770459e-12
13202000000,329,13202000000,,0.000653105962556,-0.000201879796805,0.000149950064952,2.14060810744e-10,9.31048349528e-10,4.25193170603e-12
13240000000,330,13240000000,,0.000659230048768,-0.000143521116115,0.000150207502884,5.01478155876e-12,1.06508102338e-09,4.52476337648e-12
13281000000,331,13281000000,,0.000653683207929,-7.80527188908e-05,0.00015046945191,-2.48495168886e-10,1.45219192227e-09,5.51138518504e-12
13320000000,332,13320000000,,0.000635784410406,-9.3665694294e-06,0.000150721083628,-5.99245153499e-10,1.84006021531e-09,6.41304717663e-12
13360000000,333,13360000000,,0.000605040870141,6.99346637703e-05,0.000150985564687,-0.000949766719714,0.0020132183563,6.46641183266e-06
13400000000,334,13400000000,,0.000558743136935,0.000155214278493,0.000151252534124,-0.00137306354009,0.00235858163796,7.1203103289e-06
13440000000,335,13440000000,,0.000495916116051,0.000250259821769,0.000151536034537,-0.00177771504968,0.0023051649332,6.9286775215e-06
13480000000,336,13480000000,,0.00041757299914,0.00034108775435,0.00015181179333,-0.00199002306908,0.00210189074278,6.46397484161e-06
13520000000,337,13520000000,,0.000335803488269,0.000414100621128,0.000152047607116,-0.00221366016194,0.00164661882445,5.76776847083e-06
13562000000,338,13562000000,,0.00024548190413,0.000472193496535,0.000152268752572,-0.00229813298211,0.00126356584951,5.30906527274e-06
13601000000,339,13601000000,,0.000145569152664,0.000515167950653,0.000152478503878,-0.00243199872784,0.000811637321021,4.86049702886e-06
13640000000,340,13640000000,,5.70789161429e-05,0.000538097985554,0.000152655484271,-0.00239496701397,0.000427690392826,4.78222045786e-06
13680000000,341,13680000000,,-4.30247055192e-05,0.000546758237761,0.000152849825099,-0.00230305618607,1.00935139926e-05,4.50703601018e-06
13721000000,342,13721000000,,-0.000130205022288,0.000540243869182,0.000153024520841,-0.00210101739503,-0.000319508922985,4.18098670707e-06
13766000000,343,13766000000,,-0.000208221215871,0.000521147565451,0.000153188826516,-0.00194669445045,-0.00068948144326,4.44238730779e-06
13800000000,344,13800000000,,-0.00028254656354,0.000486845354317,0.000153369415784,-1.70085934226e-09,-9.44826661353e-10,4.28288177493e-12
13840000000,345,13840000000,,-0.00034445716301,0.000445370853413,0.000153534027049,-9.68452429362e-10,-8.59014304133e-10,2.78480580609e-12
13880000000,346,13880000000,,-0.000389488501241,0.00039940251736,0.000153671382577,-8.25912005453e-10,-9.31444477104e-10,2.59702871187e-12
13920000000,347,13920000000,,-0.000429126928793,0.000346823217114,0.000153808272444,-8.26611612492e-10,-1.25788690575e-09,3.12677466384e-12
13960000000,348,13960000000,,-0.000466660043458,0.000286805909127,0.000153950648382,-9.38891520086e-10,-1.5362401351e-09,3.60388411821e-12
14000000000,349,14000000000,,-0.000506293668877,0.000213247694774,0.000154113993631,-0.000943496124819,-0.00193685747217,4.12462441091e-06
14040000000,350,14040000000,,-0.000545421498828,0.000129701482365,0.000154288383783,-0.0010173143819,-0.00231936876662,4.82453242512e-06
14081000000,351,14081000000,,-0.000584620633163,2.73120404017e-05,0.000154497654876,-0.000858345883898,-0.00250826100819,5.01106887896e-06
14120000000,352,14120000000,,-0.000612379517406,-6.39203062747e-05,0.000154681285494,-0.000585918605793,-0.00238110148348,4.79003301734e-06
14160000000,353,14160000000,,-0.00062800879823,-0.000155542991706,0.000154866691446,-0.000214051469811,-0.00212672352791,4.31499847764e-06
14200000000,354,14200000000,,-0.000627877016086,-0.000235700528719,0.000155035784701,1.85010146092e-10,-1.55579271688e-09,3.35502459148e-12
14242000000,355,14242000000,,-0.000611085735727,-0.000295508885756,0.000155163099407,3.78377801313e-10,-7.0572564459e-10,1.45242867212e-12
14280000000,356,14280000000,,-0.000583471148275,-0.000332450901624,0.00015524023911,5.71561464824e-10,-5.96989180313e-10,1.31358411561e-12
14320000000,357,14320000000,,-0.00054052885389,-0.000366631749785,0.000155318222824,9.08711772496e-10,-5.82942305538e-10,1.40802365427e-12
14361000000,358,14361000000,,-0.000485256430693,-0.000398209056584,0.000155397006893,1.32847233214e-09,-6.81467826613e-10,1.776286041e-12
14400000000,359,14400000000,,-0.000414173380705,-0.000428308005212,0.000155475965585,0.00190315418877,-0.000697009789292,1.89007164408e-06
14440000000,360,14440000000,,-0.000332025723765,-0.000455163244624,0.000155552959768,0.00245996075682,-0.00072739017196,2.345715302e-06
14480000000,361,14480000000,,-0.000226471936912,-0.00048048919416,0.000155640678713,0.00281932740472,-0.000573763449211,2.23604365601e-06
14520000000,362,14520000000,,-0.000110809640319,-0.000499024987221,0.000155727597303,0.00292214099318,-0.000333245116053,1.93166169993e-06
14560000000,363,14560000000,,7.94354036771e-06,-0.000505629752297,0.000155799629283,0.00278582889587,-7.31924728825e-06,1.59973410518e-06
14602000000,364,14602000000,,0.000113146976219,-0.000499204907101,0.000155860645464,0.00259433197789,0.000299596402328,1.33413664116e-06
14640000000,365,14640000000,,0.000209415855352,-0.000481242139358,0.000155909190653,0.00223083049059,0.000616437464487,1.28280373701e-06
14680000000,366,14680000000,,0.000294895551633,-0.000449491373729,0.000155963469297,0.00192556646653,0.00086085771909,1.16891374091e-06
14720000000,367,14720000000,,0.000362863676855,-0.000410232838476,0.000156009671628,1.3947745181e-09,1.00596175834e-09,1.08825752229e-12
14760000000,368,14760000000,,0.00041219900595,-0.000365100917406,0.000156010864885,7.50165873864e-10,9.09271158367e-10,-8.32610076804e-13
14800000000,369,14800000000,,0.000444637262262,-0.000312431162456,0.000155946225277,6.06027894534e-10,1.24543242386e-09,-1.79335951471e-12
14841000000,370,14841000000,,0.000472761195851,-0.000245099974563,0.000155832196469,5.58379897875e-10,1.58320956345e-09,-2.90279432436e-12
14882000000,371,14882000000,,0.000499446876347,-0.00016785931075,0.00015573494602,0.000710966414772,0.00199961941689,-1.57410727297e-06
14920000000,372,14920000000,,0.000530481513124,-8.62312299432e-05,0.00015571838594,0.000900583749171,0.00238583120517,4.47169639983e-07
14960000000,373,14960000000,,0.000567665265407,1.72434592969e-05,0.000155771907885,0.000851848802995,0.0024846973829,1.69328643551e-06
15001000000,374,15001000000,,0.000596855184995,0.000113329435408,0.000155854359036,0.000593011034653,0.00236868625507,2.42943792728e-06
15041000000,375,15041000000,,0.000613887037616,0.000204026466236,0.000155961359269,0.000231970465393,0.00201654201373,2.74400167655e-06
15080000000,376,15080000000,,0.00061485345941,0.00027488352498,0.00015607039677,-1.37514999388e-10,1.49196333066e-09,2.59416771918e-12
15123000000,377,15123000000,,0.000598021259066,0.000335811462719,0.00015617882309,-3.67600921924e-10,6.59120424906e-10,1.21556725189e-12
15161000000,378,15161000000,,0.000570221396629,0.000371461181203,0.000156255628099,-5.57990931238e-10,5.37558608737e-10,1.35712556644e-12
15200000000,379,15200000000,,0.000526638876181,0.000402679870604,0.000156347596203,-9.12510289552e-10,5.33096233823e-10,1.82034747519e-12
15240000000,380,15240000000,,0.000481086055515,0.000426603044616,0.000156439695274,-1.25086374592e-09,5.78070424861e-10,2.46311781735e-12
15280000000,381,15280000000,,0.000412639637943,0.000451871688711,0.000156559355673,-1.85505644179e-09,5.67621338821e-10,3.00775094934e-12
15320000000,382,15320000000,,0.000317134195939,0.000476991554024,0.000156710855663,-0.00229360489175,0.000480588700157,3.33907564709e-06
15360000000,383,15360000000,,0.000211161313928,0.000494422740303,0.000156859139679,-0.0028922134079,0.000386202154914,3.99896543968e-06
15400000000,384,15400000000,,8.74640027178e-05,0.000505998439621,0.000157026355737,-0.00322786718607,0.000173962660483,4.07503148381e-06
15440000000,385,15440000000,,-3.82657344744e-05,0.000507624587044,0.000157183691044,-0.00317470636219,-9.56027288339e-05,4.06335038861e-06
15481000000,386,15481000000,,-0.000158638169523,0.000498331675772,0.000157335336553,-0.00309388292953,-0.000374289054889,3.9261440179e-06
15521000000,387,15521000000,,-0.000283299799776,0.000474662258057,0.000157506743562,-0.00268440274522,-0.000707587576471,4.01018087359e-06
15560000000,388,15560000000,,-0.000383357197279,0.000441845331807,0.000157662143465,-0.00229641236365,-0.0009178587934,3.84017084798e-06
15600000000,389,15600000000,,-0.000464090466266,0.000399688316975,0.000157817587024,-0.00178204954136,-0.00115171843208,3.87261570722e-06
15641000000,390,15641000000,,-0.000526807329152,0.000351977243554,0.000157968053827,-1.21864751623e-09,-1.16305409747e-09,3.47928738771e-12
15680000000,391,15680000000,,-0.000563846610021,0.000304432382109,0.000158089504112,-5.50845646874e-10,-9.34703980882e-10,2.14584318196e-12
15720000000,392,15720000000,,-0.000587979098782,0.000251669611316,0.000158204275067,-3.22305626632e-10,-9.86296599947e-10,2.05003744015e-12
15760000000,393,15760000000,,-0.000601931125857,0.000190591599676,0.00015832806821,-2.0724186256e-10,-1.25034826937e-09,2.45296057771e-12
15800000000,394,15800000000,,-0.000609011331107,0.000125958074932,0.000158453607582,-8.39523173202e-11,-1.61001934007e-09,3.02565763242e-12
15840000000,395,15840000000,,-0.000609042006545,5.38717940799e-05,0.000158585040481,7.79677919449e-11,-1.89166460274e-09,3.36012511218e-12
15880000000,396,15880000000,,-0.000600453699008,-3.45938824466e-05,0.000158736511366,0.00031666670111,-0.00220276904292,3.65184450857e-06
15920000000,397,15920000000,,-0.00058151979465,-0.000133051886223,0.000158903189003,0.00060020503588,-0.00243530375883,4.05608079745e-06
15960000000,398,15960000000,,-0.000553591176867,-0.000228730714298,0.000159059185535,0.000868970004376,-0.00254993699491,4.12678218709e-06
16000000000,399,16000000000,,-0.000511331483722,-0.000327240792103,0.000159213450388,0.00115920603275,-0.00224904762581,3.60710600944e-06
16040000000,400,16040000000,,-0.000462544150651,-0.000408973399317,0.000159341536346,0.00141736830119,-0.00198205094784,3.17403373629e-06
16080000000,401,16080000000,,-0.000399818265578,-0.000478424684843,0.000159459857969,0.00162349699531,-0.00147073937114,2.65631524599e-06
16127000000,402,16127000000,,-0.000336065568263,-0.000525366747752,0.000159551069373,0.00174752611201,-0.00098872941453,2.10087728192e-06
16160000000,403,16160000000,,-0.000263429101324,-0.000554973608814,0.000159623654326,1.67555247454e-09,-4.37211877813e-10,1.56803378875e-12
16200000000,404,16200000000,,-0.000193601998035,-0.000562549452297,0.000159662871738,1.43856559998e-09,2.68835960437e-11,4.35678619917e-13
16241000000,405,16241000000,,-0.000126463884953,-0.000555453589186,0.000159680188517,1.49504864044e-09,2.77916412106e-10,2.8499365411e-13
16280000000,406,16280000000,,-5.33431921212e-05,-0.000538281106856,0.000159693707246,0.00194596883375,0.000524256087374,3.32931591629e-07
16320000000,407,16320000000,,3.24925167661e-05,-0.000511505175382,0.000159719944349,0.00234740483575,0.00080793374218,1.0196522453e-06
16360000000,408,16360000000,,0.000133310531965,-0.00047455294407,0.000159760194947,0.0025832480751,0.00100653944537,1.11963515792e-06
16400000000,409,16400000000,,0.000233922211919,-0.000430308078649,0.000159804476425,0.0025203358382,0.00120549392886,1.19910123431e-06
16440000000,410,16440000000,,0.000330368842697,-0.000381333025871,0.000159845105372,0.00231215870008,0.00130445940886,1.10012831556e-06
16482000000,411,16482000000,,0.000418157636886,-0.000324615597492,0.000159892166266,0.00196733488701,0.00139477022458,1.01209536751e-06
16521000000,412,16521000000,,0.000480407150462,-0.000276545149973,0.000159923685715,0.00156937073916,0.00138956564479,8.57023678691e-07
16560000000,413,16560000000,,0.000537766027264,-0.000215181542444,0.000159958697623,9.28388643739e-10,1.17008913669e-09,5.32851052778e-13
16600000000,414,16600000000,,0.00056612060871,-0.0001680629357,0.000159956602147,3.38491706886e-10,7.88053955425e-10,-1.23248064315e-13
16642000000,415,16642000000,,0.000580680556595,-0.000117439543828,0.000159944975167,1.23798860052e-10,7.37354455271e-10,-2.1400081414e-13
16681000000,416,16681000000,,0.000584085064474,-6.87650390319e-05,0.000159935007105,5.08495101494e-13,9.3330265738e-10,-7.91002463182e-14
16720000000,417,16720000000,,0.000579832412768,-1.20854392662e-05,0.000159930001246,-1.4781890989e-10,1.08131459342e-09,-5.99489736824e-14
16760000000,418,16760000000,,0.000567810144275,5.06587057316e-05,0.000159930350492,-3.40472400273e-10,1.41158973399e-09,8.1025233723e-14
16802000000,419,16802000000,,0.000544927432202,0.000121478318761,0.000159930190421,-6.30553942393e-10,1.58578583598e-09,-7.70614041329e-14
16841000000,420,16841000000,,0.000513521779794,0.000192180494196,0.000159919945872,-0.000935944612138,0.00187416572589,-5.27329802935e-07
16880000000,421,16880000000,,0.000467362202471,0.000271545315627,0.000159897841513,-0.00134637521114,0.00213997531682,-4.66509220587e-07
16922000000,422,16922000000,,0.000406043749535,0.000360638019629,0.000159870935022,-0.0016574828187,0.00213287048973,-9.52249365582e-07
16960000000,423,16960000000,,0.000337923615007,0.000436468282714,0.00015982108016,-0.00186927628238,0.00189728417899,-1.63570280165e-06
17000000000,424,17000000000,,0.000260020577116,0.000505050527863,0.000159742106916,-0.00204619136639,0.00148772110697,-2.3806351237e-06
17040000000,425,17040000000,,0.000176110756001,0.000555503473151,0.000159628063557,-0.00205042865127,0.00100422068499,-2.94756637231e-06
17081000000,426,17081000000,,9.24092018977e-05,0.00058574025752,0.000159489791258,-0.00203449721448,0.000487605138915,-3.75553213416e-06
17120000000,427,17120000000,,2.04672469408e-05,0.000594715937041,0.000159353410709,-1.90173055081e-09,-2.97441541883e-12,-3.74617567869e-12
17161000000,428,17161000000,,-6.04003180342e-05,0.00058681628434,0.000159170929692,-1.75048342488e-09,-3.19641202395e-10,-4.76467303112e-12
17201000000,429,17201000000,,-0.000125703649246,0.000563550449442,0.00015890650684,-1.05854369714e-09,-5.36182653832e-10,-5.57505951126e-12
17240000000,430,17240000000,,-0.000181182986125,0.000533067097422,0.00015861193242,-1.24262744539e-09,-7.40812855504e-10,-6.59578901913e-12
17282000000,431,17282000000,,-0.000245449773502,0.000490155362058,0.000158283539349,-1.62980062779e-09,-1.14469800305e-09,-7.92064590999e-12
17322000000,432,17322000000,,-0.00030583984335,0.000446927995654,0.000158002832904,-0.00175244384445,-0.00135698262602,-8.14250415715e-06
17362000000,433,17362000000,,-0.000389619701309,0.000375307252398,0.000157642542035,-0.00206334865652,-0.0018063087482,-7.72831208451e-06
17406000000,434,17406000000,,-0.00046334558283,0.000306412141072,0.000157347443746,-0.00188465695828,-0.00196148548275,-8.17265481601e-06
17441000000,435,17441000000,,-0.000540418201126,0.000220801273827,0.000157034533913,-0.00191669096239,-0.00219805375673,-7.68145400798e-06
17480000000,436,17480000000,,-0.000610145158134,0.000129297579406,0.000156712805619,-0.00146698078606,-0.00225553754717,-7.97527354734e-06
17520000000,437,17520000000,,-0.0006572738057,4.55266053905e-05,0.000156387468451,-0.000964047620073,-0.0019886251539,-8.74300894793e-06
17560000000,438,17560000000,,-0.000683046178892,-3.1053150451e-05,0.000156026624609,-3.39986233611e-10,-1.69240610415e-09,-8.62636784921e-12
17600000000,439,17600000000,,-0.000688303611241,-8.18538828753e-05,0.000155737536261,1.14992509872e-12,-1.20238896617e-09,-7.69741562157e-12
17641000000,440,17641000000,,-0.000674704322591,-0.000132883651531,0.000155294517754,3.78993836314e-10,-7.22253090668e-10,-7.4167408326e-12
17680000000,441,17680000000,,-0.000633550982457,-0.000189658589079,0.000154717577971,7.99839638965e-10,-9.17320164273e-10,-8.89997277265e-12
17720000000,442,17720000000,,-0.000584385765251,-0.000241431829636,0.000154258101247,1.31780120149e-09,-1.24008903146e-09,-1.06581844045e-11
17761000000,443,17761000000,,-0.000523276161402,-0.000292899727356,0.000153821529238,0.00171936710831,-0.00136423669755,-1.12230163722e-05
17803000000,444,17803000000,,-0.000432108121458,-0.000358799792593,0.000153341548867,0.00233731558546,-0.00147605570965,-1.09963320938e-05
17840000000,445,17840000000,,-0.000340689672157,-0.000412605935708,0.000152930922923,0.00263032899238,-0.00147007475607,-1.1045210158e-05
17881000000,446,17881000000,,-0.000226591044338,-0.000468027836177,0.000152469452587,0.00284920074046,-0.00117024534848,-1.15635575639e-05
17920000000,447,17920000000,,-0.000118954696518,-0.000507215270773,0.000152025531861,0.00277493684553,-0.000881131913047,-1.18396192192e-05
17961000000,448,17961000000,,-4.109373549e-06,-0.000533049576916,0.000151491098222,0.00267333886586,-0.000344108906575,-1.36713069878e-05
18001000000,449,18001000000,,9.26921347855e-05,-0.000535469909664,0.000150946027134,0.0024495292455,0.00017924560234,-1.4984389054e-05
18040000000,450,18040000000,,0.000188196252566,-0.000520188419614,0.000150296968059,0.00220557395369,0.000617086945567,-1.6306001271e-05
18080000000,451,18080000000,,0.000269957061391,-0.000488477526233,0.000149625600898,0.00193561345804,0.000964973238297,-1.71812862391e-05
18120000000,452,18120000000,,0.000339740101481,-0.000447390251793,0.000148936131154,1.60419655337e-09,1.13975351379e-09,-1.79550870699e-11
18160000000,453,18160000000,,0.000395593000576,-0.000401380995754,0.000148185557919,8.550018471e-10,8.03281940964e-10,-1.42679028314e-11
18200000000,454,18200000000,,0.000435056368588,-0.000359586003469,0.000147465791088,6.64437893594e-10,8.13232925445e-10,-1.32266784331e-11
18240000000,455,18240000000,,0.000468141632155,-0.000315440294798,0.000146735226735,5.41640510221e-10,7.63298424467e-10,-1.24331083623e-11
18280000000,456,18280000000,,0.000498983776197,-0.000265020091319,0.000146001359099,5.68518510047e-10,1.05258513017e-09,-1.35807276883e-11
18321000000,457,18321000000,,0.000528223114088,-0.000205772405025,0.000145286147017,5.77496217513e-10,1.27827526342e-09,-1.44760054638e-11
18360000000,458,18360000000,,0.000551455654204,-0.000144976875163,0.000144651392475,5.48927681088e-10,1.6444983153e-09,-1.57938332551e-11
18400000000,459,18400000000,,0.000573770666961,-7.01618046151e-05,0.000143958706758,4.63192956213e-10,1.84543824666e-09,-1.64060275781e-11
18441000000,460,18441000000,,0.000589650881011,1.23935369629e-05,0.000143274912261,0.000292375625577,0.0020828479901,-1.66552945302e-05
18481000000,461,18481000000,,0.000598136917688,0.000103254882561,0.000142628909089,0.000101153316791,0.00234932126477,-1.60181189131e-05
18520000000,462,18520000000,,0.000597308506258,0.000195960848941,0.0001420302724,-0.000156579480972,0.00234741508029,-1.5956669813e-05
18560000000,463,18560000000,,0.000583113345783,0.000287969683995,0.000141354044899,-0.000492941995617,0.00204577716067,-1.63246713782e-05
18604000000,464,18604000000,,0.000557745748665,0.000359859142918,0.00014070814359,-7.6517669978e-10,1.48491219321e-09,-1.53056387009e-11
18642000000,465,18642000000,,0.000515445368364,0.000419226329541,0.000139976269566,-8.90868767645e-10,9.39778144193e-10,-1.38473425434e-11
18680000000,466,18680000000,,0.000470388913527,0.000447015394457,0.00013927690452,-9.4727214961e-10,3.82842202384e-10,-1.336130772e-11
18720000000,467,18720000000,,0.000413238361944,0.000465037883259,0.000138553950819,-1.33288335924e-09,3.46961764874e-10,-1.51849262331e-11
18762000000,468,18762000000,,0.000342574174283,0.000479480804643,0.000137844544952,-0.00199278164655,0.00030175212305,-1.81677423825e-05
18800000000,469,18800000000,,0.000248771015322,0.000489962636493,0.000137117516715,-0.00250706262887,0.00018851965433,-1.75126369868e-05
18842000000,470,18842000000,,0.000130808999529,0.000493546889629,0.000136366405059,-0.00281606637873,-3.07379632432e-05,-1.75353870873e-05
18884000000,471,18884000000,,3.68137407349e-05,0.000488648074679,0.000135766254971,-0.00274417269975,-0.000251343357377,-1.77884430741e-05
18932000000,472,18932000000,,-0.000116460993013,0.00046509472304,0.00013479097106,-0.00263423775323,-0.000611375668086,-1.77696583705e-05
18960000000,473,18960000000,,-0.000191690502106,0.000444146775408,0.000134302521474,-0.00268220342696,-0.00084752967814,-1.73688895302e-05
19000000000,474,19000000000,,-0.000293152523227,0.000406178471167,0.000133609719342,-0.00232063862495,-0.001058430993,-1.73153184733e-05
19040000000,475,19040000000,,-0.000378452241421,0.000360749923857,0.000132916393341,-0.00198812410235,-0.00118926446885,-1.73105363501e-05
19080000000,476,19080000000,,-0.000446855759947,0.000311440671794,0.000132244211272,-0.00152908300515,-0.00134481710847,-1.71381034306e-05
19121000000,477,19121000000,,-0.000502317561768,0.000253738689935,0.000131524560857,-9.94758386774e-10,-1.19985965608e-09,-1.51567942225e-11
19161000000,478,19161000000,,-0.00053686479805,0.000200159105589,0.000130850836285,-3.88432397358e-10,-8.86834106151e-10,-1.24230608439e-11
19200000000,479,19200000000,,-0.00055191537831,0.000151745189214,0.000130146901938,-1.50856341308e-10,-7.78599074103e-10,-1.14168613799e-11
19240000000,480,19240000000,,-0.000558495987207,9.4021721452e-05,0.000129397507408,-6.36191516135e-11,-1.11210196607e-09,-1.31617078347e-11
