%time,field.header.seq,field.header.stamp,field.header.frame_id,field.angular_velocities0,field.angular_velocities1,field.angular_velocities2,field.angular_velocities3
1800000000,18,1800000000,,400.353785976,400.353676613,400.353785976,400.353676613
1900000000,19,1900000000,,423.365224147,423.365114785,423.365224147,423.365114785
2000000000,20,2000000000,,429.530150578,429.530041215,429.530150578,429.530041215
2100000000,21,2100000000,,434.147907298,434.147797936,434.147907298,434.147797936
2202000000,22,2202000000,,404.465515605,404.465406242,404.465515605,404.465406242
2302000000,23,2302000000,,450.957888471,450.957779109,450.957888471,450.957779109
2400000000,24,2400000000,,411.964617881,411.964508521,411.964617881,411.964508521
2500000000,25,2500000000,,416.526696802,416.526587441,416.526696802,416.526587441
2600000000,26,2600000000,,411.574679146,411.574569786,411.574679146,411.574569786
2700000000,27,2700000000,,423.677679987,423.677570627,423.677679987,423.677570627
2800000000,28,2800000000,,425.223471145,425.223361784,425.223471145,425.223361784
2900000000,29,2900000000,,432.468482168,432.468372807,432.468482168,432.468372807
3001000000,30,3001000000,,427.254489108,427.254379748,427.254489108,427.254379748
3102000000,31,3102000000,,437.219312028,437.226424165,437.219312028,437.226424165
3201000000,32,3201000000,,424.887769606,424.890850766,424.887769606,424.890850766
3300000000,33,3300000000,,426.738099237,426.741536991,426.738099237,426.741536991
3401000000,34,3401000000,,424.995154475,424.998552843,424.995154475,424.998552843
3500000000,35,3500000000,,427.451759925,427.455297803,427.451759925,427.455297803
3600000000,36,3600000000,,427.222250213,427.21573192,427.222250213,427.21573192
3700000000,37,3700000000,,435.943085175,435.943071418,435.943085175,435.943071418
3800000000,38,3800000000,,430.606582318,430.606568566,430.606582318,430.606568566
3900000000,39,3900000000,,433.798889672,433.809051085,433.798889672,433.809051085
4000000000,40,4000000000,,434.114053414,434.116964804,434.114053414,434.116964804
4101000000,41,4101000000,,430.658660177,430.661174908,430.658660177,430.661174908
4200000000,42,4200000000,,433.301695063,433.304186288,433.301695063,433.304186288
4300000000,43,4300000000,,431.947419916,431.949990156,431.947419916,431.949990156
4400000000,44,4400000000,,423.023668677,423.026329192,423.023668677,423.026329192
4500000000,45,4500000000,,436.765587515,436.760408,436.765587515,436.760408
4602000000,46,4602000000,,417.24968867,417.249792767,417.24968867,417.249792767
4701000000,47,4701000000,,434.429018784,434.436438142,434.429018784,434.436438142
4800000000,48,4800000000,,444.725471571,444.72823363,444.725471571,444.72823363
4900000000,49,4900000000,,433.996345676,433.991510225,433.996345676,433.991510225
5000000000,50,5000000000,,426.680213729,426.680350181,426.680213729,426.680350181
5100000000,51,5100000000,,418.205162185,418.205298642,418.205162185,418.205298642
5200000000,52,5200000000,,436.629901579,436.630038036,436.629901579,436.630038036
5300000000,53,5300000000,,443.665555308,443.671926968,443.665555308,443.671926968
5400000000,54,5400000000,,433.122054696,433.124460271,433.122054696,433.124460271
5500000000,55,5500000000,,438.407005111,438.408850216,438.407005111,438.408850216
5601000000,56,5601000000,,430.28605994,430.282325654,430.28605994,430.282325654
5700000000,57,5700000000,,434.212832955,434.213010604,434.212832955,434.213010604
5800000000,58,5800000000,,435.626750781,435.632145095,435.626750781,435.632145095
5900000000,59,5900000000,,423.078133354,423.079699951,423.078133354,423.079699951
6003000000,60,6003000000,,434.231310323,434.228379734,434.231310323,434.228379734
6100000000,61,6100000000,,421.549404234,421.549604195,421.549404234,421.549604195
6200000000,62,6200000000,,440.674425216,440.674625178,440.674425216,440.674625178
6302000000,63,6302000000,,438.208624999,438.208950796,438.208624999,438.208950796
6400000000,64,6400000000,,439.511852755,439.511678715,439.511852755,439.511678715
6500000000,65,6500000000,,431.062002335,431.062390822,431.062002335,431.062390822
6600000000,66,6600000000,,428.925152133,428.925351766,428.925152133,428.925351766
6702000000,67,6702000000,,431.190098633,431.190298265,431.190098633,431.190298265
6800000000,68,6800000000,,426.751628265,426.74997184,426.751628265,426.74997184
6900000000,69,6900000000,,425.64835126,425.647610129,425.64835126,425.647610129
7001000000,70,7001000000,,452.746825572,452.74843569,452.746825572,452.74843569
7100000000,71,7100000000,,431.939389627,431.941368555,431.939389627,431.941368555
7201000000,72,7201000000,,426.144782217,426.151136749,426.144782217,426.151136749
7301000000,73,7301000000,,434.952419176,434.957830817,434.952419176,434.957830817
7400000000,74,7400000000,,427.226006806,427.21944883,427.226006806,427.21944883
7501000000,75,7501000000,,442.52248255,442.522716264,442.52248255,442.522716264
7601000000,76,7601000000,,428.933231935,428.946648184,428.933231935,428.946648184
7702000000,77,7702000000,,424.364745152,424.369924546,424.364745152,424.369924546
7800000000,78,7800000000,,429.900993945,429.906005623,429.900993945,429.906005623
7901000000,79,7901000000,,426.777068015,426.768288308,426.777068015,426.768288308
8000000000,80,8000000000,,435.028903999,435.029227632,435.028903999,435.029227632
8102000000,81,8102000000,,435.554590801,435.554914437,435.554590801,435.554914437
8200000000,82,8200000000,,433.231573987,433.246662623,433.231573987,433.246662623
8302000000,83,8302000000,,430.273995844,430.278978513,430.273995844,430.278978513
8402000000,84,8402000000,,430.506459992,430.497326264,430.506459992,430.497326264
8500000000,85,8500000000,,433.737133495,433.751131113,433.737133495,433.751131113
8600000000,86,8600000000,,425.31061341,425.315948339,425.31061341,425.315948339
8700000000,87,8700000000,,436.159918199,436.164747879,436.159918199,436.164747879
8803000000,88,8803000000,,437.133648846,437.125346527,437.133648846,437.125346527
8902000000,89,8902000000,,438.708959648,438.709437343,438.708959648,438.709437343
9000000000,90,9000000000,,423.857231201,423.857708898,423.857231201,423.857708898
9105000000,91,9105000000,,425.189982871,425.201081084,425.189982871,425.201081084
9203000000,92,9203000000,,422.620839835,422.624088399,422.620839835,422.624088399
9304000000,93,9304000000,,440.385802525,440.38892666,440.385802525,440.38892666
9401000000,94,9401000000,,438.289838496,438.293103204,438.289838496,438.293103204
9500000000,95,9500000000,,419.888107803,419.882692246,419.888107803,419.882692246
9602000000,96,9602000000,,433.87471158,433.875276579,433.87471158,433.875276579
9701000000,97,9701000000,,440.997725327,441.006647631,440.997725327,441.006647631
9800000000,98,9800000000,,431.570110446,431.574033289,431.570110446,431.574033289
9901000000,99,9901000000,,437.1882412,437.183009785,437.1882412,437.183009785
10000000000,100,10000000000,,428.123481764,428.12408443,428.123481764,428.12408443
10101000000,101,10101000000,,439.318587886,439.325832242,439.318587886,439.325832242
10200000000,102,10200000000,,417.039183954,417.042147548,417.039183954,417.042147548
10300000000,103,10300000000,,436.308889279,436.31145906,436.308889279,436.31145906
10400000000,104,10400000000,,438.78964292,438.78599562,438.78964292,438.78599562
10500000000,105,10500000000,,423.984243922,423.984890784,423.984243922,423.984890784
10602000000,106,10602000000,,431.69924748,431.699894344,431.69924748,431.699894344
10702000000,107,10702000000,,431.643326121,431.649789101,431.643326121,431.649789101
10800000000,108,10800000000,,434.374089434,434.377003511,434.374089434,434.377003511
10908000000,109,10908000000,,439.090539421,439.092383656,439.090539421,439.092383656
11002000000,110,11002000000,,438.885925314,438.887951592,438.885925314,438.887951592
11101000000,111,11101000000,,424.553332703,424.555110725,424.553332703,424.555110725
11200000000,112,11200000000,,425.945582615,425.947502285,425.945582615,425.947502285
11300000000,113,11300000000,,431.914626946,431.912634442,431.914626946,431.912634442
11400000000,114,11400000000,,445.177133366,445.177847238,445.177133366,445.177847238
11501000000,115,11501000000,,426.236421189,426.241085218,426.236421189,426.241085218
11602000000,116,11602000000,,431.594576545,431.596509731,431.594576545,431.596509731
11701000000,117,11701000000,,422.911101524,422.909243078,422.911101524,422.909243078
11804000000,118,11804000000,,433.570487859,433.571219268,433.570487859,433.571219268
11900000000,119,11900000000,,441.81862249,441.8193539,441.81862249,441.8193539
12001000000,120,12001000000,,430.581177716,430.585337594,430.581177716,430.585337594
12101000000,121,12101000000,,428.323382704,428.326096258,428.323382704,428.326096258
12200000000,122,12200000000,,431.754424083,431.756607749,431.754424083,431.756607749
12301000000,123,12301000000,,434.295777472,434.293719599,434.295777472,434.293719599
12402000000,124,12402000000,,426.366094737,426.366852729,426.366094737,426.366852729
12500000000,125,12500000000,,437.196450729,437.201586613,437.196450729,437.201586613
12601000000,126,12601000000,,435.417310626,435.419145334,435.417310626,435.419145334
12700000000,127,12700000000,,433.301581429,433.29971167,433.301581429,433.29971167
12800000000,128,12800000000,,423.256380948,423.257157144,423.256380948,423.257157144
12900000000,129,12900000000,,430.187250614,430.19119862,430.187250614,430.19119862
13000000000,130,13000000000,,432.567288148,432.569448819,432.567288148,432.569448819
13100000000,131,13100000000,,438.061485199,438.063289359,438.061485199,438.063289359
13202000000,132,13202000000,,432.368813903,432.367438715,432.368813903,432.367438715
13301000000,133,13301000000,,424.552165739,424.552964091,424.552165739,424.552964091
13400000000,134,13400000000,,438.430727487,438.434758602,438.430727487,438.434758602
13500000000,135,13500000000,,427.892902189,427.89426148,427.892902189,427.89426148
13601000000,136,13601000000,,429.16511754,429.16635724,429.16511754,429.16635724
13700000000,137,13700000000,,433.905958508,433.907286317,433.905958508,433.907286317
13800000000,138,13800000000,,433.109241871,433.108741409,433.109241871,433.108741409
13900000000,139,13900000000,,435.928834957,435.92965564,435.928834957,435.92965564
14001000000,140,14001000000,,439.247703966,439.250372644,439.247703966,439.250372644
14100000000,141,14100000000,,427.580273721,427.581989639,427.580273721,427.581989639
14200000000,142,14200000000,,438.7728944,438.772309254,438.7728944,438.772309254
14300000000,143,14300000000,,416.838354958,416.839184475,416.838354958,416.839184475
14402000000,144,14402000000,,434.104126433,434.105802454,434.104126433,434.105802454
14501000000,145,14501000000,,446.968569725,446.969862762,446.968569725,446.969862762
14602000000,146,14602000000,,431.278347911,431.279100399,431.278347911,431.279100399
14700000000,147,14700000000,,421.400196641,421.4006233,421.400196641,421.4006233
14800000000,148,14800000000,,437.29419382,437.295028887,437.29419382,437.295028887
14900000000,149,14900000000,,433.782018286,433.782839348,433.782018286,433.782839348
15001000000,150,15001000000,,432.966492931,432.968425677,432.966492931,432.968425677
15100000000,151,15100000000,,428.346910491,428.347011789,428.346910491,428.347011789
15200000000,152,15200000000,,434.265215475,434.266052966,434.265215475,434.266052966
15300000000,153,15300000000,,438.977321908,438.979703194,438.977321908,438.979703194
15401000000,154,15401000000,,431.3972427,431.398886954,431.3972427,431.398886954
15500000000,155,15500000000,,428.334089626,428.335569698,428.334089626,428.335569698
15600000000,156,15600000000,,436.567698534,436.569061141,436.567698534,436.569061141
15700000000,157,15700000000,,434.979398314,434.979089488,434.979398314,434.979089488
15800000000,158,15800000000,,422.740280904,422.741133863,422.740280904,422.741133863
15900000000,159,15900000000,,433.900519595,433.903335831,433.900519595,433.903335831
16000000000,160,16000000000,,421.340424471,421.341620695,421.340424471,421.341620695
16100000000,161,16100000000,,446.878138313,446.878984246,446.878138313,446.878984246
16200000000,162,16200000000,,433.918655491,433.918801025,433.918655491,433.918801025
16300000000,163,16300000000,,429.300700552,429.301720917,429.300700552,429.301720917
16400000000,164,16400000000,,425.555997126,425.55730287,425.555997126,425.55730287
16500000000,165,16500000000,,436.001533752,436.002416204,436.001533752,436.002416204
16600000000,166,16600000000,,426.443402536,426.444014817,426.443402536,426.444014817
16703000000,167,16703000000,,428.472964489,428.473830245,428.472964489,428.473830245
16801000000,168,16801000000,,434.677843466,434.678709222,434.677843466,434.678709222
16900000000,169,16900000000,,440.618525925,440.619022345,440.618525925,440.619022345
17000000000,170,17000000000,,436.586514577,436.586549904,436.586514577,436.586549904
17101000000,171,17101000000,,424.867011976,424.866881833,424.867011976,424.866881833
17202000000,172,17202000000,,428.941839219,428.943824865,428.941839219,428.943824865
17301000000,173,17301000000,,432.58578438,432.583028693,432.58578438,432.583028693
17406000000,174,17406000000,,429.108968303,429.108524189,429.108968303,429.108524189
17502000000,175,17502000000,,436.191702558,436.1912436,436.191702558,436.1912436
17600000000,176,17600000000,,437.372952344,437.376333041,437.372952344,437.376333041
17700000000,177,17700000000,,432.3417436,432.342577888,432.3417436,432.342577888
17803000000,178,17803000000,,416.924075354,416.920046056,416.924075354,416.920046056
17901000000,179,17901000000,,439.271804421,439.270667399,439.271804421,439.270667399
18000000000,180,18000000000,,440.62227823,440.619817502,440.62227823,440.619817502
18100000000,181,18100000000,,426.542526181,426.53983785,426.542526181,426.53983785
18200000000,182,18200000000,,429.743642239,429.749729691,429.743642239,429.749729691
18302000000,183,18302000000,,432.862293137,432.86307215,432.862293137,432.86307215
18400000000,184,18400000000,,432.443373643,432.444152655,432.443373643,432.444152655
18503000000,185,18503000000,,421.879664224,421.873549287,421.879664224,421.873549287
18604000000,186,18604000000,,440.950294621,440.955687343,440.950294621,440.955687343
18701000000,187,18701000000,,432.543923717,432.544686676,432.543923717,432.544686676
18800000000,188,18800000000,,433.888923475,433.881735347,433.888923475,433.881735347
18900000000,189,18900000000,,434.330547874,434.328577687,434.330547874,434.328577687
19000000000,190,19000000000,,430.355998957,430.354218988,430.355998957,430.354218988
19102000000,191,19102000000,,429.176283168,429.182086538,429.176283168,429.182086538
19200000000,192,19200000000,,440.656347182,440.657057819,440.656347182,440.657057819
19302000000,193,19302000000,,424.97920627,424.979916904,424.97920627,424.979916904
19400000000,194,19400000000,,441.01192218,441.005585771,441.01192218,441.005585771
19501000000,195,19501000000,,432.673971147,432.673428032,432.673971147,432.673428032
19600000000,196,19600000000,,427.392445236,427.397062555,427.392445236,427.397062555
19700000000,197,19700000000,,423.616215312,423.616897724,423.616215312,423.616897724
19801000000,198,19801000000,,424.269895305,424.265317983,424.269895305,424.265317983
19904000000,199,19904000000,,442.554844211,442.554239696,442.554844211,442.554239696
20002000000,200,20002000000,,438.787423091,438.786670651,438.787423091,438.786670651
20100000000,201,20100000000,,431.115796105,431.119567306,431.115796105,431.119567306
20200000000,202,20200000000,,428.216104672,428.216754302,428.216104672,428.216754302
20300000000,203,20300000000,,422.345560159,422.341422869,422.345560159,422.341422869
20401000000,204,20401000000,,436.140464713,436.139968753,436.140464713,436.139968753
20505000000,205,20505000000,,440.348998969,440.348114769,440.348998969,440.348114769
20600000000,206,20600000000,,432.244159936,432.247850166,432.244159936,432.247850166
20700000000,207,20700000000,,439.230888072,439.23150731,439.230888072,439.23150731
20800000000,208,20800000000,,421.513799639,421.514418876,421.513799639,421.514418876
20908000000,209,20908000000,,424.821816249,424.818797894,424.821816249,424.818797894
21000000000,210,21000000000,,439.005946018,439.005608452,439.005946018,439.005608452
21100000000,211,21100000000,,435.659041623,435.661980055,435.659041623,435.661980055
21200000000,212,21200000000,,427.829306906,427.82990982,427.829306906,427.82990982
21301000000,213,21301000000,,428.030071635,428.026207401,428.030071635,428.026207401
21401000000,214,21401000000,,418.480355013,418.479476377,418.480355013,418.479476377
21500000000,215,21500000000,,436.767995364,436.76669699,436.767995364,436.76669699
21601000000,216,21601000000,,438.40755416,438.411318925,438.40755416,438.411318925
21702000000,217,21702000000,,443.10824489,443.108817198,443.10824489,443.108817198
21800000000,218,21800000000,,427.759379273,427.75995158,427.759379273,427.75995158
21900000000,219,21900000000,,422.282438499,422.278768362,422.282438499,422.278768362
22000000000,220,22000000000,,423.231721306,423.231096027,423.231721306,423.231096027
22100000000,221,22100000000,,431.41840639,431.421627943,431.41840639,431.421627943
22204000000,222,22204000000,,446.529617784,446.530171793,446.529617784,446.530171793
22302000000,223,22302000000,,430.360103736,430.356445973,430.360103736,430.356445973
22402000000,224,22402000000,,437.650955507,437.650266846,437.650955507,437.650266846
22500000000,225,22500000000,,437.244631809,437.243885447,437.244631809,437.243885447
22600000000,226,22600000000,,431.565138115,431.568288324,431.565138115,431.568288324
22703000000,227,22703000000,,415.587865948,415.588393496,415.587865948,415.588393496
22804000000,228,22804000000,,433.917572295,433.914206502,433.917572295,433.914206502
22900000000,229,22900000000,,435.625470613,435.624862571,435.625470613,435.624862571
23001000000,230,23001000000,,448.355603612,448.354298692,448.355603612,448.354298692
23102000000,231,23102000000,,434.345094606,434.348432077,434.345094606,434.348432077
23202000000,232,23202000000,,427.797525134,427.798026301,427.797525134,427.798026301
23305000000,233,23305000000,,423.446025485,423.442230441,423.446025485,423.442230441
23400000000,234,23400000000,,438.658602159,438.6578079,438.658602159,438.6578079
23500000000,235,23500000000,,443.792763887,443.796044014,443.792763887,443.796044014
23600000000,236,23600000000,,418.414640726,418.415123029,418.414640726,418.415123029
23700000000,237,23700000000,,429.785189316,429.779921177,429.785189316,429.779921177
23800000000,238,23800000000,,427.851518683,427.848644826,427.851518683,427.848644826
23900000000,239,23900000000,,426.957214677,426.953667417,426.957214677,426.953667417
24000000000,240,24000000000,,431.301804261,431.308071738,431.301804261,431.308071738
24100000000,241,24100000000,,436.228097166,436.228531378,436.228097166,436.228531378
24200000000,242,24200000000,,431.106231616,431.096673082,431.106231616,431.096673082
24300000000,243,24300000000,,438.665492266,438.662229624,438.665492266,438.662229624
24400000000,244,24400000000,,434.457972716,434.4652278,434.457972716,434.4652278
24500000000,245,24500000000,,426.011748226,426.012137393,426.011748226,426.012137393
24600000000,246,24600000000,,428.128945624,428.118682319,428.128945624,428.118682319
24700000000,247,24700000000,,430.718469985,430.715036749,430.718469985,430.715036749
24800000000,248,24800000000,,436.913861583,436.910458335,436.913861583,436.910458335
24900000000,249,24900000000,,432.825809071,432.833433245,432.825809071,432.833433245
25000000000,250,25000000000,,424.794144344,424.7944614,424.794144344,424.7944614
25100000000,251,25100000000,,424.713708293,424.703393656,424.713708293,424.703393656
25200000000,252,25200000000,,446.463169684,446.460438255,446.463169684,446.460438255
25300000000,253,25300000000,,443.419664269,443.426651768,443.419664269,443.426651768
25400000000,254,25400000000,,414.134362673,414.134633769,414.134362673,414.134633769
25500000000,255,25500000000,,429.838426427,429.82787022,429.838426427,429.82787022
25600000000,256,25600000000,,424.138670731,424.135436959,424.138670731,424.135436959
25705000000,257,25705000000,,421.221906078,421.218607995,421.221906078,421.218607995
25800000000,258,25800000000,,432.118876116,432.115658027,432.118876116,432.115658027
25900000000,259,25900000000,,439.421194988,439.428349425,439.421194988,439.428349425
26000000000,260,26000000000,,438.577783299,438.577959867,438.577783299,438.577959867
26100000000,261,26100000000,,438.006044799,438.006221366,438.006044799,438.006221366
26200000000,262,26200000000,,428.864570959,428.855137588,428.864570959,428.855137588
26314000000,263,26314000000,,427.047782634,427.053545281,427.047782634,427.053545281
26401000000,264,26401000000,,439.112276839,439.112432098,439.112276839,439.112432098
26500000000,265,26500000000,,428.058728541,428.04875803,428.058728541,428.04875803
26605000000,266,26605000000,,430.139927031,430.136447416,430.139927031,430.136447416
26701000000,267,26701000000,,429.520832604,429.517736643,429.520832604,429.517736643
26800000000,268,26800000000,,442.746771452,442.753625977,442.746771452,442.753625977
26900000000,269,26900000000,,434.72807765,434.728165389,434.72807765,434.728165389
27000000000,270,27000000000,,439.199539316,439.190428141,439.199539316,439.190428141
27101000000,271,27101000000,,421.537900394,421.534749499,421.537900394,421.534749499
27205000000,272,27205000000,,418.347177159,418.343738616,418.347177159,418.343738616
27302000000,273,27302000000,,434.622101108,434.628780476,434.622101108,434.628780476
27400000000,274,27400000000,,445.478963544,445.468988203,445.478963544,445.468988203
27500000000,275,27500000000,,447.261932425,447.258770167,447.261932425,447.258770167
27600000000,276,27600000000,,440.179318415,440.176046238,440.179318415,440.176046238
27700000000,277,27700000000,,420.761235023,420.767662718,420.761235023,420.767662718
27800000000,278,27800000000,,423.929501328,423.929460809,423.929501328,423.929460809
27900000000,279,27900000000,,419.073159182,419.063841801,419.073159182,419.063841801
28000000000,280,28000000000,,439.901250452,439.897885675,439.901250452,439.897885675
28100000000,281,28100000000,,438.650952238,438.657172506,438.650952238,438.657172506
28200000000,282,28200000000,,437.405073603,437.404991509,437.405073603,437.404991509
28300000000,283,28300000000,,442.658468426,442.648600803,442.658468426,442.648600803
28404000000,284,28404000000,,426.907491769,426.904261351,426.907491769,426.904261351
28500000000,285,28500000000,,428.353309657,428.359857048,428.353309657,428.359857048
28600000000,286,28600000000,,420.138541886,420.138415887,420.138541886,420.138415887
28700000000,287,28700000000,,434.791769299,434.791643297,434.791769299,434.791643297
28800000000,288,28800000000,,428.083021131,428.073472127,428.083021131,428.073472127
28900000000,289,28900000000,,438.951798148,438.948260588,438.951798148,438.948260588
29000000000,290,29000000000,,426.03517623,426.041432801,426.03517623,426.041432801
29100000000,291,29100000000,,435.828783798,435.82861549,435.828783798,435.82861549
29200000000,292,29200000000,,439.793402833,439.786536999,439.793402833,439.786536999
29300000000,293,29300000000,,434.202196439,434.200868648,434.202196439,434.200868648
29402000000,294,29402000000,,421.781078804,421.779553389,421.781078804,421.779553389
29501000000,295,29501000000,,427.491877679,427.495062006,427.491877679,427.495062006
29600000000,296,29600000000,,432.117179297,432.116972306,432.117179297,432.116972306
29704000000,297,29704000000,,432.142364704,432.142157712,432.142364704,432.142157712
29801000000,298,29801000000,,431.817127216,431.812402196,431.817127216,431.812402196
29900000000,299,29900000000,,437.598933534,437.596793141,437.598933534,437.596793141
30003000000,300,30003000000,,429.8408108,429.838668307,429.8408108,429.838668307
30100000000,301,30100000000,,429.538419281,429.541717054,429.538419281,429.541717054
30201000000,302,30201000000,,428.197557325,428.192078546,428.197557325,428.192078546
30300000000,303,30300000000,,442.168423046,442.166871297,442.168423046,442.166871297
30400000000,304,30400000000,,425.287795237,425.285892972,425.287795237,425.285892972
30500000000,305,30500000000,,436.688823158,436.691772075,436.688823158,436.691772075
30600000000,306,30600000000,,423.575252459,423.57498037,423.575252459,423.57498037
30700000000,307,30700000000,,437.054036994,437.047448085,437.054036994,437.047448085
30800000000,308,30800000000,,421.550461695,421.547228871,421.550461695,421.547228871
30902000000,309,30902000000,,432.776586618,432.774323632,432.776586618,432.774323632
31002000000,310,31002000000,,435.895457775,435.899604202,435.895457775,435.899604202
31101000000,311,31101000000,,426.194634062,426.189159262,426.194634062,426.189159262
31200000000,312,31200000000,,436.448127381,436.446551739,436.448127381,436.446551739
31300000000,313,31300000000,,435.529348597,435.532108793,435.529348597,435.532108793
31400000000,314,31400000000,,427.837791449,427.837452857,427.837791449,427.837452857
31500000000,315,31500000000,,433.922255227,433.921916634,433.922255227,433.921916634
31600000000,316,31600000000,,437.750400792,437.746031453,437.750400792,437.746031453
31716000000,317,31716000000,,432.485840803,432.483893968,432.485840803,432.483893968
31800000000,318,31800000000,,424.787607094,424.790656843,424.787607094,424.790656843
31900000000,319,31900000000,,432.115050055,432.114691456,432.115050055,432.114691456
32000000000,320,32000000000,,423.850505061,423.850146461,423.850505061,423.850146461
32100000000,321,32100000000,,433.292977121,433.288651583,433.292977121,433.288651583
32200000000,322,32200000000,,446.146191207,446.14380781,446.146191207,446.14380781
32300000000,323,32300000000,,430.555977707,430.558696286,430.555977707,430.558696286
32406000000,324,32406000000,,429.919649416,429.912169785,429.919649416,429.912169785
32500000000,325,32500000000,,434.501627898,434.49825109,434.501627898,434.49825109
32600000000,326,32600000000,,416.932886432,416.929428474,416.932886432,416.929428474
32700000000,327,32700000000,,432.477529186,432.474093524,432.477529186,432.474093524
32803000000,328,32803000000,,437.088087201,437.093137408,437.088087201,437.093137408
32900000000,329,32900000000,,426.662461627,426.662012921,426.662461627,426.662012921
33002000000,330,33002000000,,455.187692836,455.181608384,455.187692836,455.181608384
33100000000,331,33100000000,,423.056033933,423.054112178,423.056033933,423.054112178
33200000000,332,33200000000,,441.202993978,441.206022883,441.202993978,441.206022883
33309000000,333,33309000000,,430.058461619,430.052869673,430.058461619,430.052869673
33400000000,334,33400000000,,428.63497984,428.634567472,428.63497984,428.634567472
33500000000,335,33500000000,,432.502396007,432.501433799,432.502396007,432.501433799
33603000000,336,33603000000,,434.190554646,434.1919235,434.190554646,434.1919235
33700000000,337,33700000000,,431.298620291,431.298120374,431.298620291,431.298120374
33800000000,338,33800000000,,438.252172191,438.251672274,438.252172191,438.251672274
33900000000,339,33900000000,,428.613303797,428.611099201,428.613303797,428.611099201
34000000000,340,34000000000,,431.865047895,431.864231277,431.865047895,431.864231277
34105000000,341,34105000000,,435.785676435,435.786086129,435.785676435,435.786086129
34200000000,342,34200000000,,429.500022158,429.499515252,429.500022158,429.499515252
34300000000,343,34300000000,,429.958449084,429.955912302,429.958449084,429.955912302
34401000000,344,34401000000,,426.110170016,426.108949675,426.110170016,426.108949675
34501000000,345,34501000000,,448.812110709,448.812964536,448.812110709,448.812964536
34600000000,346,34600000000,,421.16033774,421.159821722,421.16033774,421.159821722
34701000000,347,34701000000,,425.282909521,425.282393502,425.282909521,425.282393502
34800000000,348,34800000000,,436.583603117,436.583087097,436.583603117,436.583087097
34901000000,349,34901000000,,430.286336879,430.278775289,430.286336879,430.278775289
35000000000,350,35000000000,,435.789796553,435.786248052,435.789796553,435.786248052
35100000000,351,35100000000,,430.645156106,430.64129216,430.645156106,430.64129216
35201000000,352,35201000000,,440.598773343,440.603775543,440.598773343,440.603775543
35300000000,353,35300000000,,438.339969581,438.339401959,438.339969581,438.339401959
35400000000,354,35400000000,,429.333266715,429.323740815,429.333266715,429.323740815
35500000000,355,35500000000,,434.435261467,434.432558335,434.435261467,434.432558335
35602000000,356,35602000000,,422.293736054,422.298396471,422.293736054,422.298396471
35700000000,357,35700000000,,427.399069031,427.400274725,427.399069031,427.400274725
35800000000,358,35800000000,,429.962354364,429.963294929,429.962354364,429.963294929
35900000000,359,35900000000,,440.394217952,440.389898799,440.394217952,440.389898799
36000000000,360,36000000000,,439.939677585,439.938476511,439.939677585,439.938476511
36100000000,361,36100000000,,425.414333151,425.420968084,425.414333151,425.420968084
36200000000,362,36200000000,,431.452522499,431.461535408,431.452522499,431.461535408
36301000000,363,36301000000,,424.524422144,424.536014643,424.524422144,424.536014643
36401000000,364,36401000000,,434.577566927,434.584428375,434.577566927,434.584428375
36505000000,365,36505000000,,435.30187245,435.303193319,435.30187245,435.303193319
36600000000,366,36600000000,,441.588492141,441.587726812,441.588492141,441.587726812
36700000000,367,36700000000,,431.243526462,431.237545316,431.243526462,431.237545316
36801000000,368,36801000000,,431.331880422,431.325872311,431.331880422,431.325872311
36900000000,369,36900000000,,425.002342827,424.996101192,425.002342827,424.996101192
37000000000,370,37000000000,,439.969721405,439.966058971,439.969721405,439.966058971
37101000000,371,37101000000,,438.198526905,438.196395913,438.198526905,438.196395913
37200000000,372,37200000000,,432.352236566,432.352170116,432.352236566,432.352170116
37301000000,373,37301000000,,436.224361191,436.226298501,436.224361191,436.226298501
37400000000,374,37400000000,,428.378682828,428.379712472,428.378682828,428.379712472
37506000000,375,37506000000,,446.676018462,446.676754499,446.676018462,446.676754499
37600000000,376,37600000000,,418.888705078,418.889624496,418.888705078,418.889624496
37700000000,377,37700000000,,429.796513391,429.795885918,429.796513391,429.795885918
37805000000,378,37805000000,,429.031859398,429.030890964,429.031859398,429.030890964
37900000000,379,37900000000,,437.16754636,437.166803528,437.16754636,437.166803528
38000000000,380,38000000000,,427.177211043,427.175996994,427.177211043,427.175996994
38100000000,381,38100000000,,432.046332587,432.045348359,432.046332587,432.045348359
38200000000,382,38200000000,,435.859905351,435.859733755,435.859905351,435.859733755
38302000000,383,38302000000,,431.495242744,431.494999854,431.495242744,431.494999854
38400000000,384,38400000000,,436.193423982,436.192953404,436.193423982,436.192953404
38500000000,385,38500000000,,431.318657483,431.317682655,431.318657483,431.317682655
38601000000,386,38601000000,,432.501056994,432.507696554,432.501056994,432.507696554
38700000000,387,38700000000,,443.142604972,443.151912299,443.142604972,443.151912299
38802000000,388,38802000000,,431.201311795,431.210645661,431.201311795,431.210645661
38900000000,389,38900000000,,421.009324808,421.021334672,421.009324808,421.021334672
39000000000,390,39000000000,,416.209140794,416.216435064,416.209140794,416.216435064
39100000000,391,39100000000,,445.19703492,445.204600155,445.19703492,445.204600155
39200000000,392,39200000000,,432.439854727,432.449414401,432.439854727,432.449414401
39300000000,393,39300000000,,441.329997265,441.338322856,441.329997265,441.338322856
39400000000,394,39400000000,,433.730526368,433.737894813,433.730526368,433.737894813
39500000000,395,39500000000,,427.894815955,427.902613737,427.894815955,427.902613737
39600000000,396,39600000000,,416.912574097,416.915822102,416.912574097,416.915822102
39700000000,397,39700000000,,435.311243788,435.31406784,435.311243788,435.31406784
39800000000,398,39800000000,,443.748929264,443.760708993,443.748929264,443.760708993
39900000000,399,39900000000,,426.412924882,426.425206048,426.412924882,426.425206048
40000000000,400,40000000000,,431.414474541,431.425878298,431.414474541,431.425878298
40100000000,401,40100000000,,440.386954274,440.396740104,440.386954274,440.396740104
40200000000,402,40200000000,,431.788856077,431.798377488,431.788856077,431.798377488
40300000000,403,40300000000,,428.988803914,428.99729925,428.988803914,428.99729925
40400000000,404,40400000000,,427.145352122,427.156227909,427.145352122,427.156227909
40510000000,405,40510000000,,435.900311777,435.911910367,435.900311777,435.911910367
40600000000,406,40600000000,,434.148551251,434.161109391,434.148551251,434.161109391
40700000000,407,40700000000,,438.559219055,438.572289788,438.559219055,438.572289788
40801000000,408,40801000000,,430.826774908,430.839936279,430.826774908,430.839936279
40900000000,409,40900000000,,438.371674662,438.384995617,438.371674662,438.384995617
41000000000,410,41000000000,,433.811836559,433.82522475,433.811836559,433.82522475
41100000000,411,41100000000,,422.814749842,422.828256309,422.814749842,422.828256309
41202000000,412,41202000000,,434.741221808,434.75472523,434.741221808,434.75472523
41300000000,413,41300000000,,436.790595201,436.804110478,436.790595201,436.804110478
41401000000,414,41401000000,,441.860981832,441.874369055,441.860981832,441.874369055
41500000000,415,41500000000,,437.021391992,437.034232449,437.021391992,437.034232449
41600000000,416,41600000000,,426.303774019,426.316384578,426.303774019,426.316384578
41700000000,417,41700000000,,430.338014166,430.349762876,430.338014166,430.349762876
41800000000,418,41800000000,,429.103375892,429.114502923,429.103375892,429.114502923
41901000000,419,41901000000,,440.707585004,440.71853234,440.707585004,440.71853234
42001000000,420,42001000000,,430.066202627,430.078055329,430.066202627,430.078055329
42100000000,421,42100000000,,433.065918524,433.079165469,433.065918524,433.079165469
42200000000,422,42200000000,,428.232211918,428.246283032,428.232211918,428.246283032
42300000000,423,42300000000,,433.569564877,433.580953688,433.569564877,433.580953688
42400000000,424,42400000000,,437.923294198,437.934315122,437.923294198,437.934315122
42503000000,425,42503000000,,442.571551867,442.581291893,442.571551867,442.581291893
42600000000,426,42600000000,,426.664221712,426.674151237,426.664221712,426.674151237
42700000000,427,42700000000,,421.187156008,421.197040952,421.187156008,421.197040952
42800000000,428,42800000000,,424.467187297,424.476560299,424.467187297,424.476560299
42900000000,429,42900000000,,440.808201627,440.817747918,440.808201627,440.817747918
43000000000,430,43000000000,,427.900636966,427.909978819,427.900636966,427.909978819
43103000000,431,43103000000,,435.473249836,435.482134137,435.473249836,435.482134137
43200000000,432,43200000000,,419.283323153,419.291983823,419.283323153,419.291983823
43300000000,433,43300000000,,447.176872947,447.185381515,447.176872947,447.185381515
43400000000,434,43400000000,,436.847696301,436.856249806,436.847696301,436.856249806
43500000000,435,43500000000,,443.146120406,443.154533602,443.146120406,443.154533602
43600000000,436,43600000000,,416.036809051,416.045260178,416.036809051,416.045260178
43701000000,437,43701000000,,424.650679875,424.658959206,424.650679875,424.658959206
43802000000,438,43802000000,,417.712039218,417.720197526,417.712039218,417.720197526
43900000000,439,43900000000,,430.281569517,430.289428256,430.281569517,430.289428256
44001000000,440,44001000000,,437.464395889,437.47132076,437.464395889,437.47132076
44103000000,441,44103000000,,441.432666731,441.439163328,441.432666731,441.439163328
44200000000,442,44200000000,,438.816723797,438.822945739,438.816723797,438.822945739
44300000000,443,44300000000,,428.185722446,428.191848661,428.185722446,428.191848661
44400000000,444,44400000000,,425.232800462,425.22777353,425.232800462,425.22777353
44501000000,445,44501000000,,423.898519307,423.911641532,423.898519307,423.911641532
44601000000,446,44601000000,,452.681568008,452.687450709,452.681568008,452.687450709
44711000000,447,44711000000,,428.214091149,428.219697052,428.214091149,428.219697052
44802000000,448,44802000000,,437.319233681,437.324756085,437.319233681,437.324756085
44900000000,449,44900000000,,445.514335562,445.519692604,445.514335562,445.519692604
45000000000,450,45000000000,,426.117335985,426.122589528,426.117335985,426.122589528
45121000000,451,45121000000,,424.16757865,424.172638099,424.16757865,424.172638099
45200000000,452,45200000000,,431.430861414,431.435854054,431.430861414,431.435854054
45301000000,453,45301000000,,433.62612828,433.630950393,433.62612828,433.630950393
45400000000,454,45400000000,,437.482188141,437.486797381,437.482188141,437.486797381
45502000000,455,45502000000,,430.880782491,430.879942543,430.880782491,430.879942543
45600000000,456,45600000000,,434.931765602,434.934774496,434.931765602,434.934774496
45701000000,457,45701000000,,434.249806478,434.252815375,434.249806478,434.252815375
