%time,field.header.seq,field.header.stamp,field.header.frame_id,field.angular_velocities0,field.angular_velocities1,field.angular_velocities2,field.angular_velocities3
1822000000,45,1822000000,,-8.7381945173e-06,-8.37106501114e-06,8.73819450277e-06,8.37106499667e-06
1856000000,46,1856000000,,-7.50137275019e-06,-1.0218611062e-05,7.50137273546e-06,1.02186110473e-05
1891000000,47,1891000000,,-6.16452526536e-06,-1.20559398158e-05,6.16452525043e-06,1.20559398009e-05
1937000000,48,1937000000,,-4.74556872292e-06,-1.38578047372e-05,4.74556870779e-06,1.38578047221e-05
1982000000,49,1982000000,,-3.24621667636e-06,-1.55923349749e-05,3.24621666104e-06,1.55923349596e-05
2035000000,50,2035000000,,-1.6944890319e-06,-1.7208584723e-05,1.6944890164e-06,1.72085847076e-05
2067000000,51,2067000000,,9.35289321121e-08,-1.88067091304e-05,-9.35289477647e-08,1.88067091148e-05
2105000000,52,2105000000,,4.43079904443e-06,-1.99353405615e-05,-4.43079906023e-06,1.99353405458e-05
2130000000,53,2130000000,,6.74004984984e-06,-2.08643579208e-05,-6.74004986577e-06,2.0864357905e-05
2174000000,54,2174000000,,1.05454621477e-05,-2.25752779429e-05,-1.05454621637e-05,2.25752779269e-05
2212000000,55,2212000000,,1.26957135604e-05,-2.30963617484e-05,-1.26957135765e-05,2.30963617323e-05
2255000000,56,2255000000,,1.4410087117e-05,-1.59396167448e-05,-1.44100871333e-05,1.59396167286e-05
2291000000,57,2291000000,,1.60660173633e-05,-1.34773963266e-05,-1.60660173797e-05,1.34773963103e-05
2344000000,58,2344000000,,1.77156647012e-05,-1.18827710289e-05,-1.77156647177e-05,1.18827710124e-05
2370000000,59,2370000000,,1.92642603377e-05,-1.02069928815e-05,-1.92642603543e-05,1.02069928649e-05
2416000000,60,2416000000,,2.07108682655e-05,-7.78521597043e-06,-2.07108682822e-05,7.78521595375e-06
2452000000,61,2452000000,,2.21343563421e-05,-4.52841466558e-06,-2.21343563589e-05,4.52841464884e-06
2503000000,62,2503000000,,2.28529195647e-05,7.43146441139e-07,-2.28529195816e-05,-7.43146457965e-07
2534000000,63,2534000000,,2.33985701747e-05,6.39447729863e-06,-2.33985701917e-05,-6.39447731555e-06
2586000000,64,2586000000,,2.36126967397e-05,1.26234844677e-05,-2.36126967568e-05,-1.26234844847e-05
2610000000,65,2610000000,,2.32444422334e-05,1.97627038236e-05,-2.32444422506e-05,-1.97627038407e-05
2662000000,66,2662000000,,2.25612804388e-05,2.73164421147e-05,-2.2561280456e-05,-2.73164421319e-05
2699000000,67,2699000000,,2.13110472948e-05,3.5628646338e-05,-2.13110473122e-05,-3.56286463554e-05
2735000000,68,2735000000,,1.95899401845e-05,4.4297090181e-05,-1.9589940202e-05,-4.42970901984e-05
2803000000,69,2803000000,,1.72355341796e-05,5.3425167792e-05,-1.72355341972e-05,-5.34251678096e-05
2833000000,70,2833000000,,1.34777777296e-05,6.41735729295e-05,-1.34777777473e-05,-6.41735729472e-05
2873000000,71,2873000000,,1.02072578916e-05,7.2701155786e-05,-1.02072579094e-05,-7.27011558038e-05
2895000000,72,2895000000,,5.6465961038e-06,8.22766770134e-05,-5.64659612173e-06,-8.22766770312e-05
2925000000,73,2925000000,,1.51681707769e-06,9.01412478653e-05,-1.51681709571e-06,-9.01412478832e-05
2975000000,74,2975000000,,-3.59446628014e-06,9.78406999025e-05,3.59446626202e-06,-9.78406999206e-05
3012000000,75,3012000000,,-9.445829065e-06,0.000104763588162,9.44582904681e-06,-0.00010476358818
3063000000,76,3063000000,,-1.55188572401e-05,0.000110744671172,1.55188572219e-05,-0.00011074467119
3094000000,77,3094000000,,-3.51724041641e-05,8.84077798271e-05,3.51724041457e-05,-8.84077798454e-05
3125000000,78,3125000000,,-4.63558701091e-05,7.00141176525e-05,4.63558700906e-05,-7.00141176709e-05
3162000000,79,3162000000,,-5.22776159101e-05,6.18497000182e-05,5.22776158916e-05,-6.18497000366e-05
3203000000,80,3203000000,,-5.4177416238e-05,5.2778488706e-05,5.41774162195e-05,-5.27784887245e-05
3271000000,81,3271000000,,-5.38576267558e-05,4.38078123118e-05,5.38576267372e-05,-4.38078123303e-05
3289000000,82,3289000000,,-5.13507632192e-05,3.30489945245e-05,5.13507632005e-05,-3.30489945431e-05
3339000000,83,3339000000,,-4.95404298321e-05,2.5443975324e-05,4.95404298134e-05,-2.54439753427e-05
3383000000,84,3383000000,,-4.66046355246e-05,1.88680853593e-05,4.66046355058e-05,-1.8868085378e-05
3409000000,85,3409000000,,-4.36817436117e-05,1.11632451965e-05,4.36817435928e-05,-1.11632452153e-05
3456000000,86,3456000000,,-3.98473976683e-05,5.4935997346e-06,3.98473976494e-05,-5.49359975346e-06
3492000000,87,3492000000,,-3.70800890138e-05,-6.79573319644e-07,3.70800889948e-05,6.79573300714e-07
3542000000,88,3542000000,,-3.30016014882e-05,-5.13863717101e-06,3.30016014692e-05,5.13863715201e-06
3582000000,89,3582000000,,-3.02254107268e-05,-9.72969388628e-06,3.02254107077e-05,9.72969386722e-06
3619000000,90,3619000000,,-4.90123616556e-05,-3.30111707199e-07,4.90123616364e-05,3.30111688067e-07
3662000000,91,3662000000,,-5.37866947762e-05,-2.86863891922e-06,5.3786694757e-05,2.86863890003e-06
3699000000,92,3699000000,,-5.30713047072e-05,-9.34983740335e-06,5.30713046879e-05,9.34983738409e-06
3734000000,93,3734000000,,-5.06331923019e-05,-1.65762848238e-05,5.06331922825e-05,1.65762848045e-05
3765000000,94,3765000000,,-4.70299005201e-05,-2.35738861348e-05,4.70299005007e-05,2.35738861154e-05
3821000000,95,3821000000,,-4.29239160949e-05,-3.02417802833e-05,4.29239160755e-05,3.02417802638e-05
3853000000,96,3853000000,,-3.74562525411e-05,-3.65021042135e-05,3.74562525216e-05,3.6502104194e-05
3888000000,97,3888000000,,-3.65510954894e-06,-3.02546322917e-05,3.65510952937e-06,3.02546322721e-05
3940000000,98,3940000000,,1.60627390815e-05,-2.51329088449e-05,-1.60627391011e-05,2.51329088253e-05
3968000000,99,3968000000,,2.98643782306e-05,-2.08889394856e-05,-2.98643782502e-05,2.0888939466e-05
4024000000,100,4024000000,,3.66084341336e-05,-1.69471908493e-05,-3.66084341532e-05,1.69471908296e-05
4051000000,101,4051000000,,4.11803656616e-05,-1.37812338649e-05,-4.11803656813e-05,1.37812338452e-05
4084000000,102,4084000000,,4.18640472155e-05,-1.00600299463e-05,-4.18640472353e-05,1.00600299266e-05
4163000000,103,4163000000,,4.12921307444e-05,-6.49958600574e-06,-4.12921307641e-05,6.49958598601e-06
4190000000,104,4190000000,,3.83353444681e-05,-2.57345272575e-06,-3.83353444879e-05,2.57345270599e-06
4207000000,105,4207000000,,3.54327964056e-05,1.33610079742e-06,-3.54327964254e-05,-1.3361008172e-06
4256000000,106,4256000000,,3.29395170586e-05,3.49576403663e-06,-3.29395170785e-05,-3.49576405644e-06
4312000000,107,4312000000,,3.10516723822e-05,6.40300167043e-06,-3.10516724021e-05,-6.40300169027e-06
4331000000,108,4331000000,,2.63172974841e-05,8.95689955697e-06,-2.6317297504e-05,-8.95689957683e-06
4373000000,109,4373000000,,2.48084684208e-05,1.1076418653e-05,-2.48084684407e-05,-1.10764186729e-05
4413000000,110,4413000000,,2.16903995057e-05,1.26278433445e-05,-2.16903995256e-05,-1.26278433644e-05
4478000000,111,4478000000,,1.97884139425e-05,1.42543605388e-05,-1.97884139625e-05,-1.42543605588e-05
4500000000,112,4500000000,,1.61876439906e-05,1.53430049396e-05,-1.61876440106e-05,-1.53430049596e-05
4532000000,113,4532000000,,3.87500999093e-05,7.64467188402e-06,-3.87500999293e-05,-7.64467190402e-06
4579000000,114,4579000000,,4.50561782792e-05,7.63395902761e-06,-4.50561782992e-05,-7.63395904764e-06
4615000000,115,4615000000,,4.52281180617e-05,1.01802070346e-05,-4.52281180818e-05,-1.01802070547e-05
4661000000,116,4661000000,,4.29044633004e-05,1.35181017012e-05,-4.29044633205e-05,-1.35181017213e-05
4707000000,117,4707000000,,3.99054067919e-05,1.65855059451e-05,-3.99054068121e-05,-1.65855059653e-05
4734000000,118,4734000000,,8.53716559382e-06,2.01002570541e-05,-8.53716561401e-06,-2.01002570743e-05
4777000000,119,4777000000,,-1.72074360566e-05,2.250930312e-05,1.72074360363e-05,-2.25093031402e-05
4816000000,120,4816000000,,-3.60165910161e-05,2.32697078397e-05,3.60165909958e-05,-2.32697078599e-05
4847000000,121,4847000000,,-4.19963657922e-05,2.33824417565e-05,4.19963657718e-05,-2.33824417768e-05
4893000000,122,4893000000,,-4.44920689048e-05,2.29057648933e-05,4.44920688845e-05,-2.29057649136e-05
4943000000,123,4943000000,,-2.73661095146e-05,3.00695189637e-05,2.73661094943e-05,-3.0069518984e-05
4972000000,124,4972000000,,-2.78833413675e-05,3.35583396846e-05,2.78833413472e-05,-3.35583397049e-05
5029000000,125,5029000000,,-3.41387198238e-05,3.53393513669e-05,3.41387198035e-05,-3.53393513872e-05
5060000000,126,5060000000,,-4.1067608317e-05,3.61759791774e-05,4.10676082966e-05,-3.61759791977e-05
5103000000,127,5103000000,,-4.70879207834e-05,3.6304888234e-05,4.7087920763e-05,-3.63048882544e-05
5160000000,128,5160000000,,-5.32646457618e-05,3.60698127563e-05,5.32646457414e-05,-3.60698127766e-05
5195000000,129,5195000000,,-5.87068334448e-05,3.54651638471e-05,5.87068334243e-05,-3.54651638674e-05
5229000000,130,5229000000,,-6.24914747033e-05,3.26174313137e-05,6.24914746828e-05,-3.26174313341e-05
5281000000,131,5281000000,,-4.79316789748e-05,5.87971052116e-06,4.79316789543e-05,-5.87971054164e-06
5328000000,132,5328000000,,-3.43770030429e-05,-1.53111476701e-05,3.43770030224e-05,1.53111476496e-05
5356000000,133,5356000000,,-2.39016197949e-05,-2.9050885243e-05,2.39016197743e-05,2.90508852224e-05
5384000000,134,5384000000,,-1.89412300359e-05,-3.63136892865e-05,1.89412300152e-05,3.63136892659e-05
5416000000,135,5416000000,,-1.52948946153e-05,-4.06638688141e-05,1.52948945947e-05,4.06638687935e-05
5492000000,136,5492000000,,-1.27715956651e-05,-4.31572390571e-05,1.27715956445e-05,4.31572390365e-05
5524000000,137,5524000000,,-9.33260681562e-06,-4.18859334076e-05,9.33260679498e-06,4.1885933387e-05
5548000000,138,5548000000,,-3.03559265679e-05,-3.52193011186e-05,3.03559265473e-05,3.5219301098e-05
5581000000,139,5581000000,,-3.60927317127e-05,-3.81377370253e-05,3.6092731692e-05,3.81377370047e-05
5616000000,140,5616000000,,-3.47341549881e-05,-4.27205184991e-05,3.47341549674e-05,4.27205184785e-05
5661000000,141,5661000000,,-3.14318733318e-05,-4.66020870966e-05,3.14318733112e-05,4.6602087076e-05
5700000000,142,5700000000,,-2.79550914526e-05,-4.98029588551e-05,2.7955091432e-05,4.98029588345e-05
5737000000,143,5737000000,,-2.36761472038e-05,-5.15926735193e-05,2.36761471832e-05,5.15926734987e-05
5791000000,144,5791000000,,-7.6454693528e-07,-3.04325158893e-05,7.6454691461e-07,3.04325158687e-05
5807000000,145,5807000000,,1.94502578088e-05,-8.49695623779e-06,-1.94502578295e-05,8.49695621717e-06
5860000000,146,5860000000,,2.60118012148e-05,-2.75487905551e-07,-2.60118012355e-05,2.75487884923e-07
5907000000,147,5907000000,,2.88457240682e-05,7.3725024045e-06,-2.88457240889e-05,-7.37250242513e-06
5941000000,148,5941000000,,3.01890915303e-05,1.2682824308e-05,-3.0189091551e-05,-1.26828243286e-05
5992000000,149,5992000000,,2.97877257445e-05,9.83821241462e-06,-2.97877257652e-05,-9.83821243526e-06
6038000000,150,6038000000,,2.97290620459e-05,-1.41061546033e-05,-2.97290620666e-05,1.41061545826e-05
6066000000,151,6066000000,,3.34591411492e-05,-2.3204546255e-05,-3.34591411699e-05,2.32045462343e-05
6103000000,152,6103000000,,3.85812179608e-05,-1.59448537626e-05,-3.85812179815e-05,1.59448537419e-05
6128000000,153,6128000000,,4.23543403867e-05,-9.71522198329e-06,-4.23543404074e-05,9.7152219626e-06
6183000000,154,6183000000,,4.49932312293e-05,-4.90615979922e-06,-4.49932312501e-05,4.9061597785e-06
6221000000,155,6221000000,,4.66436212584e-05,-4.53582691297e-07,-4.66436212792e-05,4.53582670553e-07
6248000000,156,6248000000,,4.74090453541e-05,4.14030605288e-06,-4.74090453749e-05,-4.14030607366e-06
6296000000,157,6296000000,,2.00797060502e-05,1.80758240025e-05,-2.0079706071e-05,-1.80758240233e-05
6349000000,158,6349000000,,3.24373193025e-06,2.71306306466e-05,-3.24373195112e-06,-2.71306306674e-05
6396000000,159,6396000000,,-9.52530439302e-06,3.25759656016e-05,9.52530437214e-06,-3.25759656224e-05
6415000000,160,6415000000,,-1.98963203972e-05,3.60903867677e-05,1.98963203763e-05,-3.60903867885e-05
6470000000,161,6470000000,,-2.39542721811e-05,3.70358179225e-05,2.39542721602e-05,-3.70358179433e-05
6497000000,162,6497000000,,-3.80252086524e-07,4.00656037406e-05,3.80252065658e-07,-4.00656037614e-05
6562000000,163,6562000000,,3.80726837236e-06,4.46694825982e-05,-3.80726839321e-06,-4.4669482619e-05
6585000000,164,6585000000,,1.48938528904e-06,4.88502036591e-05,-1.48938530989e-06,-4.88502036799e-05
6609000000,165,6609000000,,-4.39610983189e-06,5.14582034893e-05,4.39610981105e-06,-5.14582035101e-05
6642000000,166,6642000000,,-9.7788341581e-06,5.3195684999e-05,9.77883413727e-06,-5.31956850197e-05
6693000000,167,6693000000,,-1.49192770806e-05,5.38532450294e-05,1.49192770597e-05,-5.38532450502e-05
6751000000,168,6751000000,,-2.90144107732e-05,2.82165314367e-05,2.90144107524e-05,-2.82165314574e-05
6781000000,169,6781000000,,-3.71231782749e-05,8.70896316337e-06,3.71231782541e-05,-8.70896318416e-06
6818000000,170,6818000000,,-4.19152962869e-05,-4.29929643633e-06,4.1915296266e-05,4.29929641554e-06
6860000000,171,6860000000,,-4.38751303709e-05,-1.42724534832e-05,4.387513035e-05,1.42724534624e-05
6899000000,172,6899000000,,-4.38253951639e-05,-2.09522507514e-05,4.3825395143e-05,2.09522507306e-05
6947000000,173,6947000000,,-4.29214379214e-05,-2.58190892288e-05,4.29214379006e-05,2.5819089208e-05
6975000000,174,6975000000,,-5.12471845895e-05,-5.18665996899e-06,5.12471845686e-05,5.18665994817e-06
7021000000,175,7021000000,,-5.6207141371e-05,-3.47168419112e-06,5.62071413501e-05,3.47168417028e-06
7055000000,176,7055000000,,-5.92956379076e-05,-7.9450218676e-06,5.92956378867e-05,7.94502184675e-06
7088000000,177,7088000000,,-4.17525341565e-05,-1.38578084764e-05,4.17525341356e-05,1.38578084556e-05
7141000000,178,7141000000,,-3.74734993535e-06,-2.87263069736e-05,3.74734991445e-06,2.87263069528e-05
7169000000,179,7169000000,,2.33233542597e-05,-3.70816930486e-05,-2.33233542806e-05,3.70816930277e-05
7221000000,180,7221000000,,3.76913182886e-05,-4.14915753447e-05,-3.76913183095e-05,4.14915753239e-05
7258000000,181,7258000000,,4.77753349106e-05,-4.2951155362e-05,-4.77753349314e-05,4.29511553411e-05
7289000000,182,7289000000,,5.17589575394e-05,-4.25806159046e-05,-5.17589575602e-05,4.25806158838e-05
7337000000,183,7337000000,,5.3733867546e-05,-4.07714522416e-05,-5.37338675669e-05,4.07714522207e-05
7363000000,184,7363000000,,5.30159826574e-05,-3.795224216e-05,-5.30159826782e-05,3.79522421392e-05
7420000000,185,7420000000,,3.54927100287e-05,-5.15190485868e-05,-3.54927100495e-05,5.1519048566e-05
7459000000,186,7459000000,,3.37548370048e-05,-5.7346990369e-05,-3.37548370256e-05,5.73469903482e-05
7489000000,187,7489000000,,3.7062547666e-05,-6.07653441196e-05,-3.70625476868e-05,6.07653440988e-05
7537000000,188,7537000000,,4.13907646973e-05,-6.04054886407e-05,-4.13907647182e-05,6.04054886199e-05
7579000000,189,7579000000,,4.1074895509e-05,-2.96407202127e-05,-4.10748955299e-05,2.96407201919e-05
7623000000,190,7623000000,,3.93519311451e-05,-8.17778754295e-06,-3.9351931166e-05,8.17778752217e-06
7670000000,191,7670000000,,3.72173089504e-05,7.78207058144e-06,-3.72173089712e-05,-7.7820706022e-06
7698000000,192,7698000000,,3.31196459945e-05,2.3109474474e-05,-3.31196460153e-05,-2.31094744947e-05
7743000000,193,7743000000,,3.09571968764e-05,2.96331026809e-05,-3.09571968971e-05,-2.96331027016e-05
7776000000,194,7776000000,,2.86039267357e-05,3.48735178505e-05,-2.86039267565e-05,-3.48735178712e-05
7840000000,195,7840000000,,2.60165366218e-05,3.78253410653e-05,-2.60165366425e-05,-3.7825341086e-05
7870000000,196,7870000000,,2.34073175166e-05,4.00930469044e-05,-2.34073175374e-05,-4.00930469251e-05
7889000000,197,7889000000,,3.98353595736e-05,2.64663336619e-05,-3.98353595943e-05,-2.64663336827e-05
7948000000,198,7948000000,,4.55119200978e-05,2.75549573204e-05,-4.55119201186e-05,-2.75549573411e-05
7967000000,199,7967000000,,4.71611638714e-05,3.20951911387e-05,-4.71611638921e-05,-3.20951911595e-05
8026000000,200,8026000000,,4.50518770064e-05,3.81774494536e-05,-4.50518770272e-05,-3.81774494743e-05
8066000000,201,8066000000,,4.24905002664e-05,4.35785226884e-05,-4.24905002872e-05,-4.35785227092e-05
8086000000,202,8086000000,,3.9434549908e-05,5.03058656667e-05,-3.94345499288e-05,-5.03058656875e-05
8140000000,203,8140000000,,1.01378172875e-05,4.62685542528e-05,-1.01378173083e-05,-4.62685542736e-05
8172000000,204,8172000000,,-8.88200834802e-06,4.21172976843e-05,8.88200832721e-06,-4.21172977051e-05
8241000000,205,8241000000,,-2.00831956658e-05,3.75917804429e-05,2.0083195645e-05,-3.75917804636e-05
8249000000,206,8249000000,,-2.86461445996e-05,3.28167708073e-05,2.86461445788e-05,-3.28167708281e-05
8297000000,207,8297000000,,-3.18474841099e-05,2.87491338271e-05,3.18474840891e-05,-2.87491338479e-05
8334000000,208,8334000000,,-3.35406111128e-05,2.52320903785e-05,3.3540611092e-05,-2.52320903992e-05
8378000000,209,8378000000,,-2.58415167599e-05,4.60687372912e-05,2.58415167391e-05,-4.60687373119e-05
8415000000,210,8415000000,,-2.79124166009e-05,5.19995349299e-05,2.79124165802e-05,-5.19995349506e-05
8452000000,211,8452000000,,-3.27463660387e-05,5.17348624254e-05,3.2746366018e-05,-5.17348624462e-05
8498000000,212,8498000000,,-3.76283938684e-05,4.94732847909e-05,3.76283938477e-05,-4.94732848116e-05
8537000000,213,8537000000,,-3.25916455562e-05,1.82440777623e-05,3.25916455355e-05,-1.8244077783e-05
8577000000,214,8577000000,,-2.80628852427e-05,-3.17292957653e-06,2.80628852219e-05,3.17292955581e-06
8616000000,215,8616000000,,-2.44517277694e-05,-1.70463531019e-05,2.44517277486e-05,1.70463530812e-05
8652000000,216,8652000000,,-2.1766109875e-05,-2.73020760156e-05,2.17661098543e-05,2.73020759949e-05
8692000000,217,8692000000,,-1.88058172324e-05,-3.29853687097e-05,1.88058172116e-05,3.2985368689e-05
8731000000,218,8731000000,,-1.72191790106e-05,-3.73170674395e-05,1.72191789899e-05,3.73170674188e-05
8779000000,219,8779000000,,-3.48496867301e-05,-2.59019319143e-05,3.48496867093e-05,2.59019318936e-05
8832000000,220,8832000000,,-3.96953418101e-05,-2.78599680652e-05,3.96953417894e-05,2.78599680445e-05
8850000000,221,8850000000,,-4.12092384325e-05,-3.32072061562e-05,4.12092384117e-05,3.32072061355e-05
8894000000,222,8894000000,,-3.95317313821e-05,-3.97215436739e-05,3.95317313614e-05,3.97215436532e-05
8944000000,223,8944000000,,-3.75517257597e-05,-4.58068033973e-05,3.7551725739e-05,4.58068033767e-05
8968000000,224,8968000000,,-3.44024746103e-05,-5.10583396465e-05,3.44024745897e-05,5.10583396259e-05
9013000000,225,9013000000,,-3.07547411635e-05,-5.59834872484e-05,3.07547411428e-05,5.59834872278e-05
9056000000,226,9056000000,,-2.28733674318e-07,-4.654854768e-05,2.28733653694e-07,4.65485476594e-05
9091000000,227,9091000000,,1.87301865683e-05,-3.77422705165e-05,-1.87301865889e-05,3.7742270496e-05
9133000000,228,9133000000,,3.14329728922e-05,-3.04312232386e-05,-3.14329729128e-05,3.04312232181e-05
9186000000,229,9186000000,,3.76515709765e-05,-2.32271619837e-05,-3.76515709971e-05,2.32271619632e-05
9231000000,230,9231000000,,4.14023536905e-05,-1.65778267924e-05,-4.14023537111e-05,1.65778267719e-05
9271000000,231,9271000000,,4.23891175229e-05,-8.67937168157e-06,-4.23891175435e-05,8.67937166102e-06
9310000000,232,9310000000,,4.12632723183e-05,-1.94937079773e-06,-4.12632723389e-05,1.94937077717e-06
9326000000,233,9326000000,,4.0043259899e-05,1.47350604158e-06,-4.00432599196e-05,-1.47350606216e-06
9369000000,234,9369000000,,4.38653105699e-05,1.06776052163e-05,-4.38653105905e-05,-1.06776052369e-05
9405000000,235,9405000000,,4.49978435857e-05,1.69457478991e-05,-4.49978436063e-05,-1.69457479196e-05
9448000000,236,9448000000,,4.45418640574e-05,2.23023206637e-05,-4.4541864078e-05,-2.23023206842e-05
9510000000,237,9510000000,,5.62900747229e-05,3.42201052684e-06,-5.62900747435e-05,-3.42201054739e-06
9527000000,238,9527000000,,6.18023371962e-05,7.60796299248e-07,-6.18023372168e-05,-7.6079631978e-07
9568000000,239,9568000000,,6.43884148178e-05,4.47339716027e-06,-6.43884148383e-05,-4.47339718078e-06
9630000000,240,9630000000,,6.55978191147e-05,9.79656429123e-06,-6.55978191353e-05,-9.79656431174e-06
9682000000,241,9682000000,,6.56201664626e-05,1.60050983819e-05,-6.56201664831e-05,-1.60050984024e-05
9724000000,242,9724000000,,3.75445183185e-05,3.25891861635e-05,-3.75445183391e-05,-3.2589186184e-05
9762000000,243,9762000000,,1.38416069251e-05,4.44985180723e-05,-1.38416069457e-05,-4.44985180928e-05
9790000000,244,9790000000,,-1.97375214338e-06,5.11334839379e-05,1.97375212282e-06,-5.11334839584e-05
9821000000,245,9821000000,,-1.32690225753e-05,5.4696598491e-05,1.32690225548e-05,-5.46965985115e-05
9857000000,246,9857000000,,-1.68330710931e-05,5.50091514318e-05,1.68330710726e-05,-5.50091514522e-05
9890000000,247,9890000000,,-1.80543874351e-05,5.40399134755e-05,1.80543874146e-05,-5.4039913496e-05
9933000000,248,9933000000,,3.61357466014e-06,6.12652288527e-05,-3.61357468064e-06,-6.12652288731e-05
9983000000,249,9983000000,,5.63970195674e-06,6.67475773008e-05,-5.63970197723e-06,-6.67475773212e-05
10022000000,250,10022000000,,1.23343359322e-06,7.0594915251e-05,-1.23343361368e-06,-7.05949152715e-05
10051000000,251,10051000000,,-4.3828281075e-06,7.30881195622e-05,4.38282808704e-06,-7.30881195826e-05
10099000000,252,10099000000,,-1.65647050268e-05,4.79377951447e-05,1.65647050064e-05,-4.79377951651e-05
10145000000,253,10145000000,,-2.37979098248e-05,2.93732147035e-05,2.37979098043e-05,-2.93732147239e-05
10182000000,254,10182000000,,-2.81431675407e-05,1.61006981654e-05,2.81431675203e-05,-1.61006981858e-05
10222000000,255,10222000000,,-2.99785670631e-05,5.70505353617e-06,2.99785670427e-05,-5.70505355652e-06
10248000000,256,10248000000,,-3.02908159866e-05,-3.42778676166e-06,3.02908159662e-05,3.42778674133e-06
10291000000,257,10291000000,,-2.94330476074e-05,-8.92774722959e-06,2.9433047587e-05,8.92774720927e-06
10326000000,258,10326000000,,-2.90664355819e-05,-1.44231619529e-05,2.90664355615e-05,1.44231619326e-05
10365000000,259,10365000000,,-2.712051537e-05,-1.7106613066e-05,2.71205153497e-05,1.71066130457e-05
10418000000,260,10418000000,,-4.04315090899e-05,1.19576570842e-06,4.04315090696e-05,-1.19576572873e-06
10457000000,261,10457000000,,-4.61339477082e-05,2.68755330797e-06,4.61339476879e-05,-2.68755332826e-06
10500000000,262,10500000000,,-4.81580601945e-05,-1.88431227869e-06,4.81580601742e-05,1.88431225842e-06
10538000000,263,10538000000,,-4.90616339318e-05,-7.39583226601e-06,4.90616339115e-05,7.39583224576e-06
10573000000,264,10573000000,,-5.24566193204e-05,-1.64835024865e-05,5.24566193002e-05,1.64835024662e-05
10619000000,265,10619000000,,-5.22156650426e-05,-2.30224730517e-05,5.22156650224e-05,2.30224730315e-05
10670000000,266,10670000000,,-5.05733252392e-05,-2.88122463176e-05,5.05733252189e-05,2.88122462974e-05
10694000000,267,10694000000,,-1.79352375081e-05,-3.6240186216e-05,1.79352374878e-05,3.62401861958e-05
10742000000,268,10742000000,,4.42858935955e-06,-3.92413398174e-05,-4.42858937981e-06,3.92413397971e-05
10776000000,269,10776000000,,2.03234822382e-05,-3.95702309197e-05,-2.03234822584e-05,3.95702308995e-05
10818000000,270,10818000000,,2.82397941677e-05,-3.82106820712e-05,-2.82397941879e-05,3.8210682051e-05
10852000000,271,10852000000,,3.16676979353e-05,-3.5754757527e-05,-3.16676979556e-05,3.57547575068e-05
10893000000,272,10893000000,,3.800770996e-05,-2.8340947965e-05,-3.80077099802e-05,2.83409479447e-05
10951000000,273,10951000000,,4.14220783543e-05,-2.07877806545e-05,-4.14220783745e-05,2.07877806344e-05
10980000000,274,10980000000,,4.18643887691e-05,-1.19668540989e-05,-4.18643887893e-05,1.19668540787e-05
11005000000,275,11005000000,,4.06526090021e-05,-7.48117152802e-06,-4.06526090223e-05,7.48117150786e-06
11058000000,276,11058000000,,3.89514316888e-05,-2.46330237663e-06,-3.8951431709e-05,2.4633023565e-06
11105000000,277,11105000000,,3.66551366337e-05,1.3291567875e-06,-3.66551366538e-05,-1.3291568076e-06
11143000000,278,11143000000,,3.42511135254e-05,5.87692403503e-06,-3.42511135455e-05,-5.87692405509e-06
11187000000,279,11187000000,,3.14120846355e-05,9.30045473183e-06,-3.14120846556e-05,-9.30045475187e-06
11216000000,280,11216000000,,2.73533366869e-05,1.34488013409e-05,-2.73533367069e-05,-1.34488013609e-05
11253000000,281,11253000000,,2.49670366758e-05,1.61107167508e-05,-2.49670366959e-05,-1.61107167708e-05
11301000000,282,11301000000,,4.22372933743e-05,2.21565884093e-07,-4.22372933944e-05,-2.21565904101e-07
11337000000,283,11337000000,,4.81352560802e-05,-1.89046358486e-06,-4.81352561002e-05,1.89046356485e-06
11383000000,284,11383000000,,4.93812632402e-05,1.16090056512e-06,-4.93812632603e-05,-1.16090058512e-06
11428000000,285,11428000000,,4.88566891964e-05,5.62781876486e-06,-4.88566892164e-05,-5.62781878486e-06
11444000000,286,11444000000,,4.76089909399e-05,1.03940434656e-05,-4.760899096e-05,-1.03940434856e-05
11497000000,287,11497000000,,2.05048996485e-05,2.55642711783e-05,-2.05048996685e-05,-2.55642711982e-05
11544000000,288,11544000000,,1.73103271892e-06,3.49633579252e-05,-1.73103273889e-06,-3.49633579451e-05
11573000000,289,11573000000,,-9.34781075867e-06,4.10159480132e-05,9.34781073873e-06,-4.10159480331e-05
11630000000,290,11630000000,,-1.74439020158e-05,4.41563683343e-05,1.74439019959e-05,-4.41563683542e-05
11662000000,291,11662000000,,2.01907941663e-06,4.3957357617e-05,-2.01907943653e-06,-4.39573576369e-05
11683000000,292,11683000000,,5.27551947311e-06,4.77444506202e-05,-5.27551949299e-06,-4.774445064e-05
11760000000,293,11760000000,,8.98212390137e-07,5.23834236129e-05,-8.98212409997e-07,-5.23834236328e-05
11790000000,294,11790000000,,-5.76650919389e-06,5.69235431016e-05,5.76650917404e-06,-5.69235431214e-05
11811000000,295,11811000000,,-1.15703016544e-05,6.01064156219e-05,1.15703016345e-05,-6.01064156417e-05
11860000000,296,11860000000,,-1.72984808086e-05,6.24090312338e-05,1.72984807888e-05,-6.24090312536e-05
11909000000,297,11909000000,,-2.3221979562e-05,6.61581613202e-05,2.32219795421e-05,-6.615816134e-05
11931000000,298,11931000000,,-2.92958953447e-05,6.70029026432e-05,2.92958953248e-05,-6.7002902663e-05
12002000000,299,12002000000,,-3.71110634587e-05,3.89212750718e-05,3.71110634388e-05,-3.89212750916e-05
12051000000,300,12051000000,,-4.16877654213e-05,1.39033945101e-05,4.16877654015e-05,-1.39033945299e-05
12073000000,301,12073000000,,-4.15726646945e-05,-4.64956601359e-06,4.15726646747e-05,4.64956599385e-06
12103000000,302,12103000000,,-4.15594325284e-05,-1.60277874761e-05,4.15594325087e-05,1.60277874564e-05
12126000000,303,12126000000,,-3.96293336986e-05,-2.23147790636e-05,3.96293336789e-05,2.23147790439e-05
12187000000,304,12187000000,,-3.70266127886e-05,-2.64196911559e-05,3.70266127688e-05,2.64196911363e-05
12241000000,305,12241000000,,-3.41161276829e-05,-2.97241601756e-05,3.41161276631e-05,2.9724160156e-05
12269000000,306,12269000000,,-2.96066974953e-05,-3.06967599296e-05,2.96066974755e-05,3.06967599099e-05
12293000000,307,12293000000,,-4.91789917886e-05,-1.81923643517e-05,4.91789917689e-05,1.8192364332e-05
12342000000,308,12342000000,,-5.55093072997e-05,-1.90706255336e-05,5.550930728e-05,1.90706255139e-05
12383000000,309,12383000000,,-5.52223153028e-05,-2.26369747854e-05,5.52223152831e-05,2.26369747657e-05
12430000000,310,12430000000,,-5.35579580756e-05,-2.75041543552e-05,5.3557958056e-05,2.75041543356e-05
12462000000,311,12462000000,,-2.27671127678e-05,-2.57690293643e-05,2.27671127482e-05,2.57690293447e-05
12499000000,312,12499000000,,-1.12656823854e-06,-2.31809531247e-05,1.12656821892e-06,2.31809531051e-05
12526000000,313,12526000000,,1.25549804512e-05,-1.99860472339e-05,-1.25549804708e-05,1.99860472143e-05
12597000000,314,12597000000,,2.09216113318e-05,-1.65859746944e-05,-2.09216113514e-05,1.65859746748e-05
12614000000,315,12614000000,,2.70630977505e-05,-1.2945342472e-05,-2.706309777e-05,1.29453424525e-05
12650000000,316,12650000000,,2.95305304601e-05,-9.40396125552e-06,-2.95305304797e-05,9.403961236e-06
12724000000,317,12724000000,,3.08310202115e-05,-5.79159263032e-06,-3.0831020231e-05,5.79159261083e-06
12743000000,318,12743000000,,2.03795687627e-05,-2.35665512817e-05,-2.03795687822e-05,2.35665512622e-05
12775000000,319,12775000000,,2.20119399772e-05,-2.95377697324e-05,-2.20119399966e-05,2.95377697129e-05
12844000000,320,12844000000,,2.67714434666e-05,-2.98028957381e-05,-2.67714434861e-05,2.98028957187e-05
12852000000,321,12852000000,,3.19867777675e-05,-2.74150389908e-05,-3.19867777869e-05,2.74150389714e-05
12894000000,322,12894000000,,3.62468659133e-05,-2.43990206819e-05,-3.62468659327e-05,2.43990206626e-05
12936000000,323,12936000000,,3.08236649141e-05,7.55378773928e-06,-3.08236649335e-05,-7.55378775864e-06
12972000000,324,12972000000,,2.65979575678e-05,2.85413138729e-05,-2.65979575872e-05,-2.85413138922e-05
13017000000,325,13017000000,,2.37166652057e-05,4.27674173061e-05,-2.37166652251e-05,-4.27674173254e-05
13058000000,326,13058000000,,2.10446310663e-05,5.12769436396e-05,-2.10446310857e-05,-5.12769436589e-05
13100000000,327,13100000000,,1.93447753626e-05,5.72452580373e-05,-1.9344775382e-05,-5.72452580566e-05
13131000000,328,13131000000,,3.64543941089e-05,4.16533171276e-05,-3.64543941283e-05,-4.16533171469e-05
13180000000,329,13180000000,,4.20132839303e-05,4.26223517348e-05,-4.20132839496e-05,-4.26223517541e-05
13227000000,330,13227000000,,4.31806663181e-05,4.87496351471e-05,-4.31806663375e-05,-4.87496351664e-05
13250000000,331,13250000000,,4.25809849774e-05,5.56596450837e-05,-4.25809849966e-05,-5.56596451029e-05
13301000000,332,13301000000,,3.97235224484e-05,6.05700672276e-05,-3.97235224677e-05,-6.05700672468e-05
13324000000,333,13324000000,,3.7126511295e-05,6.57625092602e-05,-3.71265113142e-05,-6.57625092794e-05
13374000000,334,13374000000,,6.95276556849e-06,5.7873644596e-05,-6.95276558771e-06,-5.78736446152e-05
13415000000,335,13415000000,,-1.24992545084e-05,5.13289105195e-05,1.24992544892e-05,-5.13289105386e-05
13451000000,336,13451000000,,-2.37387211795e-05,4.46245900876e-05,2.37387211603e-05,-4.46245901068e-05
13503000000,337,13503000000,,-3.10658400202e-05,3.91815005705e-05,3.10658400011e-05,-3.91815005896e-05
13534000000,338,13534000000,,-3.41960390303e-05,3.29407194717e-05,3.41960390111e-05,-3.29407194908e-05
13584000000,339,13584000000,,-3.91484632169e-05,2.481371538e-05,3.91484631978e-05,-2.48137153991e-05
13623000000,340,13623000000,,-4.06414870424e-05,1.69667738737e-05,4.06414870232e-05,-1.69667738928e-05
13656000000,341,13656000000,,-4.09444240436e-05,1.15386838183e-05,4.09444240245e-05,-1.15386838374e-05
13717000000,342,13717000000,,-3.96844403469e-05,6.35424890933e-06,3.96844403278e-05,-6.35424892841e-06
13749000000,343,13749000000,,-3.68755943067e-05,1.39368470153e-06,3.68755942876e-05,-1.3936847206e-06
13783000000,344,13783000000,,-3.46621457994e-05,-2.22308329146e-06,3.46621457803e-05,2.22308327241e-06
13814000000,345,13814000000,,-4.4743544485e-05,1.73598249168e-05,4.47435444659e-05,-1.73598249359e-05
13871000000,346,13871000000,,-4.97087746886e-05,2.02462411344e-05,4.97087746696e-05,-2.02462411534e-05
13909000000,347,13909000000,,-5.24990158892e-05,1.79761206267e-05,5.24990158701e-05,-1.79761206458e-05
13948000000,348,13948000000,,-5.32031920248e-05,1.21132042781e-05,5.32031920058e-05,-1.21132042971e-05
13974000000,349,13974000000,,-5.32735062893e-05,6.38593885097e-06,5.32735062703e-05,-6.38593886994e-06
14023000000,350,14023000000,,-2.66589074926e-05,-1.19298549149e-05,2.66589074736e-05,1.19298548959e-05
14050000000,351,14050000000,,-9.50273767947e-06,-2.40352796619e-05,9.5027376605e-06,2.40352796429e-05
14104000000,352,14104000000,,2.30535419253e-06,-3.09197837181e-05,-2.30535421146e-06,3.09197836992e-05
14133000000,353,14133000000,,9.28675044482e-06,-3.48744109593e-05,-9.28675046371e-06,3.48744109404e-05
14171000000,354,14171000000,,1.3797218218e-05,-3.64281746634e-05,-1.37972182368e-05,3.64281746445e-05
14213000000,355,14213000000,,-7.08964573825e-06,-3.87442886397e-05,7.08964571941e-06,3.87442886209e-05
14250000000,356,14250000000,,-9.43724942783e-06,-4.3450461763e-05,9.437249409e-06,4.34504617442e-05
14317000000,357,14317000000,,-6.18918582975e-06,-4.82327313548e-05,6.18918581095e-06,4.82327313361e-05
14342000000,358,14342000000,,-9.34916341862e-07,-5.24106571201e-05,9.34916323093e-07,5.24106571014e-05
14375000000,359,14375000000,,3.74522798225e-06,-5.50342169314e-05,-3.74522800101e-06,5.50342169127e-05
14430000000,360,14430000000,,1.7882982991e-05,-3.10473596998e-05,-1.78829830098e-05,3.1047359681e-05
14463000000,361,14463000000,,2.70722019383e-05,-1.36448670783e-05,-2.70722019571e-05,1.36448670596e-05
14487000000,362,14487000000,,3.20095349101e-05,-4.47564518666e-07,-3.20095349288e-05,4.47564499949e-07
14535000000,363,14535000000,,3.44590383638e-05,9.28025683531e-06,-3.44590383826e-05,-9.28025685403e-06
14563000000,364,14563000000,,3.48743448583e-05,1.64377050788e-05,-3.4874344877e-05,-1.64377050975e-05
14612000000,365,14612000000,,3.4403798311e-05,2.24729590505e-05,-3.44037983297e-05,-2.24729590692e-05
14643000000,366,14643000000,,3.1848416043e-05,2.74112725262e-05,-3.18484160616e-05,-2.74112725448e-05
14696000000,367,14696000000,,3.05666215401e-05,3.0401099593e-05,-3.05666215587e-05,-3.04010996116e-05
14739000000,368,14739000000,,4.27144998405e-05,1.17917288709e-05,-4.27144998591e-05,-1.17917288895e-05
14776000000,369,14776000000,,4.32271010013e-05,9.91081530109e-06,-4.32271010199e-05,-9.91081531963e-06
14815000000,370,14815000000,,4.40284825312e-05,1.37433771489e-05,-4.40284825498e-05,-1.37433771675e-05
14866000000,371,14866000000,,4.42950570638e-05,1.8916040648e-05,-4.42950570824e-05,-1.89160406665e-05
14896000000,372,14896000000,,1.69622787891e-05,4.10166857803e-05,-1.69622788076e-05,-4.10166857988e-05
14929000000,373,14929000000,,-1.1947829437e-07,5.4641741936e-05,1.19478275839e-07,-5.46417419544e-05
14979000000,374,14979000000,,-1.09219655846e-05,6.24472008562e-05,1.09219655661e-05,-6.24472008747e-05
15020000000,375,15020000000,,-1.79363010874e-05,6.61891741833e-05,1.79363010689e-05,-6.61891742018e-05
15052000000,376,15052000000,,-2.13443410519e-05,6.72670159102e-05,2.13443410334e-05,-6.72670159286e-05
15101000000,377,15101000000,,-1.15349587886e-06,6.88197947195e-05,1.15349586041e-06,-6.88197947379e-05
15143000000,378,15143000000,,8.78719899484e-07,7.28635673127e-05,-8.78719917909e-07,-7.28635673311e-05
15198000000,379,15198000000,,-2.39254415909e-06,7.71242785747e-05,2.39254414068e-06,-7.7124278593e-05
15206000000,380,15206000000,,-7.54938178644e-06,8.06209792573e-05,7.54938176805e-06,-8.06209792757e-05
15272000000,381,15272000000,,-1.2065863692e-05,8.33227816703e-05,1.20658636736e-05,-8.33227816886e-05
15295000000,382,15295000000,,-1.73553884952e-05,8.43661027735e-05,1.73553884769e-05,-8.43661027918e-05
15336000000,383,15336000000,,-2.85002246724e-05,5.33375540121e-05,2.8500224654e-05,-5.33375540304e-05
15370000000,384,15370000000,,-3.48082730912e-05,3.15078529014e-05,3.48082730729e-05,-3.15078529197e-05
15419000000,385,15419000000,,-3.77801857464e-05,1.53568257257e-05,3.77801857281e-05,-1.53568257439e-05
15451000000,386,15451000000,,-3.87384785962e-05,4.48771336677e-06,3.8738478578e-05,-4.487713385e-06
15492000000,387,15492000000,,-3.79156976874e-05,-7.67414637134e-06,3.79156976692e-05,7.67414635315e-06
15539000000,388,15539000000,,-3.626143606e-05,-1.22179247919e-05,3.62614360418e-05,1.22179247737e-05
15572000000,389,15572000000,,-3.46265333176e-05,-1.64864518744e-05,3.46265332994e-05,1.64864518562e-05
15624000000,390,15624000000,,-3.19535905967e-05,-1.87016669431e-05,3.19535905785e-05,1.8701666925e-05
15651000000,391,15651000000,,-4.65621807732e-05,-2.69307632504e-06,4.6562180755e-05,2.69307630694e-06
15688000000,392,15688000000,,-5.20585089144e-05,-2.54241645485e-06,5.20585088962e-05,2.54241643677e-06
15743000000,393,15743000000,,-5.36458607595e-05,-7.48052092474e-06,5.36458607414e-05,7.48052090669e-06
15768000000,394,15768000000,,-5.35185466944e-05,-1.33211331461e-05,5.35185466764e-05,1.3321133128e-05
15810000000,395,15810000000,,-5.25144785724e-05,-1.89740464887e-05,5.25144785544e-05,1.89740464707e-05
15854000000,396,15854000000,,-5.05650464423e-05,-2.43815788826e-05,5.05650464243e-05,2.43815788646e-05
15885000000,397,15885000000,,-1.78379516394e-05,-2.53240432627e-05,1.78379516214e-05,2.53240432448e-05
15937000000,398,15937000000,,1.08636000941e-06,-2.47585983667e-05,-1.08636002738e-06,2.47585983488e-05
15995000000,399,15995000000,,1.45399736391e-05,-2.34376692362e-05,-1.4539973657e-05,2.34376692183e-05
16037000000,400,16037000000,,2.47728240479e-05,-1.96136573154e-05,-2.47728240658e-05,1.96136572975e-05
16063000000,401,16063000000,,3.07162610214e-05,-1.52479939532e-05,-3.07162610393e-05,1.52479939354e-05
16100000000,402,16100000000,,3.10689052363e-05,-1.26559563084e-05,-3.10689052542e-05,1.26559562906e-05
16153000000,403,16153000000,,3.10505403111e-05,-9.59131767119e-06,-3.1050540329e-05,9.59131765334e-06
16172000000,404,16172000000,,2.259626624e-05,-2.90639633424e-05,-2.25962662579e-05,2.90639633245e-05
16215000000,405,16215000000,,2.50531554759e-05,-3.57312554428e-05,-2.50531554938e-05,3.5731255425e-05
16258000000,406,16258000000,,2.95606374466e-05,-3.63986315455e-05,-2.95606374644e-05,3.63986315277e-05
16295000000,407,16295000000,,2.69168512426e-05,-8.65763098311e-06,-2.69168512604e-05,8.65763096535e-06
16344000000,408,16344000000,,2.40493319666e-05,9.91367198822e-06,-2.40493319844e-05,-9.91367200594e-06
16387000000,409,16387000000,,2.16492584292e-05,2.39685124362e-05,-2.16492584469e-05,-2.39685124539e-05
16435000000,410,16435000000,,1.88748317099e-05,3.35605339926e-05,-1.88748317276e-05,-3.35605340103e-05
16444000000,411,16444000000,,1.54923922114e-05,4.24186061393e-05,-1.54923922291e-05,-4.24186061569e-05
16501000000,412,16501000000,,1.3880202762e-05,4.63765021965e-05,-1.38802027796e-05,-4.63765022141e-05
16532000000,413,16532000000,,1.28377586946e-05,4.8977645282e-05,-1.28377587122e-05,-4.89776452996e-05
16566000000,414,16566000000,,2.95207954862e-05,3.5802064921e-05,-2.95207955038e-05,-3.58020649387e-05
16610000000,415,16610000000,,3.45397558009e-05,3.65242904982e-05,-3.45397558185e-05,-3.65242905158e-05
16669000000,416,16669000000,,3.51149135385e-05,4.14341123351e-05,-3.51149135561e-05,-4.14341123526e-05
16703000000,417,16703000000,,3.43047602571e-05,4.71448616659e-05,-3.43047602747e-05,-4.71448616834e-05
16736000000,418,16736000000,,3.22189839401e-05,5.27668477111e-05,-3.22189839577e-05,-5.27668477286e-05
16769000000,419,16769000000,,3.00179311784e-05,5.70758808012e-05,-3.0017931196e-05,-5.70758808188e-05
16817000000,420,16817000000,,2.65785888173e-05,6.11229877852e-05,-2.65785888348e-05,-6.11229878027e-05
16862000000,421,16862000000,,-4.2921567967e-06,5.23491758821e-05,4.29215677915e-06,-5.23491758996e-05
16900000000,422,16900000000,,-2.3536117894e-05,4.49621218827e-05,2.35361178765e-05,-4.49621219002e-05
16937000000,423,16937000000,,-3.55820535969e-05,3.86471680554e-05,3.55820535794e-05,-3.86471680729e-05
16978000000,424,16978000000,,-4.41980256394e-05,3.1713152975e-05,4.41980256219e-05,-3.17131529925e-05
17025000000,425,17025000000,,-4.83580044389e-05,2.54112043136e-05,4.83580044215e-05,-2.5411204331e-05
17079000000,426,17079000000,,-4.99968377789e-05,2.05116120947e-05,4.99968377615e-05,-2.05116121121e-05
17101000000,427,17101000000,,-4.89461678152e-05,1.45335487777e-05,4.89461677978e-05,-1.45335487951e-05
17159000000,428,17159000000,,-4.62905653982e-05,3.59873077564e-05,4.62905653808e-05,-3.59873077737e-05
17187000000,429,17187000000,,-5.15911647737e-05,4.75962452788e-05,5.15911647564e-05,-4.75962452961e-05
17225000000,430,17225000000,,-5.82342853451e-05,4.58170574259e-05,5.82342853278e-05,-4.58170574432e-05
17260000000,431,17260000000,,-6.22502009377e-05,3.87424890664e-05,6.22502009205e-05,-3.87424890836e-05
17289000000,432,17289000000,,-6.47950974213e-05,3.31475288719e-05,6.4795097404e-05,-3.31475288891e-05
17343000000,433,17343000000,,-4.8859687099e-05,4.63826473775e-06,4.88596870817e-05,-4.63826475496e-06
17384000000,434,17384000000,,-3.65933874503e-05,-1.46992394739e-05,3.6593387433e-05,1.46992394567e-05
17418000000,435,17418000000,,-2.55722906375e-05,-2.91097782089e-05,2.55722906203e-05,2.91097781917e-05
17456000000,436,17456000000,,-1.67581537114e-05,-3.98759926647e-05,1.67581536942e-05,3.98759926475e-05
17490000000,437,17490000000,,-1.28462811641e-05,-4.22550473565e-05,1.28462811469e-05,4.22550473394e-05
17529000000,438,17529000000,,-1.1210215486e-05,-4.35457188056e-05,1.12102154689e-05,4.35457187885e-05
17574000000,439,17574000000,,-3.28076903127e-05,-3.78589229376e-05,3.28076902956e-05,3.78589229205e-05
17613000000,440,17613000000,,-4.33675511723e-05,-3.85843053743e-05,4.33675511552e-05,3.85843053572e-05
17650000000,441,17650000000,,-3.80231174241e-05,-4.60629060514e-05,3.8023117407e-05,4.60629060344e-05
17692000000,442,17692000000,,-3.27641778566e-05,-5.16914999781e-05,3.27641778395e-05,5.16914999611e-05
17729000000,443,17729000000,,-2.82323333633e-05,-5.57187067633e-05,2.82323333463e-05,5.57187067463e-05
17767000000,444,17767000000,,-5.65572609849e-06,-3.55202344079e-05,5.65572608149e-06,3.55202343909e-05
17826000000,445,17826000000,,7.96514130827e-06,-1.94505905371e-05,-7.96514132524e-06,1.94505905201e-05
17851000000,446,17851000000,,1.74804340046e-05,-8.23428514511e-06,-1.74804340216e-05,8.2342851282e-06
17890000000,447,17890000000,,2.21146276558e-05,1.65857617522e-06,-2.21146276727e-05,-1.65857619211e-06
17925000000,448,17925000000,,2.53026459108e-05,8.33638865035e-06,-2.53026459277e-05,-8.33638866723e-06
17976000000,449,17976000000,,1.92169241879e-05,1.49535816086e-05,-1.92169242049e-05,-1.49535816255e-05
18034000000,450,18034000000,,1.51468446354e-05,1.98313371706e-05,-1.51468446523e-05,-1.98313371874e-05
18064000000,451,18064000000,,1.01802733381e-05,2.54627648752e-05,-1.0180273355e-05,-2.5462764892e-05
18094000000,452,18094000000,,8.11124117631e-06,2.8841764751e-05,-8.11124119314e-06,-2.88417647678e-05
18139000000,453,18139000000,,2.18534106575e-05,9.78234520016e-06,-2.18534106743e-05,-9.78234521692e-06
18200000000,454,18200000000,,3.1158554705e-05,7.5382161183e-06,-3.11585547218e-05,-7.53821613502e-06
18229000000,455,18229000000,,3.63852349898e-05,1.01916365001e-05,-3.63852350065e-05,-1.01916365168e-05
18268000000,456,18268000000,,3.6607291556e-05,1.6171892086e-05,-3.66072915727e-05,-1.61718921026e-05
18304000000,457,18304000000,,3.65302833869e-05,2.20062531802e-05,-3.65302834036e-05,-2.20062531968e-05
18355000000,458,18355000000,,3.60974939536e-05,2.77600393132e-05,-3.60974939703e-05,-2.77600393298e-05
18378000000,459,18378000000,,3.46244741595e-05,3.4276633515e-05,-3.46244741762e-05,-3.42766335316e-05
18408000000,460,18408000000,,3.29762059374e-05,3.99760986115e-05,-3.2976205954e-05,-3.99760986281e-05
18450000000,461,18450000000,,2.13964993797e-06,5.00306993258e-05,-2.13964995458e-06,-5.00306993423e-05
18486000000,462,18486000000,,-1.64610622773e-05,5.53089455403e-05,1.64610622607e-05,-5.53089455569e-05
18526000000,463,18526000000,,-2.78454323951e-05,5.77344492306e-05,2.78454323786e-05,-5.77344492471e-05
18589000000,464,18589000000,,-3.40393909281e-05,5.76651747118e-05,3.40393909116e-05,-5.76651747283e-05
18639000000,465,18639000000,,-1.54567743305e-05,6.70699641563e-05,1.54567743139e-05,-6.70699641728e-05
18661000000,466,18661000000,,-9.067030216e-06,7.43197079686e-05,9.06703019946e-06,-7.43197079851e-05
18703000000,467,18703000000,,-1.69309733803e-05,7.70584872573e-05,1.69309733638e-05,-7.70584872738e-05
18722000000,468,18722000000,,-2.4084884204e-05,7.8897462022e-05,2.40848841875e-05,-7.88974620385e-05
18770000000,469,18770000000,,-3.3894907509e-05,5.32565214438e-05,3.38949074925e-05,-5.32565214603e-05
18812000000,470,18812000000,,-3.90456963087e-05,3.56041947717e-05,3.90456962922e-05,-3.56041947881e-05
18859000000,471,18859000000,,-4.09666554888e-05,2.1990389293e-05,4.09666554724e-05,-2.19903893094e-05
18932000000,472,18932000000,,-4.13438526259e-05,1.06093758297e-05,4.13438526095e-05,-1.06093758461e-05
18943000000,473,18943000000,,-3.86483352353e-05,1.2077198548e-06,3.86483352189e-05,-1.20771987115e-06
18968000000,474,18968000000,,-3.73266553911e-05,-5.24787693047e-06,3.73266553747e-05,5.24787691414e-06
19024000000,475,19024000000,,-3.54848562946e-05,-9.39387920078e-06,3.54848562783e-05,9.39387918448e-06
19053000000,476,19053000000,,-3.35631356591e-05,-1.33305250115e-05,3.35631356428e-05,1.33305249953e-05
19092000000,477,19092000000,,-3.08140720412e-05,-1.51976700075e-05,3.08140720249e-05,1.51976699913e-05
19129000000,478,19129000000,,-4.69175472951e-05,-1.69307268113e-06,4.69175472788e-05,1.69307266492e-06
19174000000,479,19174000000,,-5.59509532911e-05,2.66172359775e-06,5.59509532749e-05,-2.66172361394e-06
19214000000,480,19214000000,,-5.4392461686e-05,-4.56899356169e-06,5.43924616698e-05,4.56899354552e-06
19265000000,481,19265000000,,-5.25179541637e-05,-1.08661963625e-05,5.25179541475e-05,1.08661963464e-05
19302000000,482,19302000000,,-5.05495450277e-05,-1.61753436235e-05,5.05495450116e-05,1.61753436073e-05
19331000000,483,19331000000,,-4.78020847849e-05,-2.08558704508e-05,4.78020847687e-05,2.08558704347e-05
19393000000,484,19393000000,,-1.68518614916e-05,-1.47721627161e-05,1.68518614755e-05,1.47721627001e-05
19432000000,485,19432000000,,1.11252911144e-05,-7.47527590433e-06,-1.11252911305e-05,7.47527588829e-06
19451000000,486,19451000000,,2.83397355944e-05,-1.87927559824e-06,-2.83397356104e-05,1.87927558222e-06
19493000000,487,19493000000,,2.99560126418e-05,3.48355750382e-07,-2.99560126578e-05,-3.48355766369e-07
19541000000,488,19541000000,,3.14337944182e-05,2.3681055486e-06,-3.14337944342e-05,-2.36810556455e-06
19582000000,489,19582000000,,3.05564605456e-05,5.19678781836e-06,-3.05564605616e-05,-5.19678783427e-06
19619000000,490,19619000000,,2.1351915463e-05,-1.45575307466e-05,-2.1351915479e-05,1.45575307307e-05
19656000000,491,19656000000,,2.31368592725e-05,-2.03462510155e-05,-2.31368592884e-05,2.03462509996e-05
19700000000,492,19700000000,,2.7904255602e-05,-2.06127744533e-05,-2.79042556179e-05,2.06127744375e-05
19733000000,493,19733000000,,3.2612496655e-05,-1.89698464763e-05,-3.26124966708e-05,1.89698464605e-05
19775000000,494,19775000000,,3.65962214934e-05,-1.65520694493e-05,-3.65962215092e-05,1.65520694335e-05
19810000000,495,19810000000,,2.68218060513e-05,1.34607982794e-05,-2.68218060671e-05,-1.34607982951e-05
19861000000,496,19861000000,,2.07171748137e-05,3.34646512834e-05,-2.07171748295e-05,-3.34646512991e-05
19909000000,497,19909000000,,1.54195740503e-05,4.59312458347e-05,-1.54195740661e-05,-4.59312458504e-05
19945000000,498,19945000000,,1.19808702388e-05,5.5002194034e-05,-1.19808702546e-05,-5.50021940497e-05
19985000000,499,19985000000,,8.43806035635e-06,6.01163904829e-05,-8.43806037211e-06,-6.01163904987e-05
20030000000,500,20030000000,,6.39989450502e-06,6.32188486832e-05,-6.39989452077e-06,-6.32188486989e-05
20077000000,501,20077000000,,2.48692126348e-05,5.21983133963e-05,-2.48692126505e-05,-5.2198313412e-05
20113000000,502,20113000000,,3.53519835679e-05,5.07039948437e-05,-3.53519835836e-05,-5.07039948594e-05
20154000000,503,20154000000,,3.51919745847e-05,5.72554481279e-05,-3.51919746003e-05,-5.72554481435e-05
20200000000,504,20200000000,,3.05279393912e-05,6.53290444264e-05,-3.05279394068e-05,-6.5329044442e-05
20237000000,505,20237000000,,2.60884391316e-05,7.12816225147e-05,-2.60884391471e-05,-7.12816225303e-05
20256000000,506,20256000000,,2.27865047669e-05,7.49426702871e-05,-2.27865047824e-05,-7.49426703026e-05
20306000000,507,20306000000,,2.02458220832e-05,7.72766698038e-05,-2.02458220987e-05,-7.72766698193e-05
20340000000,508,20340000000,,-6.61485215288e-06,5.89966726996e-05,6.61485213738e-06,-5.8996672715e-05
20379000000,509,20379000000,,-2.11077961051e-05,4.4745142369e-05,2.11077960896e-05,-4.47451423844e-05
20430000000,510,20430000000,,-3.06305972246e-05,3.44645512923e-05,3.06305972092e-05,-3.44645513078e-05
20452000000,511,20452000000,,-3.58258383051e-05,2.56973293286e-05,3.58258382897e-05,-2.56973293441e-05
20510000000,512,20510000000,,-3.83912521919e-05,1.84748691191e-05,3.83912521765e-05,-1.84748691345e-05
20544000000,513,20544000000,,-3.88787394522e-05,1.09837401729e-05,3.88787394368e-05,-1.09837401883e-05
20592000000,514,20592000000,,-3.84318622963e-05,6.69772341124e-06,3.84318622809e-05,-6.69772342662e-06
20640000000,515,20640000000,,-3.60089428072e-05,2.90972415005e-06,3.60089427918e-05,-2.90972416541e-06
20666000000,516,20666000000,,-4.11249327144e-05,2.26831905696e-05,4.11249326991e-05,-2.26831905849e-05
20701000000,517,20701000000,,-4.68702595928e-05,2.59295081199e-05,4.68702595775e-05,-2.59295081352e-05
20725000000,518,20725000000,,-5.05566397013e-05,2.25536544396e-05,5.0556639686e-05,-2.25536544548e-05
20777000000,519,20777000000,,-5.27854719022e-05,1.74834534239e-05,5.2785471887e-05,-1.74834534391e-05
20808000000,520,20808000000,,-5.40904049748e-05,1.21840927651e-05,5.40904049596e-05,-1.21840927803e-05
20853000000,521,20853000000,,-5.44019710216e-05,6.73118995589e-06,5.44019710064e-05,-6.73118997102e-06
20896000000,522,20896000000,,-2.79252974237e-05,-9.6784393209e-06,2.79252974085e-05,9.6784393058e-06
20926000000,523,20926000000,,-2.1090272657e-06,-2.35319473369e-05,2.10902725058e-06,2.35319473218e-05
21003000000,524,21003000000,,5.86546470318e-06,-2.76397056607e-05,-5.86546471829e-06,2.76397056456e-05
21009000000,525,21009000000,,1.13495004921e-05,-2.95567843124e-05,-1.13495005072e-05,2.95567842973e-05
21060000000,526,21060000000,,1.45757848896e-05,-2.91628504912e-05,-1.45757849046e-05,2.91628504761e-05
21088000000,527,21088000000,,-6.90046844774e-06,-3.42576748271e-05,6.90046843269e-06,3.42576748121e-05
21144000000,528,21144000000,,-9.74566896564e-06,-3.93121947342e-05,9.74566895062e-06,3.93121947192e-05
21190000000,529,21190000000,,-6.51026216756e-06,-4.34346261762e-05,6.51026215257e-06,4.34346261612e-05
21205000000,530,21205000000,,-1.7779312397e-06,-4.63796728044e-05,1.77793122474e-06,4.63796727895e-05
21265000000,531,21265000000,,2.9617846494e-06,-4.81101299802e-05,-2.96178466432e-06,4.81101299654e-05
21298000000,532,21298000000,,1.6486101897e-05,-2.03330838034e-05,-1.64861019119e-05,2.03330837886e-05
21332000000,533,21332000000,,2.43894831945e-05,-6.99857264097e-07,-2.43894832093e-05,6.9985724928e-07
21379000000,534,21379000000,,2.86372245909e-05,1.36488703004e-05,-2.86372246057e-05,-1.36488703152e-05
21406000000,535,21406000000,,3.04015365302e-05,2.55495560564e-05,-3.0401536545e-05,-2.55495560711e-05
21460000000,536,21460000000,,3.06614709442e-05,3.33935684763e-05,-3.0661470959e-05,-3.3393568491e-05
21503000000,537,21503000000,,2.68103051502e-05,3.8174553238e-05,-2.6810305165e-05,-3.81745532527e-05
21542000000,538,21542000000,,2.35014884855e-05,4.25569441631e-05,-2.35014885003e-05,-4.25569441779e-05
21575000000,539,21575000000,,2.0080165786e-05,4.511266468e-05,-2.00801658008e-05,-4.51126646947e-05
21631000000,540,21631000000,,3.39753325686e-05,2.908260945e-05,-3.39753325833e-05,-2.90826094648e-05
21650000000,541,21650000000,,4.1125805462e-05,2.57740391198e-05,-4.11258054767e-05,-2.57740391345e-05
21702000000,542,21702000000,,4.15882079175e-05,3.20571156943e-05,-4.15882079322e-05,-3.2057115709e-05
21755000000,543,21755000000,,4.14439555254e-05,3.8136100902e-05,-4.144395554e-05,-3.81361009166e-05
21780000000,544,21780000000,,4.04781680598e-05,4.79028705473e-05,-4.04781680744e-05,-4.7902870562e-05
21820000000,545,21820000000,,3.88592461726e-05,5.34511053568e-05,-3.88592461872e-05,-5.34511053714e-05
21874000000,546,21874000000,,7.61430813464e-06,5.85150395683e-05,-7.61430814921e-06,-5.85150395828e-05
21903000000,547,21903000000,,-1.54732680035e-05,6.13547941149e-05,1.5473267989e-05,-6.13547941294e-05
21924000000,548,21924000000,,-2.91184290844e-05,6.12854337157e-05,2.911842907e-05,-6.12854337301e-05
21996000000,549,21996000000,,-3.57511073812e-05,5.90666618883e-05,3.57511073668e-05,-5.90666619027e-05
22017000000,550,22017000000,,-4.12183723607e-05,5.52577523402e-05,4.12183723462e-05,-5.52577523546e-05
22046000000,551,22046000000,,-4.23966584622e-05,5.22704856208e-05,4.23966584478e-05,-5.22704856352e-05
22106000000,552,22106000000,,-2.8673913219e-05,6.92085253224e-05,2.86739132046e-05,-6.92085253367e-05
22130000000,553,22130000000,,-2.90933307528e-05,7.51327332455e-05,2.90933307384e-05,-7.51327332599e-05
22171000000,554,22171000000,,-3.3958861657e-05,7.63040266768e-05,3.39588616426e-05,-7.63040266912e-05
22214000000,555,22214000000,,-3.92716288617e-05,7.60801015667e-05,3.92716288473e-05,-7.6080101581e-05
22263000000,556,22263000000,,-3.88071997245e-05,4.47637437968e-05,3.88071997101e-05,-4.47637438111e-05
22292000000,557,22292000000,,-3.64943188574e-05,1.55980235308e-05,3.6494318843e-05,-1.55980235452e-05
22323000000,558,22323000000,,-3.56629041019e-05,3.09107969898e-06,3.56629040876e-05,-3.09107971329e-06
22373000000,559,22373000000,,-3.34949610355e-05,-4.63469536435e-06,3.34949610211e-05,4.63469535008e-06
22412000000,560,22412000000,,-3.15661605098e-05,-1.08947071465e-05,3.15661604955e-05,1.08947071322e-05
22478000000,561,22478000000,,-2.91755377049e-05,-1.49240332616e-05,2.91755376907e-05,1.49240332474e-05
22502000000,562,22502000000,,-2.67988131054e-05,-1.7931401187e-05,2.67988130911e-05,1.79314011728e-05
22534000000,563,22534000000,,-4.37503864325e-05,-3.6323454846e-06,4.37503864183e-05,3.63234547046e-06
22577000000,564,22577000000,,-4.9132705489e-05,-4.15710523245e-06,4.91327054749e-05,4.15710521834e-06
22602000000,565,22602000000,,-5.00160301728e-05,-9.18873744888e-06,5.00160301587e-05,9.18873743481e-06
22640000000,566,22640000000,,-4.91352729991e-05,-1.49611159545e-05,4.9135272985e-05,1.49611159405e-05
22685000000,567,22685000000,,-4.73391408908e-05,-2.03558954787e-05,4.73391408767e-05,2.03558954648e-05
22743000000,568,22743000000,,-4.48221721486e-05,-2.53067064638e-05,4.48221721346e-05,2.53067064498e-05
22781000000,569,22781000000,,-4.1195669232e-05,-2.97988875401e-05,4.1195669218e-05,2.97988875262e-05
22821000000,570,22821000000,,-9.36526092001e-06,-2.20394482794e-05,9.36526090606e-06,2.20394482655e-05
22856000000,571,22856000000,,1.13494286965e-05,-1.46320602431e-05,-1.13494287105e-05,1.46320602292e-05
22889000000,572,22889000000,,2.48906223966e-05,-8.7066779079e-06,-2.48906224105e-05,8.70667789399e-06
22924000000,573,22924000000,,3.19897423222e-05,-3.54314584734e-06,-3.19897423362e-05,3.54314583342e-06
22961000000,574,22961000000,,3.57585700529e-05,1.20093909275e-06,-3.57585700668e-05,-1.20093910665e-06
23019000000,575,23019000000,,3.77869584833e-05,4.8730897359e-06,-3.77869584972e-05,-4.87308974979e-06
23067000000,576,23067000000,,3.66410977534e-05,1.03894802065e-05,-3.66410977673e-05,-1.03894802203e-05
23088000000,577,23088000000,,3.5288387018e-05,-1.13485505473e-05,-3.52883870318e-05,1.13485505335e-05
23123000000,578,23123000000,,3.9046773456e-05,-1.63939295928e-05,-3.90467734698e-05,1.6393929579e-05
23171000000,579,23171000000,,4.35063561233e-05,-1.5193201853e-05,-4.35063561371e-05,1.51932018393e-05
23229000000,580,23229000000,,4.73376809409e-05,-1.19839343215e-05,-4.73376809546e-05,1.19839343077e-05
23250000000,581,23250000000,,3.22975408359e-05,1.6387128731e-05,-3.22975408496e-05,-1.63871287447e-05
23292000000,582,23292000000,,2.20450109872e-05,3.48220246601e-05,-2.20450110009e-05,-3.48220246737e-05
23330000000,583,23330000000,,1.1142145345e-05,5.16641147253e-05,-1.11421453587e-05,-5.16641147389e-05
23375000000,584,23375000000,,7.33284203199e-06,5.7392396855e-05,-7.33284204563e-06,-5.73923968686e-05
23433000000,585,23433000000,,4.81496768548e-06,6.13277356981e-05,-4.8149676991e-06,-6.13277357117e-05
23446000000,586,23446000000,,1.14882873914e-06,6.26094539411e-05,-1.14882875274e-06,-6.26094539546e-05
23490000000,587,23490000000,,2.30116059264e-05,5.52737480862e-05,-2.301160594e-05,-5.52737480998e-05
23533000000,588,23533000000,,2.80728641736e-05,5.78803448351e-05,-2.80728641872e-05,-5.78803448486e-05
23580000000,589,23580000000,,2.72906711509e-05,6.30954519763e-05,-2.72906711644e-05,-6.30954519898e-05
23611000000,590,23611000000,,2.46773607826e-05,6.82501331594e-05,-2.4677360796e-05,-6.82501331728e-05
23657000000,591,23657000000,,2.14537727446e-05,7.26091217991e-05,-2.1453772758e-05,-7.26091218124e-05
23689000000,592,23689000000,,-1.09638561197e-05,6.0044796194e-05,1.09638561063e-05,-6.00447962073e-05
23742000000,593,23742000000,,-3.14618013225e-05,5.04177352002e-05,3.14618013092e-05,-5.04177352135e-05
23772000000,594,23772000000,,-4.38741795697e-05,4.19708106775e-05,4.38741795564e-05,-4.19708106908e-05
23817000000,595,23817000000,,-5.12859623179e-05,3.58648369052e-05,5.12859623046e-05,-3.58648369184e-05
23863000000,596,23863000000,,-5.42827253375e-05,2.95406988742e-05,5.42827253243e-05,-2.95406988874e-05
23904000000,597,23904000000,,-5.56812579376e-05,2.44759084653e-05,5.56812579244e-05,-2.44759084785e-05
23924000000,598,23924000000,,-5.50485035772e-05,1.91117419743e-05,5.5048503564e-05,-1.91117419875e-05
23982000000,599,23982000000,,-5.37399687865e-05,4.17044148904e-05,5.37399687733e-05,-4.17044149036e-05
24029000000,600,24029000000,,-5.56768174464e-05,5.24667999484e-05,5.56768174332e-05,-5.24667999616e-05
24045000000,601,24045000000,,-6.06943744697e-05,4.69365729067e-05,6.06943744566e-05,-4.69365729198e-05
24111000000,602,24111000000,,-6.46792241638e-05,4.12894109289e-05,6.46792241506e-05,-4.12894109421e-05
24137000000,603,24137000000,,-5.01614023025e-05,1.36412671864e-05,5.01614022893e-05,-1.36412671995e-05
24170000000,604,24170000000,,-3.94963455952e-05,-3.08666415862e-06,3.94963455821e-05,3.08666414554e-06
24216000000,605,24216000000,,-3.25154448479e-05,-1.42826085288e-05,3.25154448348e-05,1.42826085157e-05
24242000000,606,24242000000,,-2.66545235896e-05,-2.06178103397e-05,2.66545235765e-05,2.06178103267e-05
24310000000,607,24310000000,,-2.36423648067e-05,-2.48758014648e-05,2.36423647936e-05,2.48758014518e-05
24335000000,608,24335000000,,-1.98212272237e-05,-2.63705177766e-05,1.98212272107e-05,2.63705177636e-05
24382000000,609,24382000000,,-4.06009254044e-05,-2.21750488003e-05,4.06009253914e-05,2.21750487873e-05
24418000000,610,24418000000,,-5.08586800263e-05,-2.3234819518e-05,5.08586800133e-05,2.3234819505e-05
24450000000,611,24450000000,,-4.64776719472e-05,-2.96296956937e-05,4.64776719343e-05,2.96296956808e-05
24495000000,612,24495000000,,-4.24060205839e-05,-3.48488778504e-05,4.2406020571e-05,3.48488778375e-05
24537000000,613,24537000000,,-3.86806037568e-05,-3.87465362913e-05,3.8680603744e-05,3.87465362785e-05
24577000000,614,24577000000,,-1.38156023702e-05,-2.20019268189e-05,1.38156023574e-05,2.20019268062e-05
24618000000,615,24618000000,,2.50630856135e-06,-1.00495324885e-05,-2.50630857413e-06,1.00495324758e-05
24642000000,616,24642000000,,1.24077798115e-05,-4.11922456177e-07,-1.24077798242e-05,4.11922443458e-07
24702000000,617,24702000000,,2.00145885595e-05,8.21109350535e-06,-2.00145885722e-05,-8.21109351804e-06
24734000000,618,24734000000,,2.36218420548e-05,1.75654006383e-05,-2.36218420675e-05,-1.7565400651e-05
24763000000,619,24763000000,,2.46150799955e-05,2.14793207497e-05,-2.46150800082e-05,-2.14793207624e-05
24811000000,620,24811000000,,2.4082412427e-05,2.52755090303e-05,-2.40824124396e-05,-2.52755090429e-05
24861000000,621,24861000000,,2.36155728334e-05,2.08918570492e-06,-2.36155728461e-05,-2.08918571754e-06
24899000000,622,24899000000,,2.70454387934e-05,-2.10117959143e-06,-2.70454388061e-05,2.10117957883e-06
24936000000,623,24936000000,,3.10882120149e-05,7.71400119955e-07,-3.10882120275e-05,-7.7140013253e-07
24974000000,624,24974000000,,3.46254329565e-05,5.49536930837e-06,-3.46254329691e-05,-5.49536932092e-06
25017000000,625,25017000000,,3.73877807307e-05,1.0623148092e-05,-3.73877807433e-05,-1.06231481045e-05
25059000000,626,25059000000,,3.92525936809e-05,1.6309215946e-05,-3.92525936934e-05,-1.63092159585e-05
25101000000,627,25101000000,,1.98323115285e-05,4.14778046391e-05,-1.98323115411e-05,-4.14778046516e-05
25181000000,628,25181000000,,5.64009562877e-06,5.72088168243e-05,-5.64009564126e-06,-5.72088168368e-05
25197000000,629,25197000000,,-8.06737096521e-06,6.76415045546e-05,8.06737095273e-06,-6.76415045671e-05
25210000000,630,25210000000,,-1.79265460383e-05,7.56822666865e-05,1.79265460259e-05,-7.5682266699e-05
25276000000,631,25276000000,,-1.92844550605e-05,7.78982455636e-05,1.92844550481e-05,-7.78982455761e-05
25305000000,632,25305000000,,4.91665049046e-06,7.40705368419e-05,-4.91665050287e-06,-7.40705368543e-05
