%time,field.header.seq,field.header.stamp,field.header.frame_id,field.angular_velocities0,field.angular_velocities1,field.angular_velocities2,field.angular_velocities3
1640000000,15,1640000000,,383.828968165,383.828871773,383.828994304,383.82887197
1720000000,16,1720000000,,377.065097002,377.064996281,377.065120501,377.065002496
1800000000,17,1800000000,,400.353776103,400.353670061,400.353795848,400.353683166
1920000000,18,1920000000,,423.365217983,423.365102729,423.365230312,423.365126841
2040000000,19,2040000000,,429.530148883,429.530024006,429.530152272,429.530058424
2120000000,20,2120000000,,434.147911729,434.147778,434.147902868,434.147817871
2202000000,21,2202000000,,404.46552615,404.465383667,404.465505059,404.465428817
2322000000,22,2322000000,,450.957904537,450.957765632,450.957872405,450.957792587
2440000000,23,2440000000,,411.964638592,411.964500736,411.964597171,411.964516306
2520000000,24,2520000000,,416.526719655,416.526588185,416.526673949,416.526586698
2643000000,25,2643000000,,411.574702391,411.574589549,411.574655902,411.574550024
2720000000,26,2720000000,,423.677701299,423.677606255,423.677658676,423.677534998
2803000000,27,2803000000,,425.223488381,425.223415209,425.22345391,425.223308359
2920000000,28,2920000000,,432.468487815,432.468455084,432.468476522,432.46829053
3040000000,29,3040000000,,427.254479662,427.254484511,427.254498554,427.254274984
3120000000,30,3120000000,,437.219276856,437.226512573,437.219347201,437.226335757
3201000000,31,3201000000,,424.887717329,424.890912616,424.887821884,424.890788917
3320000000,32,3320000000,,426.738047886,426.74157004,426.738150587,426.741503942
3401000000,33,3401000000,,424.99510787,424.998571711,424.995201079,424.998533975
3520000000,34,3520000000,,427.451722844,427.455297124,427.451797005,427.455298483
3640000000,35,3640000000,,427.222201201,427.21573159,427.222299225,427.21573225
3720000000,36,3720000000,,435.943032103,435.943062069,435.943138246,435.943080768
3840000000,37,3840000000,,430.606539394,430.606538324,430.606625242,430.606598807
3920000000,38,3920000000,,433.798886017,433.809020831,433.798893327,433.80908134
4041000000,39,4041000000,,434.114090023,434.116947857,434.114016806,434.116981752
4120000000,40,4120000000,,430.658702041,430.661164848,430.658618313,430.661184968
4240000000,41,4240000000,,433.301730496,433.304187624,433.30165963,433.304184952
4320000000,42,4320000000,,431.947450968,431.949996559,431.947388864,431.949983753
4441000000,43,4441000000,,423.023690368,423.02634182,423.023646987,423.026316564
4520000000,44,4520000000,,436.765603703,436.760423343,436.765571328,436.760392657
4640000000,45,4640000000,,417.249733898,417.249802947,417.249643442,417.249782587
4722000000,46,4722000000,,434.42905869,434.436454727,434.428978879,434.436421556
4840000000,47,4840000000,,444.725435555,444.7282569,444.725507588,444.72821036
4921000000,48,4921000000,,433.996301184,433.99153313,433.996390168,433.991487319
5000000000,49,5000000000,,426.680185845,426.680383739,426.680241612,426.680316623
5121000000,50,5121000000,,418.205115097,418.205334946,418.205209273,418.205262337
5241000000,51,5241000000,,436.629839087,436.630070654,436.62996407,436.630005419
5329000000,52,5329000000,,443.665520931,443.671911657,443.665589685,443.671942279
5400000000,53,5400000000,,433.122035755,433.124423957,433.122073637,433.124496584
5524000000,54,5524000000,,438.406995778,438.40880833,438.407014443,438.408892102
5601000000,55,5601000000,,430.286023848,430.282287516,430.286096033,430.282363792
5720000000,56,5720000000,,434.212805,434.212960801,434.21286091,434.213060407
5840000000,57,5840000000,,435.626770231,435.632136598,435.62673133,435.632153592
5920000000,58,5920000000,,423.0781622,423.079707323,423.078104508,423.079692578
6040000000,59,6040000000,,434.231340052,434.228365628,434.231280594,434.22839384
6120000000,60,6120000000,,421.549442815,421.54958825,421.549365653,421.54962014
6240000000,61,6240000000,,440.67447186,440.674624725,440.674378573,440.674625632
6320000000,62,6320000000,,438.208645078,438.208968872,438.208604919,438.20893272
6440000000,63,6440000000,,439.511832859,439.511714806,439.511872652,439.511642625
6520000000,64,6520000000,,431.062001955,431.062430888,431.062002716,431.062350757
6640000000,65,6640000000,,428.925147737,428.925403224,428.92515653,428.925300308
6722000000,66,6722000000,,431.190083713,431.190352118,431.190113552,431.190244412
6840000000,67,6840000000,,426.75158635,426.749967541,426.75167018,426.749976139
6922000000,68,6922000000,,425.648307435,425.647589177,425.648395086,425.647631081
7040000000,69,7040000000,,452.746769365,452.748432218,452.746881779,452.748439161
7120000000,70,7120000000,,431.939347875,431.941354697,431.93943138,431.941382413
7240000000,71,7240000000,,426.144819908,426.151095258,426.144744526,426.151178241
7322000000,72,7322000000,,434.952470935,434.957788236,434.952367417,434.957873397
7440000000,73,7440000000,,427.226042298,427.219397311,427.225971313,427.219500349
7520000000,74,7520000000,,442.522519613,442.522655498,442.522445487,442.522777029
7640000000,75,7640000000,,428.933271287,428.946640006,428.933192583,428.946656362
7721000000,76,7721000000,,424.364778272,424.369947655,424.364712033,424.369901436
7800000000,77,7800000000,,429.901022549,429.906040496,429.900965341,429.905970749
7921000000,78,7921000000,,426.777107851,426.768314774,426.77702818,426.768261842
8040000000,79,8040000000,,435.028949051,435.029265809,435.028858948,435.029189454
8122000000,80,8122000000,,435.554630235,435.554964743,435.554551366,435.554864131
8241000000,81,8241000000,,433.231553904,433.246700215,433.23159407,433.246625032
8320000000,82,8320000000,,430.273963997,430.279007262,430.274027692,430.278949763
8440000000,83,8440000000,,430.50643208,430.497378263,430.506487905,430.497274264
8520000000,84,8520000000,,433.737095866,433.751180586,433.737171123,433.751081639
8640000000,85,8640000000,,425.310588958,425.315931292,425.310637862,425.315965385
8720000000,86,8720000000,,436.159899393,436.164714893,436.159937005,436.164780864
8840000000,87,8840000000,,437.133609151,437.125318667,437.133688541,437.125374387
8921000000,88,8921000000,,438.708920116,438.709397621,438.70899918,438.709477064
9041000000,89,9041000000,,423.857200446,423.857652914,423.857261956,423.857764881
9120000000,90,9120000000,,425.190001602,425.201043341,425.189964141,425.201118826
9240000000,91,9240000000,,422.620881237,422.624071821,422.620798433,422.624104977
9320000000,92,9320000000,,440.385843788,440.38892471,440.385761261,440.388928609
9442000000,93,9442000000,,438.289883493,438.29312015,438.289793498,438.293086258
9521000000,94,9521000000,,419.888164093,419.882695668,419.888051513,419.882688824
9644000000,95,9644000000,,433.874777178,433.875286375,433.874645982,433.875266782
9724000000,96,9724000000,,440.997762871,441.00668022,440.997687782,441.006615041
9801000000,97,9801000000,,431.570108472,431.574084423,431.57011242,431.573982156
9920000000,98,9920000000,,437.188223146,437.183063825,437.188259255,437.182955745
10000000000,99,10000000000,,428.123487404,428.124151177,428.123476125,428.124017682
10120000000,100,10120000000,,439.318571321,439.32588018,439.318604451,439.325784304
10240000000,101,10240000000,,417.039153976,417.042153253,417.039213933,417.042141843
10320000000,102,10320000000,,436.308859846,436.311450133,436.308918712,436.311467988
10440000000,103,10440000000,,438.789602488,438.785996816,438.789683351,438.785994425
10520000000,104,10520000000,,423.984195764,423.9848889,423.98429208,423.984892668
10647000000,105,10647000000,,431.699195264,431.699871322,431.699299696,431.699917367
10720000000,106,10720000000,,431.643308186,431.649752861,431.643344057,431.649825341
10840000000,107,10840000000,,434.374117674,434.3769653,434.374061195,434.377041721
10921000000,108,10921000000,,439.090577429,439.092355315,439.090501413,439.092411997
11041000000,109,11041000000,,438.885965966,438.887944111,438.885884661,438.887959074
11121000000,110,11121000000,,424.553369358,424.555112055,424.553296048,424.555109396
11240000000,111,11240000000,,425.945609968,425.947515733,425.945555261,425.947488836
11324000000,112,11324000000,,431.914669184,431.912634663,431.914584709,431.91263422
11400000000,113,11400000000,,445.177182747,445.177848399,445.177083985,445.177846077
11520000000,114,11520000000,,426.236441694,426.241110782,426.236400684,426.241059654
11602000000,115,11602000000,,431.594567198,431.596550747,431.594585893,431.596468715
11720000000,116,11720000000,,422.911106799,422.909290822,422.911096248,422.909195333
11840000000,117,11840000000,,433.570476288,433.571279374,433.570499429,433.571159161
11920000000,118,11920000000,,441.818599268,441.819420058,441.818645712,441.819287742
12002000000,119,12002000000,,430.581140604,430.585376515,430.581214827,430.585298673
12120000000,120,12120000000,,428.323341144,428.326080231,428.323424263,428.326112286
12201000000,121,12201000000,,431.754387057,431.756581329,431.75446111,431.756634169
12322000000,122,12322000000,,434.295728293,434.293701407,434.295826651,434.293737792
12440000000,123,12440000000,,426.366041179,426.366825225,426.366148295,426.366880234
12522000000,124,12522000000,,437.196449603,437.201563432,437.196451856,437.201609794
12640000000,125,12640000000,,435.417337689,435.419132389,435.417283563,435.41915828
12725000000,126,12725000000,,433.30161226,433.299705878,433.301550598,433.299717462
12844000000,127,12844000000,,423.25640772,423.257127341,423.256354177,423.257186947
12920000000,128,12920000000,,430.18728686,430.191174221,430.187214367,430.191223019
13040000000,129,13040000000,,432.567311865,432.569491586,432.567264431,432.569406051
13120000000,130,13120000000,,438.061504544,438.063346604,438.061465854,438.063232113
13240000000,131,13240000000,,432.368857084,432.367487465,432.368770723,432.367389965
13320000000,132,13320000000,,424.552205462,424.553024661,424.552126015,424.552903521
13440000000,133,13440000000,,438.430714988,438.434809931,438.430739987,438.434707273
13520000000,134,13520000000,,427.892871123,427.894300662,427.892933255,427.894222299
13601000000,135,13601000000,,429.165078392,429.166382053,429.165156688,429.166332426
13721000000,136,13721000000,,433.905918824,433.907292671,433.905998193,433.907279963
13840000000,137,13840000000,,433.109197128,433.108758769,433.109286615,433.10872405
13920000000,138,13920000000,,435.928782458,435.929673616,435.928887456,435.929637664
14040000000,139,14040000000,,439.247677307,439.250360715,439.247730625,439.250384574
14120000000,140,14120000000,,427.580276026,427.581958719,427.580271416,427.582020559
14242000000,141,14242000000,,438.77288731,438.77227051,438.77290149,438.772347998
14320000000,142,14320000000,,416.838348769,416.839136243,416.838361147,416.839232708
14440000000,143,14440000000,,434.104144316,434.105771406,434.10410855,434.105833501
14520000000,144,14520000000,,446.968601734,446.969862315,446.968537715,446.96986321
14640000000,145,14640000000,,431.278382315,431.279122872,431.278313508,431.279077926
14720000000,146,14720000000,,421.400227208,421.400653702,421.400166075,421.400592899
14841000000,147,14841000000,,437.294237849,437.295042631,437.294149792,437.295015144
14920000000,148,14920000000,,433.782035248,433.782880365,433.782001323,433.782798331
15041000000,149,15041000000,,432.966474995,432.968491866,432.966510868,432.968359488
15123000000,150,15123000000,,428.346909338,428.347080609,428.346911645,428.34694297
15240000000,151,15240000000,,434.265207926,434.266133587,434.265223025,434.265972345
15320000000,152,15320000000,,438.977304553,438.979787561,438.977339263,438.979618828
15440000000,153,15440000000,,431.39720492,431.398902311,431.39728048,431.398871597
15521000000,154,15521000000,,428.334051711,428.335562023,428.334127542,428.335577372
15641000000,155,15641000000,,436.56766658,436.56904244,436.567730487,436.569079843
15720000000,156,15720000000,,434.979346255,434.979086946,434.979450372,434.979092031
15840000000,157,15840000000,,422.74022839,422.741114889,422.740333418,422.741152837
15920000000,158,15920000000,,433.900501757,433.903310507,433.900537433,433.903361155
16040000000,159,16040000000,,421.340449244,421.341601081,421.340399698,421.341640309
16127000000,160,16127000000,,446.878169382,446.87897159,446.878107244,446.878996901
16240000000,161,16240000000,,433.918680544,433.918765294,433.918630438,433.918836757
16320000000,162,16320000000,,429.300727469,429.30171226,429.300673635,429.301729575
16400000000,163,16400000000,,425.556018775,425.557326838,425.555975476,425.557278901
16521000000,164,16521000000,,436.001547632,436.00246258,436.001519872,436.002369827
16600000000,165,16600000000,,426.443432057,426.444050619,426.443373016,426.443979014
16720000000,166,16720000000,,428.472998794,428.47387739,428.472930184,428.4737831
16802000000,167,16802000000,,434.677873484,434.678766298,434.677813448,434.678652146
16922000000,168,16922000000,,440.618502389,440.619067307,440.618549461,440.618977383
17040000000,169,17040000000,,436.586466219,436.586575316,436.586562935,436.586524493
17120000000,170,17120000000,,424.86696303,424.866896366,424.867060922,424.866867299
17240000000,171,17240000000,,428.941780984,428.943870682,428.941897453,428.943779048
17322000000,172,17322000000,,432.585719585,432.583061841,432.585849176,432.582995545
17441000000,173,17441000000,,429.10894273,429.108495079,429.108993875,429.108553299
17520000000,174,17520000000,,436.191689712,436.191201345,436.191715404,436.191285855
17641000000,175,17641000000,,437.372908976,437.376294457,437.372995711,437.376371626
17720000000,176,17720000000,,432.341710836,432.342526197,432.341776365,432.34262958
17840000000,177,17840000000,,416.924083319,416.920026605,416.924067389,416.920065506
17920000000,178,17920000000,,439.271826536,439.270669057,439.271782306,439.27066574
18001000000,179,18001000000,,440.622297447,440.619832455,440.622259013,440.619802548
18120000000,180,18120000000,,426.542534293,426.539866691,426.54251807,426.539809008
18200000000,181,18200000000,,429.743673397,429.749737229,429.74361108,429.749722152
18321000000,182,18321000000,,432.862329667,432.863094156,432.862256607,432.863050144
18441000000,183,18441000000,,432.443406619,432.444192631,432.443340667,432.444112679
18520000000,184,18520000000,,421.879647763,421.873604596,421.879680685,421.873493978
18642000000,185,18642000000,,440.950279164,440.955754413,440.950310078,440.955620273
18720000000,186,18720000000,,432.543906786,432.544763735,432.543940648,432.544609618
18842000000,187,18842000000,,433.888884429,433.881770951,433.888962521,433.881699743
18932000000,188,18932000000,,434.33050653,434.328588296,434.330589218,434.328567077
19040000000,189,19040000000,,430.355963472,430.354209594,430.356034442,430.354228381
19121000000,190,19121000000,,429.176252354,429.18207134,429.176313982,429.182101736
19240000000,191,19240000000,,440.65629279,440.65705325,440.656401575,440.657062388
19320000000,192,19320000000,,424.979155721,424.979900728,424.97925682,424.979933079
19400000000,193,19400000000,,441.011905328,441.005570999,441.011939032,441.005600543
19520000000,194,19520000000,,432.674001103,432.67342838,432.673941191,432.673427684
19641000000,195,19641000000,,427.392466588,427.397047998,427.392423885,427.397077113
19720000000,196,19720000000,,423.616243216,423.616877111,423.616187408,423.616918337
19841000000,197,19841000000,,424.269922126,424.265331444,424.269868483,424.265304523
19920000000,198,19920000000,,442.55485963,442.554285627,442.554828791,442.554193764
20040000000,199,20040000000,,438.787429491,438.78673387,438.787416691,438.786607432
20120000000,200,20120000000,,431.115831457,431.11961801,431.115760753,431.119516602
20200000000,201,20200000000,,428.2161352,428.216819631,428.216074144,428.216688973
20320000000,202,20320000000,,422.345580404,422.341500146,422.345539913,422.341345593
20443000000,203,20443000000,,436.140434082,436.140003217,436.140495343,436.139934288
20520000000,204,20520000000,,440.348960577,440.348133244,440.34903736,440.348096294
20640000000,205,20640000000,,432.244123927,432.247853076,432.244195945,432.247847256
20720000000,206,20720000000,,439.230841202,439.231533239,439.230934943,439.23148138
20840000000,207,20840000000,,421.513745549,421.51443106,421.51385373,421.514406692
20921000000,208,20921000000,,424.821788324,424.818788215,424.821844174,424.818807572
21003000000,209,21003000000,,439.005951883,439.005580812,439.005940152,439.005636091
21120000000,210,21120000000,,435.659034723,435.661945797,435.659048524,435.662014313
21243000000,211,21243000000,,427.829305128,427.82986344,427.829308684,427.8299562
21320000000,212,21320000000,,428.030088121,428.026187068,428.030055149,428.026227734
21441000000,213,21441000000,,418.480385415,418.479501927,418.480324611,418.479450827
21521000000,214,21521000000,,436.768022174,436.766735164,436.767968554,436.766658815
21640000000,215,21640000000,,438.407588136,438.411348008,438.407520185,438.411289842
21720000000,216,21720000000,,443.108286478,443.108849255,443.108203302,443.108785141
21841000000,217,21841000000,,427.759418132,427.760005031,427.759340413,427.759898129
21920000000,218,21920000000,,422.282423026,422.278829717,422.282453972,422.278707007
22042000000,219,22042000000,,423.231680088,423.231151285,423.231762525,423.231040769
22121000000,220,22121000000,,431.418377716,431.421697152,431.418435064,431.421558734
22242000000,221,22242000000,,446.529578512,446.530247873,446.529657056,446.530095713
22320000000,222,22320000000,,430.360067242,430.356461571,430.360140231,430.356430375
22440000000,223,22440000000,,437.650923941,437.650255951,437.650987073,437.65027774
22520000000,224,22520000000,,437.24460501,437.243867515,437.244658608,437.243903378
22640000000,225,22640000000,,431.565088099,431.568279135,431.565188131,431.568297513
22720000000,226,22720000000,,415.587818609,415.58837314,415.587913287,415.588413852
22849000000,227,22849000000,,433.91756293,433.914184463,433.917581661,433.914228542
22920000000,228,22920000000,,435.625495504,435.624853865,435.625445723,435.624871278
23042000000,229,23042000000,,448.355641399,448.354303565,448.355565825,448.354293819
23120000000,230,23120000000,,434.345129894,434.348420728,434.345059317,434.348443425
23202000000,231,23202000000,,427.79756864,427.798011108,427.797481627,427.798041494
23320000000,232,23320000000,,423.44604753,423.442265264,423.44600344,423.442195619
23401000000,233,23401000000,,438.658609492,438.657865292,438.658594827,438.657750507
23520000000,234,23520000000,,443.792786899,443.796099288,443.792740875,443.79598874
23640000000,235,23640000000,,418.414665403,418.415191279,418.414616048,418.415054779
23721000000,236,23721000000,,429.785178353,429.779981222,429.78520028,429.779861132
23840000000,237,23840000000,,427.851467397,427.84868069,427.851569969,427.848608961
23920000000,238,23920000000,,426.957158996,426.953691893,426.957270358,426.953642941
24040000000,239,24040000000,,431.301748584,431.308124205,431.301859938,431.308019271
24120000000,240,24120000000,,436.228032487,436.228572667,436.228161845,436.228490088
24240000000,241,24240000000,,431.106199101,431.096658799,431.106264132,431.096687364
24320000000,242,24320000000,,438.665468623,438.662204749,438.665515908,438.6622545
24440000000,243,24440000000,,434.457921858,434.465204565,434.458023575,434.465251035
24522000000,244,24522000000,,426.01170582,426.012102545,426.011790632,426.012172242
24600000000,245,24600000000,,428.128931809,428.118660317,428.12895944,428.118704321
24722000000,246,24722000000,,430.71849,430.71504496,430.718449971,430.715028538
24840000000,247,24840000000,,436.913885665,436.91048361,436.9138375,436.910433059
24920000000,248,24920000000,,432.825836116,432.833431144,432.825782025,432.833435346
25040000000,249,25040000000,,424.794181732,424.794472023,424.794106956,424.794450777
25122000000,250,25122000000,,424.713728126,424.703435134,424.713688461,424.703352178
25200000000,251,25200000000,,446.463161617,446.460505897,446.463177752,446.460370614
25320000000,252,25320000000,,443.419669185,443.426725839,443.419659352,443.426577698
25440000000,253,25440000000,,414.134367323,414.134723197,414.134358024,414.134544341
25520000000,254,25520000000,,429.838407648,429.827940433,429.838445206,429.827800006
25641000000,255,25641000000,,424.138630456,424.135464588,424.138711005,424.135409331
25722000000,256,25722000000,,421.221863542,421.21862007,421.221948614,421.21859592
25840000000,257,25840000000,,432.118837467,432.115654946,432.118914766,432.115661108
25920000000,258,25920000000,,439.421141296,439.428367162,439.42124868,439.428331689
26040000000,259,26040000000,,438.577726654,438.577961116,438.577839944,438.577958617
26120000000,260,26120000000,,438.005990819,438.006209712,438.006098779,438.00623302
26200000000,261,26200000000,,428.864565975,428.855111017,428.864575944,428.85516416
26320000000,262,26320000000,,427.047776285,427.053506296,427.047788983,427.053584265
26440000000,263,26440000000,,439.112279551,439.112380994,439.112274127,439.112483202
26520000000,264,26520000000,,428.05875266,428.048756832,428.058704423,428.048759228
26641000000,265,26641000000,,430.139955852,430.13648085,430.13989821,430.136413983
26721000000,266,26721000000,,429.520857959,429.517780674,429.520807248,429.517692611
26840000000,267,26840000000,,442.746814484,442.753654845,442.746728421,442.75359711
26920000000,268,26920000000,,434.728122651,434.728204903,434.728032649,434.728125875
27040000000,269,27040000000,,439.199529212,439.190480789,439.19954942,439.190375493
27120000000,270,27120000000,,421.537868224,421.534801193,421.537932564,421.534697804
27205000000,271,27205000000,,418.347137737,418.343786005,418.34721658,418.343691226
27322000000,272,27322000000,,434.622073654,434.628852863,434.622128562,434.628708089
27440000000,273,27440000000,,445.478923335,445.469011131,445.479003753,445.468965275
27520000000,274,27520000000,,447.261890772,447.258768812,447.261974078,447.258771522
27640000000,275,27640000000,,440.179282,440.176031725,440.17935483,440.17606075
27720000000,276,27720000000,,420.761178166,420.767663532,420.76129188,420.767661904
27800000000,277,27800000000,,423.9294427,423.929451549,423.929559955,423.92947007
27920000000,278,27920000000,,419.073134035,419.063823419,419.073184328,419.063860183
28042000000,279,28042000000,,439.901262155,439.8978741,439.901238748,439.89789725
28120000000,280,28120000000,,438.6509704,438.65716747,438.650934076,438.657177541
28243000000,281,28243000000,,437.405085488,437.404962302,437.405061719,437.405020717
28321000000,282,28321000000,,442.658485652,442.64860376,442.658451199,442.648597847
28440000000,283,28440000000,,426.907506421,426.904307066,426.907477117,426.904215636
28520000000,284,28520000000,,428.353320592,428.359912708,428.353298722,428.359801388
28641000000,285,28641000000,,420.138573779,420.138461924,420.138509993,420.138369851
28720000000,286,28720000000,,434.791800013,434.791700836,434.791738586,434.791585758
28801000000,287,28801000000,,428.083021072,428.073532008,428.08302119,428.073412247
28920000000,288,28920000000,,438.951763469,438.948310028,438.951832827,438.948211147
29040000000,289,29040000000,,426.03514555,426.04150182,426.035206909,426.041363783
29120000000,290,29120000000,,435.828748019,435.82869062,435.828819577,435.828540359
29240000000,291,29240000000,,439.793363118,439.786577678,439.793442548,439.786496321
29320000000,292,29320000000,,434.202162948,434.20087548,434.20222993,434.200861816
29442000000,293,29442000000,,421.78105206,421.779540618,421.781105549,421.77956616
29520000000,294,29520000000,,427.49183083,427.495060681,427.491924527,427.49506333
29640000000,295,29640000000,,432.11713459,432.116953346,432.117224004,432.116991265
29721000000,296,29721000000,,432.142324836,432.142128865,432.142404571,432.142186558
29841000000,297,29841000000,,431.81713692,431.812394558,431.817117512,431.812409835
29920000000,298,29920000000,,437.598957608,437.596800517,437.59890946,437.596785766
30040000000,299,30040000000,,429.840836285,429.838690548,429.840785316,429.838646065
30120000000,300,30120000000,,429.538451472,429.54171377,429.538387091,429.541720338
30242000000,301,30242000000,,428.197579308,428.192106064,428.197535343,428.192051028
30322000000,302,30322000000,,442.16842382,442.166926808,442.168422272,442.166815786
30440000000,303,30440000000,,425.287784583,425.285960621,425.287805891,425.285825324
30520000000,304,30520000000,,436.688835988,436.691839298,436.688810328,436.691704853
30640000000,305,30640000000,,423.575253126,423.575060434,423.575251792,423.574900307
30720000000,306,30720000000,,437.053999919,437.047497352,437.054074069,437.047398818
30840000000,307,30840000000,,421.55040797,421.547256664,421.550515419,421.547201078
30920000000,308,30920000000,,432.77654021,432.77434102,432.776633027,432.774306244
31040000000,309,31040000000,,435.895400484,435.899646452,435.895515066,435.899561952
31121000000,310,31121000000,,426.194595441,426.18917274,426.194672683,426.189145785
31240000000,311,31240000000,,436.448114963,436.446536418,436.4481398,436.44656706
31322000000,312,31322000000,,435.529319654,435.532094609,435.529377541,435.532122978
31440000000,313,31440000000,,427.837763211,427.837425571,427.837819686,427.837480144
31520000000,314,31520000000,,433.922234921,433.921884272,433.922275533,433.921948997
31650000000,315,31650000000,,437.750416456,437.746045379,437.750385128,437.746017527
31723000000,316,31723000000,,432.485860557,432.483923695,432.48582105,432.483864242
31840000000,317,31840000000,,424.787631708,424.790673946,424.787582481,424.79063974
31920000000,318,31920000000,,432.115082204,432.114707217,432.115017905,432.114675695
32040000000,319,32040000000,,423.850539348,423.850179262,423.850470775,423.850113661
32120000000,320,32120000000,,433.292974442,433.288711378,433.2929798,433.288591788
32240000000,321,32240000000,,446.146157827,446.143876944,446.146224588,446.143738675
32320000000,322,32320000000,,430.555967591,430.558772171,430.555987824,430.5586204
32440000000,323,32440000000,,429.919614391,429.912228306,429.91968444,429.912111265
32520000000,324,32520000000,,434.501579621,434.498278477,434.501676174,434.498223704
32600000000,325,32600000000,,416.932836326,416.929437428,416.932936538,416.92941952
32720000000,326,32720000000,,432.477475298,432.474080921,432.477583073,432.474106126
32840000000,327,32840000000,,437.088021359,437.093138108,437.088153044,437.093136708
32920000000,328,32920000000,,426.662393659,426.662003757,426.662529596,426.662022086
33042000000,329,33042000000,,455.187674137,455.181582944,455.187711534,455.181633823
33120000000,330,33120000000,,423.056041895,423.054088005,423.05602597,423.054136351
33240000000,331,33240000000,,441.202990092,441.205986858,441.202997865,441.206058908
33320000000,332,33320000000,,430.058461464,430.052829816,430.058461775,430.05290953
33440000000,333,33440000000,,428.634991997,428.634594279,428.634967683,428.634540666
33520000000,334,33520000000,,432.502407374,432.501479417,432.50238464,432.501388181
33640000000,335,33640000000,,434.190576441,434.191959345,434.19053285,434.191887654
33720000000,336,33720000000,,431.298650402,431.298157853,431.29859018,431.298082894
33840000000,337,33840000000,,438.252200881,438.251729332,438.252143501,438.251615215
33921000000,338,33921000000,,428.613300944,428.611162372,428.613306651,428.61103603
34000000000,339,34000000000,,431.865013524,431.864291454,431.865082266,431.864171101
34120000000,340,34120000000,,435.785630457,435.786136488,435.785722413,435.78603577
34240000000,341,34240000000,,429.499981341,429.499593744,429.500062975,429.499436761
34320000000,342,34320000000,,429.958407145,429.955941412,429.958491022,429.955883193
34440000000,343,34440000000,,426.11013178,426.108947597,426.110208253,426.108951752
34520000000,344,34520000000,,448.812076393,448.812952958,448.812145024,448.812976113
34640000000,345,34640000000,,421.160282728,421.159819132,421.160392752,421.159824313
34722000000,346,34722000000,,425.282849811,425.282379172,425.28296923,425.282407832
34845000000,347,34845000000,,436.583549544,436.583057767,436.583656691,436.583116427
34921000000,348,34921000000,,430.286291066,430.278737231,430.286382692,430.278813346
35040000000,349,35040000000,,435.789807684,435.786253148,435.789785422,435.786242957
35120000000,350,35120000000,,430.645176592,430.641312149,430.645135619,430.641272171
35240000000,351,35240000000,,440.598797133,440.603783651,440.598749553,440.603767434
35320000000,352,35320000000,,438.340001981,438.339410016,438.33993718,438.339393901
35440000000,353,35440000000,,429.333283313,429.323780165,429.333250117,429.323701466
35520000000,354,35520000000,,434.435257504,434.432618045,434.43526543,434.432498625
35640000000,355,35640000000,,422.293744658,422.298462964,422.29372745,422.298329979
35720000000,356,35720000000,,427.398469471,427.400338063,427.39966859,427.400211388
35844000000,357,35844000000,,429.960604973,429.963342523,429.964103755,429.963247335
35920000000,358,35920000000,,440.39191369,440.389934917,440.396522214,440.389862682
36040000000,359,36040000000,,439.937201442,439.938501081,439.942153729,439.938451941
36120000000,360,36120000000,,425.412122948,425.420986475,425.416543354,425.420949694
36242000000,361,36242000000,,431.451059751,431.461547192,431.453985246,431.461523624
36320000000,362,36320000000,,424.523705465,424.536024312,424.525138824,424.536004974
36401000000,363,36401000000,,434.577697324,434.584437318,434.57743653,434.584419432
36520000000,364,36520000000,,435.303475984,435.303203467,435.300268915,435.303183171
36600000000,365,36600000000,,441.591104638,441.587739258,441.585879644,441.587714366
36721000000,366,36721000000,,431.247746803,431.237564533,431.239306121,431.237526099
36841000000,367,36841000000,,431.337685384,431.325898342,431.326075459,431.325846281
36920000000,368,36920000000,,425.009205175,424.996132225,424.995480479,424.996070159
37040000000,369,37040000000,,439.978103107,439.96609782,439.961339704,439.966020122
37120000000,370,37120000000,,438.20788582,438.196439681,438.189167989,438.196352145
37240000000,371,37240000000,,432.36298726,432.352219133,432.341485871,432.352121099
37320000000,372,37320000000,,436.235996136,436.226354337,436.212726246,436.226242666
37440000000,373,37440000000,,428.39158196,428.379774929,428.365783697,428.379650016
37520000000,374,37520000000,,446.689717975,446.676820181,446.662318949,446.676688817
37640000000,375,37640000000,,418.90354429,418.889693956,418.873865866,418.889555036
37720000000,376,37720000000,,429.812087797,429.795957666,429.780938985,429.79581417
37842000000,377,37842000000,,429.048516777,429.030965746,429.015202018,429.030816181
37920000000,378,37920000000,,437.184902255,437.166880587,437.150190465,437.166726468
38040000000,379,38040000000,,427.195605348,427.176078042,427.158816737,427.175915946
38120000000,380,38120000000,,432.065433036,432.045432127,432.027232138,432.04526459
38240000000,381,38240000000,,435.880069726,435.859822179,435.839740975,435.859645332
38320000000,382,38320000000,,431.516724914,431.495093782,431.473760574,431.494905926
38440000000,383,38440000000,,436.217089303,436.193052542,436.169758661,436.192854266
38522000000,384,38522000000,,431.343554217,431.317786582,431.29376075,431.317578729
38640000000,385,38640000000,,432.527257936,432.507804063,432.474856052,432.507589044
38720000000,386,38720000000,,443.169347087,443.15202368,443.115862857,443.151800918
38802000000,387,38802000000,,431.228355765,431.210761437,431.174267826,431.210529884
38920000000,388,38920000000,,421.036452744,421.021456247,420.982196872,421.021213097
39040000000,389,39040000000,,416.236132439,416.216561539,416.182149148,416.216308588
39121000000,390,39121000000,,445.223814402,445.204729528,445.170255437,445.204470781
39240000000,391,39240000000,,432.4662425,432.449548339,432.413466954,432.449280463
39322000000,392,39322000000,,441.356125292,441.338459509,441.303869238,441.338186204
39440000000,393,39440000000,,433.756265786,433.738034427,433.70478695,433.7377552
39520000000,394,39520000000,,427.920275884,427.902755219,427.869356026,427.902472255
39600000000,395,39600000000,,416.938359781,416.915965224,416.886788412,416.91567898
39721000000,396,39721000000,,435.337795322,435.314213195,435.284692253,435.313922485
39840000000,397,39840000000,,443.775785205,443.760856729,443.722073323,443.760561256
39920000000,398,39920000000,,426.439676842,426.425355042,426.386172922,426.425057054
40040000000,399,40040000000,,431.440641265,431.426019555,431.388307817,431.42573704
40120000000,400,40120000000,,440.412494917,440.396878629,440.361413631,440.396601579
40240000000,401,40240000000,,431.813267714,431.798515449,431.764444439,431.798239526
40320000000,402,40320000000,,429.012321415,428.997438447,428.965286413,428.997160052
40400000000,403,40400000000,,427.167910076,427.156368638,427.122794169,427.15608718
40520000000,404,40520000000,,435.921335579,435.912052752,435.879287974,435.911767983
40640000000,405,40640000000,,434.167988486,434.161253397,434.129114017,434.160965385
40722000000,406,40722000000,,438.577621147,438.572434553,438.540816963,438.572145023
40840000000,407,40840000000,,430.843648474,430.840081482,430.809901343,430.839791076
40920000000,408,40920000000,,438.387547543,438.385140704,438.355801782,438.38485053
41040000000,409,41040000000,,433.826279581,433.82536859,433.797393537,433.825080911
41120000000,410,41120000000,,422.828245531,422.82839902,422.801254152,422.828113598
41240000000,411,41240000000,,434.753359072,434.754865617,434.729084545,434.754584844
41320000000,412,41320000000,,436.80185235,436.804248928,436.779338053,436.803972028
41440000000,413,41440000000,,441.871007493,441.874504126,441.85095617,441.874233985
41520000000,414,41520000000,,437.030594179,437.034365307,437.012189805,437.034099592
41640000000,415,41640000000,,426.311772109,426.316513835,426.295775929,426.316255322
41720000000,416,41720000000,,430.345234933,430.349886372,430.330793398,430.34963938
41840000000,417,41840000000,,429.108446292,429.114618914,429.098305492,429.114386932
41920000000,418,41920000000,,440.711188938,440.718645576,440.70398107,440.718419104
42001000000,419,42001000000,,430.06857919,430.07817013,430.063826065,430.077940529
42120000000,420,42120000000,,433.066956293,433.079282594,433.064880756,433.079048345
42240000000,421,42240000000,,428.232571908,428.246399429,428.231851928,428.246166635
42321000000,422,42321000000,,433.569713194,433.581070484,433.569416559,433.580836893
42440000000,423,42440000000,,437.92340623,437.934431526,437.923182166,437.934198719
42520000000,424,42520000000,,442.571773261,442.581407004,442.571330473,442.581176782
42640000000,425,42640000000,,426.664633803,426.67426414,426.663809621,426.674038333
42720000000,426,42720000000,,421.187844427,421.197151935,421.186467588,421.196929969
42840000000,427,42840000000,,424.468223277,424.476668849,424.466151316,424.47645175
42920000000,428,42920000000,,440.809467692,440.817855109,440.806935562,440.817640728
43000000000,429,43000000000,,427.90214491,427.910084962,427.899129021,427.909872677
43120000000,430,43120000000,,435.475084494,435.482239332,435.471415179,435.482028943
43242000000,431,43242000000,,419.28539681,419.292088517,419.281249496,419.29187913
43323000000,432,43323000000,,447.179054168,447.185486243,447.174691725,447.185276788
43441000000,433,43441000000,,436.850015957,436.856354884,436.845376646,436.856144728
43521000000,434,43521000000,,443.148416046,443.154639306,443.143824765,443.154427899
43642000000,435,43642000000,,416.039079876,416.045366801,416.034538225,416.045153555
43720000000,436,43720000000,,424.65292086,424.65906643,424.648438891,424.658851981
43840000000,437,43840000000,,417.714190674,417.7203057,417.709887762,417.720089351
43920000000,438,43920000000,,430.28365997,430.289536923,430.279479064,430.289319589
44043000000,439,44043000000,,437.466379189,437.471429971,437.46241259,437.471211549
44120000000,440,44120000000,,441.4345796,441.43927278,441.430753861,441.439053875
44240000000,441,44240000000,,438.818544393,438.823055323,438.814903201,438.822836154
44320000000,442,44320000000,,428.187488142,428.191958236,428.183956749,428.191739086
44440000000,443,44440000000,,425.234481459,425.227884322,425.231119465,425.227662738
44520000000,444,44520000000,,423.900192179,423.911750638,423.896846435,423.911532427
44641000000,445,44641000000,,452.683227948,452.687558782,452.679908068,452.687342635
44720000000,446,44720000000,,428.215747683,428.219804644,428.212434616,428.219589459
44840000000,447,44840000000,,437.32089835,437.324863164,437.317569012,437.324649005
44920000000,448,44920000000,,445.516009065,445.51979951,445.512662059,445.519585698
45040000000,449,45040000000,,426.119024333,426.122696242,426.115647637,426.122482815
45160000000,450,45160000000,,424.169298543,424.17274489,424.165858757,424.172531307
45240000000,451,45240000000,,431.432601602,431.435960867,431.429121226,431.435747241
45320000000,452,45320000000,,433.627887253,433.631057246,433.624369308,433.630843539
45451000000,453,45451000000,,437.483976793,437.486903347,437.480399489,437.486691416
45520000000,454,45520000000,,430.882567471,430.88004798,430.878997511,430.879837107
45640000000,455,45640000000,,434.93359412,434.934879722,434.929937085,434.934669271
45720000000,456,45720000000,,434.251667258,434.252920572,434.247945698,434.252710178
