%time,field.header.seq,field.header.stamp,field.header.frame_id,field.pose.position.x,field.pose.position.y,field.pose.position.z,field.pose.orientation.x,field.pose.orientation.y,field.pose.orientation.z,field.pose.orientation.w
821000000,0,821000000,world,1.92156821017e-06,0.000101069476944,0.831360566001,1.69195907594e-05,1.0882165637e-05,-1.75448598112e-06,0.999999999796
831000000,1,831000000,world,2.03696586368e-06,0.000104439746681,0.845911509645,1.72949190619e-05,1.13192905196e-05,-1.77204626129e-06,0.999999999785
841000000,2,841000000,world,2.15326638013e-06,0.000107805298889,0.860853400967,1.76578680538e-05,1.1738546641e-05,-1.79002667957e-06,0.999999999774
851000000,3,851000000,world,2.39156913357e-06,0.000111043627718,0.876166261695,1.7980903563e-05,1.21559970688e-05,-1.80851221558e-06,0.999999999763
861000000,4,861000000,world,2.64734690996e-06,0.000114247716979,0.891812438668,1.82601080718e-05,1.26100071689e-05,-1.8270977405e-06,0.999999999752
871000000,5,871000000,world,2.90129192509e-06,0.000117446435766,0.907752943072,1.8508263299e-05,1.30443673823e-05,-1.84581971924e-06,0.999999999742
881000000,6,881000000,world,3.15515242958e-06,0.000120637811899,0.92395086897,1.87355888017e-05,1.3459521973e-05,-1.86459708242e-06,0.999999999732
891000000,7,891000000,world,3.41079982593e-06,0.000123819551937,0.940371268697,1.89495850974e-05,1.38601143166e-05,-1.88312987279e-06,0.999999999723
901000000,8,901000000,world,3.67044313441e-06,0.000126989202551,0.956981036548,1.91573691948e-05,1.42421892598e-05,-1.9017877074e-06,0.999999999713
911000000,9,911000000,world,4.07825486221e-06,0.00013001484961,0.973748800238,1.93360367512e-05,1.46176596082e-05,-1.92087513532e-06,0.999999999704
921000000,10,921000000,world,4.48596295752e-06,0.000133029740057,0.990644819491,1.94608151558e-05,1.49955717674e-05,-1.94017995725e-06,0.999999999696
931000000,11,931000000,world,4.89452070999e-06,0.000136032984718,1.00764056446,1.95492448907e-05,1.53847791571e-05,-1.95950252153e-06,0.999999999689
941000000,12,941000000,world,5.30653635572e-06,0.000139023252507,1.02470767008,1.96100764419e-05,1.57472295209e-05,-1.97892527689e-06,0.999999999682
951000000,13,951000000,world,5.82604557732e-06,0.000141917342951,1.04181892305,1.96620088187e-05,1.61013597996e-05,-1.99832948116e-06,0.999999999675
961000000,14,961000000,world,6.38942320135e-06,0.000144766034947,1.05894851331,1.97016446356e-05,1.64429100546e-05,-2.01753007429e-06,0.999999999669
971000000,15,971000000,world,7.02529457194e-06,0.000147556672471,1.07607195316,1.97346613841e-05,1.67709753363e-05,-2.03684676115e-06,0.999999999663
981000000,16,981000000,world,7.72898395965e-06,0.000150291531415,1.09316600151,1.97297996331e-05,1.70824557915e-05,-2.05648097012e-06,0.999999999657
991000000,17,991000000,world,8.4260683414e-06,0.000153019165484,1.11020859304,1.96721441584e-05,1.7382960377e-05,-2.07629906287e-06,0.999999999653
1001000000,18,1001000000,world,9.1169569315e-06,0.000155739212514,1.12717877167,1.95759066709e-05,1.76968951002e-05,-2.09611715006e-06,0.99999999965
1011000000,19,1011000000,world,9.80423680392e-06,0.000158450916523,1.14405662838,1.94514230951e-05,1.79817918054e-05,-2.11599375789e-06,0.999999999647
1021000000,20,1021000000,world,1.05868722767e-05,0.000161101071428,1.16082324277,1.93100804419e-05,1.82522943779e-05,-2.1358943008e-06,0.999999999645
1031000000,21,1031000000,world,1.14048281121e-05,0.000163721921432,1.17746062836,1.91557123888e-05,1.85056193309e-05,-2.15568678085e-06,0.999999999643
1041000000,22,1041000000,world,1.2216592904e-05,0.000166335617751,1.19395168117,1.89855369003e-05,1.87369862159e-05,-2.17538000281e-06,0.999999999642
1051000000,23,1051000000,world,1.3024028082e-05,0.000168940872365,1.21028184964,1.87901956745e-05,1.89434574485e-05,-2.19526840975e-06,0.999999999642
1061000000,24,1061000000,world,1.38570226665e-05,0.00017152498639,1.22644236411,1.85491863903e-05,1.91285610679e-05,-2.2153843382e-06,0.999999999643
1071000000,25,1071000000,world,1.47958051024e-05,0.000174055862948,1.2424257601,1.82627821175e-05,1.93199132364e-05,-2.23559364926e-06,0.999999999644
1081000000,26,1081000000,world,1.57288407665e-05,0.000176577106232,1.2582248982,1.79424167958e-05,1.95130440563e-05,-2.25579388125e-06,0.999999999646
1091000000,27,1091000000,world,1.6658700005e-05,0.000179087996719,1.27383294889,1.75960935908e-05,1.96730414127e-05,-2.27604334299e-06,0.999999999649
1101000000,28,1101000000,world,1.75874706162e-05,0.000181587658723,1.28924337814,1.72292993477e-05,1.98052972198e-05,-2.29630873433e-06,0.999999999653
1111000000,29,1111000000,world,1.85436102785e-05,0.000184069134081,1.30444993373,1.68493300399e-05,1.99158578855e-05,-2.31648360862e-06,0.999999999657
1121000000,30,1121000000,world,1.96036811239e-05,0.000186514082639,1.31944663224,1.64545396474e-05,2.001340952e-05,-2.33655873802e-06,0.999999999662
1131000000,31,1131000000,world,2.06621326461e-05,0.000188946614194,1.3342297529,1.60355306467e-05,2.00844144287e-05,-2.35679734268e-06,0.999999999667
1141000000,32,1141000000,world,2.1720993016e-05,0.0001913652621,1.3488038074,1.55700031606e-05,2.01294337492e-05,-2.37725190611e-06,0.999999999673
1151000000,33,1151000000,world,2.28666675618e-05,0.000193767269493,1.3631751237,1.50522534951e-05,2.01719840246e-05,-2.39781766338e-06,0.99999999968
1161000000,34,1161000000,world,2.40470801219e-05,0.000196153160168,1.37734980583,1.44978913366e-05,2.02232199817e-05,-2.41837726746e-06,0.999999999687
1171000000,35,1171000000,world,2.52276379763e-05,0.000198523553584,1.39133374082,1.39179974843e-05,2.02377472584e-05,-2.43898389705e-06,0.999999999695
1181000000,36,1181000000,world,2.64528064355e-05,0.000200887863884,1.40513260559,1.33167493896e-05,2.02227123138e-05,-2.45962069038e-06,0.999999999704
1191000000,37,1191000000,world,2.77418764987e-05,0.000203249860364,1.41875187365,1.27017468071e-05,2.01830651946e-05,-2.48018752235e-06,0.999999999713
1201000000,38,1201000000,world,2.90308142804e-05,0.000205593967946,1.43219682157,1.20685285682e-05,2.01135235117e-05,-2.50063542896e-06,0.999999999722
1211000000,39,1211000000,world,3.0357747234e-05,0.000207940750432,1.44547253536,1.14099159303e-05,2.00167164733e-05,-2.52124172495e-06,0.999999999731
1221000000,40,1221000000,world,3.173941509e-05,0.000210297993877,1.4585839167,1.0699083676e-05,1.98954776573e-05,-2.54209493927e-06,0.999999999742
1231000000,41,1231000000,world,3.3121004306e-05,0.000212633063896,1.47153568896,9.93137905629e-06,1.97604961271e-05,-2.56309200302e-06,0.999999999752
1241000000,42,1241000000,world,3.45037239939e-05,0.000214946586909,1.48433240317,9.12564776271e-06,1.96301503725e-05,-2.58409437053e-06,0.999999999762
1251000000,43,1251000000,world,3.58906400278e-05,0.000217239481973,1.49697845076,8.29656396201e-06,1.94572042993e-05,-2.60515517602e-06,0.999999999773
1261000000,44,1261000000,world,3.72840193e-05,0.00021951268137,1.50948000956,7.45026487767e-06,1.92434309158e-05,-2.62625674483e-06,0.999999999784
1271000000,45,1271000000,world,3.86862483848e-05,0.000221767321648,1.52184737942,6.59461067651e-06,1.89920898355e-05,-2.64728224869e-06,0.999999999794
1281000000,46,1281000000,world,4.01138590037e-05,0.00022402365121,1.53409108951,5.71984154281e-06,1.87078949613e-05,-2.66819812919e-06,0.999999999805
1291000000,47,1291000000,world,4.1609567737e-05,0.000226337386922,1.54622131734,4.81021074409e-06,1.83953715812e-05,-2.68932026295e-06,0.999999999816
1301000000,48,1301000000,world,4.3176471717e-05,0.000228695172578,1.55824789793,3.83947840167e-06,1.80586661742e-05,-2.71071860189e-06,0.999999999826
1311000000,49,1311000000,world,4.47770015313e-05,0.000231055846887,1.57018033295,2.80656586986e-06,1.77215672121e-05,-2.73225098121e-06,0.999999999835
1321000000,50,1321000000,world,4.63854877494e-05,0.000233392085045,1.5820277998,1.74186891651e-06,1.73782491089e-05,-2.75379908645e-06,0.999999999844
1331000000,51,1331000000,world,4.80039531027e-05,0.00023570571716,1.59379930585,6.58854322631e-07,1.69835887685e-05,-2.77543358594e-06,0.999999999852
1341000000,52,1341000000,world,4.96375504929e-05,0.000238178605354,1.60550434065,-4.52354783114e-07,1.65424010384e-05,-2.79708815889e-06,0.999999999859
1351000000,53,1351000000,world,5.12830394877e-05,0.000240622683246,1.61715233084,-1.56980761755e-06,1.60581727374e-05,-2.8186048505e-06,0.999999999866
1361000000,54,1361000000,world,5.29414333984e-05,0.000243039177164,1.62875237904,-2.69917854657e-06,1.55352575055e-05,-2.84013510922e-06,0.999999999872
1371000000,55,1371000000,world,5.461273036e-05,0.000245451102405,1.640313273,-3.86994165587e-06,1.49758463925e-05,-2.86198791346e-06,0.999999999876
1381000000,56,1381000000,world,5.62886564494e-05,0.000248025401301,1.65184349476,-5.12074199515e-06,1.43940950931e-05,-2.88410596449e-06,0.999999999879
1391000000,57,1391000000,world,5.79799064934e-05,0.000250567178728,1.66335122963,-6.41552527043e-06,1.38301622584e-05,-2.9062829998e-06,0.99999999988
1401000000,58,1401000000,world,5.96885163974e-05,0.000253079674136,1.67484437508,-7.72386138276e-06,1.32228286701e-05,-2.92853351899e-06,0.999999999878
1411000000,59,1411000000,world,6.14116143473e-05,0.000255592184022,1.68633054948,-9.03942865995e-06,1.25615593347e-05,-2.9508663665e-06,0.999999999876
1421000000,60,1421000000,world,6.31207469804e-05,0.000258305637602,1.69781710069,-1.03723191443e-05,1.18478073018e-05,-2.97311828787e-06,0.999999999872
1431000000,61,1431000000,world,6.48503802684e-05,0.000260987163721,1.70931111451,-1.17086263645e-05,1.10927253281e-05,-2.99525667801e-06,0.999999999865
1441000000,62,1441000000,world,6.66006734987e-05,0.000263639559044,1.72081942293,-1.3064485134e-05,1.03007502027e-05,-3.01768977288e-06,0.999999999857
1451000000,63,1451000000,world,6.83712651547e-05,0.000266266364785,1.73234832843,-1.44714630871e-05,9.48396924763e-06,-3.04047107525e-06,0.999999999846
1461000000,64,1461000000,world,7.00938013815e-05,0.000269136913052,1.74390093394,-1.59549357887e-05,8.68209618161e-06,-3.06337421477e-06,0.99999999983
1471000000,65,1471000000,world,7.18316495831e-05,0.000272006532653,1.75547849638,-1.74482651121e-05,7.85549659602e-06,-3.0863333815e-06,0.999999999812
1481000000,66,1481000000,world,7.3592690272e-05,0.000274849212672,1.76708220439,-1.89353216269e-05,6.9734321643e-06,-3.10940329182e-06,0.999999999792
1491000000,67,1491000000,world,7.52921881614e-05,0.000277936636486,1.77871320075,-2.04313678822e-05,6.03216281779e-06,-3.13243866813e-06,0.999999999768
1501000000,68,1501000000,world,7.69967868863e-05,0.000281056877435,1.79037258407,-2.19241922465e-05,5.04804266347e-06,-3.15531328515e-06,0.999999999742
1511000000,69,1511000000,world,7.87270742091e-05,0.000284144927857,1.80206141044,-2.34175542096e-05,4.03119525909e-06,-3.17842838556e-06,0.999999999713
1521000000,70,1521000000,world,8.04815288475e-05,0.000287205086956,1.81378069507,-2.49463373212e-05,2.99337581016e-06,-3.20191795913e-06,0.999999999679
1531000000,71,1531000000,world,8.2257113438e-05,0.00029024350536,1.8255305219,-2.65157732334e-05,1.98036141149e-06,-3.22558756648e-06,0.999999999641
1541000000,72,1541000000,world,8.39994217518e-05,0.000293380382693,1.837306122,-2.80961849583e-05,9.59541395151e-07,-3.24929832198e-06,0.9999999996
1551000000,73,1551000000,world,8.56676080561e-05,0.000296759845976,1.84910132734,-2.96854093738e-05,-1.23653440947e-07,-3.27311897723e-06,0.999999999554
1561000000,74,1561000000,world,8.73596920373e-05,0.000300118605162,1.86091022966,-3.12423383852e-05,-1.253608995e-06,-3.29694923867e-06,0.999999999506
1571000000,75,1571000000,world,8.90733052893e-05,0.00030346186044,1.87272716896,-3.27748140649e-05,-2.42128258658e-06,-3.3206112657e-06,0.999999999454
1581000000,76,1581000000,world,9.06545087874e-05,0.00030713073295,1.88454672242,-3.43259704005e-05,-3.6319988008e-06,-3.34441329492e-06,0.999999999399
1591000000,77,1591000000,world,9.22235197776e-05,0.000310858254372,1.89636369392,-3.59013768377e-05,-4.8617454288e-06,-3.36857665953e-06,0.999999999338
1601000000,78,1601000000,world,9.38164387727e-05,0.00031456225516,1.90817310408,-3.75051335047e-05,-6.06788685838e-06,-3.39296549665e-06,0.999999999273
1611000000,79,1611000000,world,9.52723830551e-05,0.000318555024824,1.9199701807,-3.9133852376e-05,-7.26091495983e-06,-3.41738213225e-06,0.999999999202
1621000000,80,1621000000,world,9.66909210737e-05,0.000322648328674,1.9317503498,-4.07417970892e-05,-8.502060578e-06,-3.44189833286e-06,0.999999999128
1631000000,81,1631000000,world,9.81395562431e-05,0.00032671228885,1.94350922696,-4.2303631233e-05,-9.78197249148e-06,-3.46646318594e-06,0.999999999051
1641000000,82,1641000000,world,9.96150838447e-05,0.000330753071046,1.95524260909,-4.38173557637e-05,-1.10935986804e-05,-3.49089760123e-06,0.999999998972
1651000000,83,1651000000,world,0.000100881213133,0.000335170406362,1.96694570372,-4.53329063233e-05,-1.24481526055e-05,-3.51531945326e-06,0.999999998889
1661000000,84,1661000000,world,0.000102154552795,0.000339623523761,1.97861165668,-4.68404350305e-05,-1.38123892359e-05,-3.54006647124e-06,0.999999998801
1671000000,85,1671000000,world,0.00010345837389,0.000344045808301,1.99023349954,-4.83543360245e-05,-1.51585483782e-05,-3.56509489678e-06,0.99999999871
1681000000,86,1681000000,world,0.000104787620718,0.000348444746432,2.00180456147,-4.98577789631e-05,-1.64444926095e-05,-3.59019399428e-06,0.999999998615
1691000000,87,1691000000,world,0.00010613902065,0.000352829841698,2.01331845578,-5.13154577003e-05,-1.77446468951e-05,-3.61535562095e-06,0.999999998519
1701000000,88,1701000000,world,0.000107269689526,0.000357572592857,2.02476906689,-5.27570419104e-05,-1.91007221209e-05,-3.6405872941e-06,0.999999998419
1711000000,89,1711000000,world,0.000108367907911,0.000362417274723,2.03615053825,-5.41441750342e-05,-2.04872615563e-05,-3.66577401327e-06,0.999999998318
1721000000,90,1721000000,world,0.000109490950954,0.000367245749537,2.04745726062,-5.54754610154e-05,-2.18857172625e-05,-3.69082465539e-06,0.999999998215
1731000000,91,1731000000,world,0.000110634125749,0.000372065322774,2.05868366918,-5.67590199193e-05,-2.32852080145e-05,-3.71607077918e-06,0.999999998111
1741000000,92,1741000000,world,0.000111658360062,0.00037708468271,2.06982366376,-5.80462505594e-05,-2.46869905087e-05,-3.74161822569e-06,0.999999998004
1751000000,93,1751000000,world,0.000112503032067,0.000382393717053,2.08087121548,-5.93530689968e-05,-2.60568378417e-05,-3.7673278727e-06,0.999999997892
1761000000,94,1761000000,world,0.000113370336802,0.000387689320025,2.09182055117,-6.06137744451e-05,-2.73797441528e-05,-3.7930611815e-06,0.999999997781
1771000000,95,1771000000,world,0.000114257489343,0.000392978543777,2.10266614175,-6.18101641705e-05,-2.87211580203e-05,-3.81887678498e-06,0.99999999767
1781000000,96,1781000000,world,0.000114837314196,0.000398716533557,2.11340269124,-6.29817274499e-05,-3.0112489329e-05,-3.8447165796e-06,0.999999997556
1791000000,97,1791000000,world,0.000115410044859,0.00040448649785,2.12402512659,-6.40793045749e-05,-3.15150818636e-05,-3.8704536016e-06,0.999999997443
1801000000,98,1801000000,world,0.000116008616408,0.000410242383742,2.13452858758,-6.51051773315e-05,-3.29111523082e-05,-3.89613834774e-06,0.999999997331
1811000000,99,1811000000,world,0.000116628007652,0.000415990838479,2.1449085547,-6.60748891537e-05,-3.4291705018e-05,-3.92207658021e-06,0.999999997221
1821000000,100,1821000000,world,0.000117261747215,0.000421739902209,2.15516279146,-6.70102964752e-05,-3.56403430571e-05,-3.94827839773e-06,0.999999997112
1831000000,101,1831000000,world,0.00011759403772,0.000427890643248,2.16529074658,-6.79505534914e-05,-3.69468952427e-05,-3.9745702837e-06,0.999999997001
1841000000,102,1841000000,world,0.000117869263664,0.000434134532654,2.17529192885,-6.8831676376e-05,-3.82263636959e-05,-4.00088354382e-06,0.999999996892
1851000000,103,1851000000,world,0.000118162892343,0.000440377555043,2.18516586636,-6.96326356491e-05,-3.95111476942e-05,-4.0272766162e-06,0.999999996787
1861000000,104,1861000000,world,0.000118307743112,0.000446818537379,2.19491210573,-7.03655776936e-05,-4.0813140462e-05,-4.05367497641e-06,0.999999996683
1871000000,105,1871000000,world,0.000118231897769,0.000453543028523,2.20453021149,-7.10388355188e-05,-4.2131613999e-05,-4.0799337654e-06,0.999999996581
1881000000,106,1881000000,world,0.000118179371353,0.000460262114217,2.21401976544,-7.16213975275e-05,-4.34270470158e-05,-4.1062113664e-06,0.999999996484
1891000000,107,1891000000,world,0.000118144943877,0.00046698170614,2.22338036582,-7.21336800545e-05,-4.46910488745e-05,-4.1327645941e-06,0.999999996391
1901000000,108,1901000000,world,0.000117752337781,0.000474105276043,2.23261162659,-7.26325412909e-05,-4.59428231513e-05,-4.15953923165e-06,0.999999996298
1911000000,109,1911000000,world,0.000117344641932,0.000481264721686,2.24171317713,-7.30686120487e-05,-4.71057356008e-05,-4.18638140882e-06,0.999999996212
1921000000,110,1921000000,world,0.000116960438786,0.000488421118379,2.25068466135,-7.34144282295e-05,-4.82339495917e-05,-4.21326233915e-06,0.999999996133
1931000000,111,1931000000,world,0.000116593818667,0.000495581993057,2.25952606131,-7.36641443325e-05,-4.93487265911e-05,-4.24021792971e-06,0.99999999606
1941000000,112,1941000000,world,0.000116151957512,0.000502838383325,2.26823977894,-7.38186237198e-05,-5.04536401066e-05,-4.26715877205e-06,0.999999995994
1951000000,113,1951000000,world,0.000115385313011,0.000510432634365,2.27682919442,-7.39039201083e-05,-5.15654777311e-05,-4.2939399437e-06,0.99999999593
1961000000,114,1961000000,world,0.000114635621399,0.00051803477364,2.28529756562,-7.38782893315e-05,-5.26368059895e-05,-4.32081482525e-06,0.999999995876
1971000000,115,1971000000,world,0.000113896411602,0.000525651075513,2.29364802835,-7.37647057353e-05,-5.3659925593e-05,-4.34798089586e-06,0.99999999583
1981000000,116,1981000000,world,0.000113159452468,0.000533289141182,2.30188360083,-7.35716601697e-05,-5.46132825704e-05,-4.37536258515e-06,0.999999995793
1991000000,117,1991000000,world,0.000112076612887,0.00054124384176,2.31000718782,-7.33183581757e-05,-5.5503116415e-05,-4.40276519469e-06,0.999999995762
2001000000,118,2001000000,world,0.000110916652909,0.000549290514344,2.31802158493,-7.29685678665e-05,-5.63650236929e-05,-4.43022455675e-06,0.999999995739
2011000000,119,2011000000,world,0.000109760979436,0.000557361301252,2.32592948231,-7.2510375647e-05,-5.71944733042e-05,-4.45774976962e-06,0.999999995726
2021000000,120,2021000000,world,0.000108602349555,0.000565462753566,2.33373346856,-7.19367326742e-05,-5.79852909898e-05,-4.48522526456e-06,0.999999995721
2031000000,121,2031000000,world,0.000107432500882,0.000573601839336,2.34143603436,-7.12449699936e-05,-5.87285876921e-05,-4.51257282741e-06,0.999999995727
2041000000,122,2041000000,world,0.000106052639366,0.000581905108601,2.34903957602,-7.04420807941e-05,-5.94395189186e-05,-4.54009959265e-06,0.999999995742
2051000000,123,2051000000,world,0.000104429492691,0.000590427069646,2.35654650885,-6.95549585475e-05,-6.01509951993e-05,-4.56742788781e-06,0.999999995762
2061000000,124,2061000000,world,0.000102796682532,0.00059898812421,2.36395982721,-6.85653794127e-05,-6.08588477819e-05,-4.59376359674e-06,0.999999995787
2071000000,125,2071000000,world,0.000101019778857,0.000607651513353,2.37128267444,-6.74731144964e-05,-6.15697688118e-05,-4.61899214547e-06,0.999999995818
2081000000,126,2081000000,world,9.88543112466e-05,0.000616588311596,2.37851807664,-6.62943251528e-05,-6.23587980651e-05,-4.64320287104e-06,0.999999995847
2091000000,127,2091000000,world,9.66894355457e-05,0.000625560505951,2.38566894618,-6.49995590438e-05,-6.31767860655e-05,-4.66641836499e-06,0.999999995881
2101000000,128,2101000000,world,9.45199016922e-05,0.000634570777114,2.39273808565,-6.35822280605e-05,-6.4013904267e-05,-4.68852550254e-06,0.999999995919
2111000000,129,2111000000,world,9.15669625036e-05,0.000643653708642,2.39972819175,-6.20276781212e-05,-6.49391361627e-05,-4.70956143225e-06,0.999999995957
2121000000,130,2121000000,world,8.77205381845e-05,0.000652824988908,2.40664185934,-6.03447384654e-05,-6.59511121038e-05,-4.7298780888e-06,0.999999995993
2131000000,131,2131000000,world,8.39207029824e-05,0.000662039279778,2.41348167578,-5.85526107879e-05,-6.69543560451e-05,-4.74939318718e-06,0.999999996033
2141000000,132,2141000000,world,7.95675254098e-05,0.000671303900992,2.42025064389,-5.66720918914e-05,-6.79982027202e-05,-4.76765079451e-06,0.999999996071
2151000000,133,2151000000,world,7.53344639558e-05,0.00068061588065,2.42695184033,-5.470872369e-05,-6.90560726812e-05,-4.78472878235e-06,0.999999996108
2161000000,134,2161000000,world,7.12192635693e-05,0.000689977659606,2.43358822602,-5.26627317748e-05,-7.01442176077e-05,-4.80071760325e-06,0.999999996142
2171000000,135,2171000000,world,6.72133913591e-05,0.000699391588631,2.4401626504,-5.05276883709e-05,-7.12487629703e-05,-4.81555928369e-06,0.999999996174
2181000000,136,2181000000,world,6.26196390492e-05,0.000709069621193,2.44667785519,-4.83115087815e-05,-7.24255864339e-05,-4.829105195e-06,0.999999996199
2191000000,137,2191000000,world,5.74805345997e-05,0.000718995820576,2.4531364786,-4.59875154769e-05,-7.36499184005e-05,-4.84170589037e-06,0.999999996219
2201000000,138,2201000000,world,5.2493243091e-05,0.000728951397039,2.45954105908,-4.35517601855e-05,-7.4826791057e-05,-4.8536346777e-06,0.99999999624
2211000000,139,2211000000,world,4.76468926352e-05,0.000738934624054,2.46589391472,-4.09674671286e-05,-7.59154723129e-05,-4.86436507093e-06,0.999999996267
2221000000,140,2221000000,world,4.25147468361e-05,0.00074886008448,2.47219471932,-3.80660269393e-05,-7.69426106465e-05,-4.87153616996e-06,0.999999996304
2231000000,141,2231000000,world,3.74173803157e-05,0.000758789237808,2.47844079147,-3.48538282655e-05,-7.7933196203e-05,-4.8751097367e-06,0.999999996344
2241000000,142,2241000000,world,3.24454818237e-05,0.000768750091011,2.48462947,-3.13462715378e-05,-7.88671082031e-05,-4.87521271783e-06,0.999999996387
2251000000,143,2251000000,world,2.7580829383e-05,0.0007787405737,2.49075820178,-2.754715156e-05,-7.97321401434e-05,-4.87182998701e-06,0.99999999643
2261000000,144,2261000000,world,2.26644721648e-05,0.000786876059715,2.49682453722,-2.32306774942e-05,-8.05287088059e-05,-4.86489507004e-06,0.999999996476
2271000000,145,2271000000,world,1.76871170226e-05,0.0007933124802,2.50282612574,-1.84219112031e-05,-8.12474249284e-05,-4.85490199302e-06,0.999999996518
2281000000,146,2281000000,world,1.27719625824e-05,0.000800010559987,2.5087607117,-1.33381734544e-05,-8.18593571469e-05,-4.84224325176e-06,0.999999996549
2291000000,147,2291000000,world,7.89857465224e-06,0.00080698800449,2.51462613066,-8.00080778404e-06,-8.23265085298e-05,-4.82685051981e-06,0.999999996568
2301000000,148,2301000000,world,2.85845620894e-06,0.000813120061773,2.52042030541,-2.35674138614e-06,-8.27060175368e-05,-4.80862392025e-06,0.999999996566
2311000000,149,2311000000,world,-2.19888834696e-06,0.000819405468914,2.52614124244,3.45554056977e-06,-8.29978473782e-05,-4.78787994842e-06,0.999999996538
2321000000,150,2321000000,world,-7.25597054905e-06,0.000826048648617,2.53178702852,9.39617368909e-06,-8.31888012425e-05,-4.76465786942e-06,0.999999996484
2331000000,151,2331000000,world,-1.23293704065e-05,0.000833039629384,2.5373558273,1.54852210359e-05,-8.32709666936e-05,-4.73891630061e-06,0.999999996402
2341000000,152,2341000000,world,-1.74350009008e-05,0.000840360566354,2.54284655071,2.17681277054e-05,-8.32423978891e-05,-4.7110277543e-06,0.999999996287
2351000000,153,2351000000,world,-2.26711942683e-05,0.000847671998511,2.54826319009,2.82622259694e-05,-8.31113743582e-05,-4.68121403619e-06,0.999999996136
2361000000,154,2361000000,world,-2.80864466146e-05,0.000854817146637,2.55361181774,3.49856985976e-05,-8.2870652512e-05,-4.64942749268e-06,0.999999995943
2371000000,155,2371000000,world,-3.35662306216e-05,0.000862249460577,2.55889829492,4.18267116053e-05,-8.24802986426e-05,-4.6156476458e-06,0.999999995713
2381000000,156,2381000000,world,-3.92245263091e-05,0.000869446622109,2.5641282705,4.87761343559e-05,-8.19871679762e-05,-4.57993400917e-06,0.999999995439
2391000000,157,2391000000,world,-4.50050552001e-05,0.00087668645883,2.56930718826,5.57849403758e-05,-8.13751896425e-05,-4.54238089572e-06,0.999999995123
2401000000,158,2401000000,world,-5.08703281817e-05,0.000884152371001,2.57444029359,6.28358581419e-05,-8.06305527589e-05,-4.50293057481e-06,0.999999994765
2411000000,159,2411000000,world,-5.68279061674e-05,0.00089181049342,2.5795326401,6.99963819864e-05,-7.9753699157e-05,-4.46167387037e-06,0.99999999436
2421000000,160,2421000000,world,-6.28845026503e-05,0.000899623177248,2.5845890961,7.72833330516e-05,-7.87514823292e-05,-4.41903714863e-06,0.999999993903
2431000000,161,2431000000,world,-6.90460094065e-05,0.000907550890541,2.58961435084,8.46981231574e-05,-7.76319795052e-05,-4.37509265876e-06,0.99999999339
2441000000,162,2441000000,world,-7.53382846853e-05,0.000915365310297,2.59461292062,9.2242869557e-05,-7.63747338565e-05,-4.32966612097e-06,0.99999999282
2451000000,163,2451000000,world,-8.18228032702e-05,0.000922491533214,2.59958832246,9.98815134846e-05,-7.49830257143e-05,-4.28268843216e-06,0.999999992191
2461000000,164,2461000000,world,-8.84374755671e-05,0.000929422749867,2.60453941315,0.000107532556407,-7.34525680773e-05,-4.23435303082e-06,0.999999991512
2471000000,165,2471000000,world,-9.52364177611e-05,0.000935435658198,2.60946360229,0.000115263022459,-7.1777711218e-05,-4.18448374793e-06,0.999999990772
2481000000,166,2481000000,world,-0.000102142660391,0.000941510652453,2.61435840483,0.000123018121922,-6.99524876273e-05,-4.13315669307e-06,0.999999989978
2491000000,167,2491000000,world,-0.000109155331971,0.000947624921847,2.61922143609,0.000130853823583,-6.79927159573e-05,-4.08076413062e-06,0.999999989119
2501000000,168,2501000000,world,-0.000116273165222,0.000953750099769,2.62405040773,0.000138760493891,-6.59149615774e-05,-4.02751180314e-06,0.999999988192
2511000000,169,2511000000,world,-0.000123351132073,0.000958525965551,2.62884312339,0.000146886500788,-6.371683754e-05,-3.97308450933e-06,0.999999987174
2521000000,170,2521000000,world,-0.000130480541639,0.000962770987046,2.63359747577,0.000155047265996,-6.13661874621e-05,-3.91750994929e-06,0.99999998609
2531000000,171,2531000000,world,-0.000137724154662,0.000967050944482,2.63831153877,0.000163121226758,-5.88702851864e-05,-3.86100246699e-06,0.999999984955
2541000000,172,2541000000,world,-0.000144956789282,0.000970393444757,2.64298398758,0.000171194713839,-5.62013136079e-05,-3.80338570681e-06,0.99999998376
2551000000,173,2551000000,world,-0.000152186634833,0.000972850517331,2.64761372362,0.000179279118009,-5.33581099185e-05,-3.74453853811e-06,0.999999982499
2561000000,174,2561000000,world,-0.000159539812184,0.000975381302594,2.65219969234,0.000187350163854,-5.03777741168e-05,-3.68480076908e-06,0.999999981174
2571000000,175,2571000000,world,-0.000167013526155,0.000977962507466,2.65674088075,0.000195405136673,-4.72843890116e-05,-3.624528164e-06,0.999999979784
2581000000,176,2581000000,world,-0.000174603073937,0.000980564032372,2.66123631613,0.000203450117893,-4.41129819786e-05,-3.56371391281e-06,0.999999978325
2591000000,177,2591000000,world,-0.000182267825547,0.000982949293364,2.66568506429,0.000211459915737,-4.08349312879e-05,-3.50215499616e-06,0.999999976802
2601000000,178,2601000000,world,-0.000189727154098,0.000983540845165,2.67008622751,0.000219500755468,-3.73843690917e-05,-3.43959181045e-06,0.999999975205
2611000000,179,2611000000,world,-0.000197306692389,0.000984151940595,2.67443894506,0.000227356519404,-3.37792932128e-05,-3.37641254072e-06,0.999999973578
2621000000,180,2621000000,world,-0.000205001401755,0.000984755892638,2.67874238963,0.000235026762153,-3.00102434138e-05,-3.31249884503e-06,0.999999971925
2631000000,181,2631000000,world,-0.000212305078895,0.00098336941207,2.68299576577,0.000242772416913,-2.60437448288e-05,-3.24743975169e-06,0.999999970186
2641000000,182,2641000000,world,-0.000219684355221,0.00098181298242,2.68719831122,0.000250441442939,-2.19654614332e-05,-3.18196564977e-06,0.999999968393
2651000000,183,2651000000,world,-0.000227190839545,0.000980286026122,2.69134929324,0.000257996748455,-1.7819209434e-05,-3.11624886392e-06,0.999999966555
2661000000,184,2661000000,world,-0.000234816136427,0.000978756674581,2.69544781784,0.000265433741871,-1.363961097e-05,-3.05016072518e-06,0.999999964675
2671000000,185,2671000000,world,-0.000242173394127,0.000975870256886,2.69949246123,0.000272794949272,-9.31235067883e-06,-2.98332563304e-06,0.999999962744
2681000000,186,2681000000,world,-0.000249407018118,0.000972121477397,2.70348175574,0.00027997828147,-4.82663587055e-06,-2.91593141226e-06,0.99999996079
2691000000,187,2691000000,world,-0.000256769215242,0.00096838346412,2.70741429262,0.000286877511685,-1.93460620317e-07,-2.84809046477e-06,0.999999958847
2701000000,188,2701000000,world,-0.000264249841054,0.00096462342759,2.71128871891,0.000293519729463,4.58124847225e-06,-2.77965262335e-06,0.999999956909
2711000000,189,2711000000,world,-0.000271077943652,0.000958592630394,2.71510373426,0.000300194516001,9.5353967218e-06,-2.71037542189e-06,0.999999954892
2721000000,190,2721000000,world,-0.000278003912901,0.000952477343278,2.71885809278,0.000306660667682,1.45483108349e-05,-2.64102235212e-06,0.99999995287
2731000000,191,2731000000,world,-0.000285058361212,0.000946369514829,2.72255067103,0.000312903093462,1.95552223273e-05,-2.57159046327e-06,0.999999950851
2741000000,192,2741000000,world,-0.000292228754568,0.000940230537264,2.72618151943,0.000318874311539,2.45841873917e-05,-2.50188296812e-06,0.999999948854
2751000000,193,2751000000,world,-0.00029858492017,0.000931704443748,2.72975154467,0.000324746692632,2.98054569501e-05,-2.43139850995e-06,0.999999946823
2761000000,194,2761000000,world,-0.000305081183489,0.000923192472371,2.73326164202,0.000330245073131,3.51413918449e-05,-2.3606822007e-06,0.999999944849
2771000000,195,2771000000,world,-0.000311705506115,0.000914663030154,2.73671267047,0.000335373199917,4.05991982983e-05,-2.28960830967e-06,0.999999942936
2781000000,196,2781000000,world,-0.000318441458564,0.000906077004178,2.74010545568,0.000340174258817,4.61458058716e-05,-2.21812285843e-06,0.999999941074
2791000000,197,2791000000,world,-0.000325269578243,0.000897389041376,2.74344079127,0.000344666053914,5.17338468239e-05,-2.14660523065e-06,0.999999939262
2801000000,198,2801000000,world,-0.000332167871159,0.000888549434603,2.74671944008,0.00034882892081,5.73146841135e-05,-2.07517206767e-06,0.999999937515
2811000000,199,2811000000,world,-0.000338556761009,0.000878316168286,2.74994213709,0.000352782992378,6.28956233425e-05,-2.00340030192e-06,0.999999935792
2821000000,200,2821000000,world,-0.000344461673556,0.000866737526206,2.75310970121,0.000356464568214,6.85728244864e-05,-1.93115227995e-06,0.999999934114
2831000000,201,2831000000,world,-0.000350439326238,0.000855005543765,2.75622306418,0.000359720514168,7.43316011459e-05,-1.85877860185e-06,0.999999932536
2841000000,202,2841000000,world,-0.000355492572074,0.000841298637125,2.7592831285,0.000362739323385,8.02931071453e-05,-1.78572407627e-06,0.999999930985
2851000000,203,2851000000,world,-0.000360002279237,0.000826311715275,2.76229076363,0.000365457654361,8.64028264466e-05,-1.71203140746e-06,0.999999929486
2861000000,204,2861000000,world,-0.00036463022591,0.00081125426593,2.76524680587,0.000367766873911,9.25301584943e-05,-1.6382410912e-06,0.999999928092
2871000000,205,2871000000,world,-0.000369361424823,0.000796101347082,2.76815205808,0.000369633316788,9.86254999457e-05,-1.56466016586e-06,0.999999926821
2881000000,206,2881000000,world,-0.000373298594155,0.000779578233149,2.77100729083,0.000371167700266,0.000104706078949,-1.49084123393e-06,0.999999925634
2891000000,207,2891000000,world,-0.00037698024936,0.00076244347472,2.77381324657,0.000372262085825,0.000110744232507,-1.41683472481e-06,0.999999924577
2901000000,208,2901000000,world,-0.000379825529547,0.000744121310099,2.77657063766,0.000372956003218,0.000116892096122,-1.34235713145e-06,0.999999923619
2911000000,209,2911000000,world,-0.000382061902445,0.000724670968073,2.77928014945,0.000373236341001,0.000123144886144,-1.26752125596e-06,0.999999922764
2921000000,210,2921000000,world,-0.000384477044624,0.0007051974216,2.78194244162,0.000372991170956,0.000129418799579,-1.19256810252e-06,0.999999922063
2931000000,211,2931000000,world,-0.000386363296864,0.000685019370039,2.78455825344,0.000372282952535,0.000135739548023,-1.11713243612e-06,0.999999921489
2941000000,212,2941000000,world,-0.000387751145661,0.000664155100273,2.78712909428,0.00037107811499,0.000142042055882,-1.04162943905e-06,0.999999921062
2951000000,213,2951000000,world,-0.000389324412015,0.000643243628959,2.78965676856,0.000369261766218,0.000148188256898,-9.66484555111e-07,0.999999920843
2961000000,214,2961000000,world,-0.000391053972836,0.000622248291208,2.79214301213,0.000366812434363,0.000154129499674,-8.91533932315e-07,0.999999920846
2971000000,215,2971000000,world,-0.000392907930182,0.000601129144253,2.79458949425,0.00036375647803,0.00015997725056,-8.16617565609e-07,0.999999921044
2981000000,216,2981000000,world,-0.000394003318965,0.000579236041115,2.79699781936,0.000360176885065,0.000165860794365,-7.4136647137e-07,0.999999921381
2991000000,217,2991000000,world,-0.00039437041168,0.000556577433819,2.79936953102,0.000356086139909,0.000171784939062,-6.65722798348e-07,0.999999921846
3001000000,218,3001000000,world,-0.000394848160518,0.000533744912159,2.80170611422,0.000351408746325,0.00017763641156,-5.8994033721e-07,0.999999922478
3011000000,219,3011000000,world,-0.000395403091439,0.00051070438894,2.8040089961,0.000346098561626,0.000183357579549,-5.14272989877e-07,0.999999923298
3021000000,220,3021000000,world,-0.000395429065612,0.000487155441104,2.80627954843,0.000340127632181,0.000188963754197,-4.38675052864e-07,0.999999924303
3031000000,221,3031000000,world,-0.000394194132851,0.000462741694863,2.80851909002,0.000333486414894,0.000194460923365,-3.62702552273e-07,0.999999925486
3041000000,222,3041000000,world,-0.000393033760153,0.000438076993821,2.81072889027,0.000326161252289,0.000199764954178,-2.86832012128e-07,0.999999926856
3051000000,223,3051000000,world,-0.000391919758537,0.000413141708585,2.81291015933,0.000318227606609,0.000204936128797,-2.11093439181e-07,0.999999928366
3061000000,224,3061000000,world,-0.000390817585639,0.000387915679838,2.81506367899,0.000309712038903,0.000209990516086,-1.35454589386e-07,0.999999929991
3071000000,225,3071000000,world,-0.00038858428125,0.000362103281207,2.8171897083,0.000300655735231,0.000215043820767,-5.91503880221e-08,0.999999931681
3081000000,226,3081000000,world,-0.000385632035798,0.000335757969002,2.8192884655,0.000290964790853,0.000220003713867,1.75489763792e-08,0.999999933469
3091000000,227,3091000000,world,-0.000382691546416,0.000309100698216,2.82136016058,0.000280544546225,0.000224745250464,9.38884898485e-08,0.999999935392
3101000000,228,3101000000,world,-0.000377300875098,0.00028592947007,2.82340499597,0.000268922219558,0.000229472861618,1.71787484545e-07,0.999999937512
3111000000,229,3111000000,world,-0.000366472316836,0.000270864091166,2.82542316586,0.000255639029094,0.000234476817195,2.53769598361e-07,0.999999939835
3121000000,230,3121000000,world,-0.00035605892954,0.000254682413299,2.82741485307,0.000241881655776,0.000239206211309,3.35231841557e-07,0.999999942137
3131000000,231,3131000000,world,-0.000345325681864,0.000239340597895,2.82938042082,0.000227578658967,0.00024373391105,4.17500044575e-07,0.999999944401
3141000000,232,3141000000,world,-0.000332131004393,0.000230583341016,2.83132134579,0.000212302974875,0.000248267756629,5.04215246887e-07,0.999999946645
3151000000,233,3151000000,world,-0.000319558814475,0.000219945405644,2.83323948147,0.000196875137813,0.000252428538275,5.92108877754e-07,0.99999994876
3161000000,234,3161000000,world,-0.000307592090504,0.000207366942625,2.83513661505,0.000181224252021,0.000256154350568,6.8079273312e-07,0.999999950771
3171000000,235,3171000000,world,-0.000296082638524,0.000193315131167,2.83701446525,0.000165258329974,0.000259413833703,7.70180204846e-07,0.999999952697
3181000000,236,3181000000,world,-0.000284139732851,0.000181452622772,2.83887468547,0.000148589770895,0.000262272632157,8.61877940866e-07,0.999999954567
3191000000,237,3191000000,world,-0.000272706097084,0.000167482276979,2.8407188636,0.000131944335616,0.000264673098423,9.54151045459e-07,0.999999956269
3201000000,238,3201000000,world,-0.000261714985806,0.000151471422357,2.84254852785,0.000115473821524,0.000266593672926,1.04690212239e-06,0.999999957796
3211000000,239,3211000000,world,-0.000251268900386,0.000134460691984,2.84436488348,9.91351946703e-05,0.000268011786787,1.14045753442e-06,0.99999995917
3221000000,240,3221000000,world,-0.000241791756338,0.000119242382474,2.84616765022,8.26096966542e-05,0.000268864494927,1.23590257131e-06,0.999999960443
3231000000,241,3231000000,world,-0.000232472215851,0.000102051782298,2.8479560818,6.61607258051e-05,0.000269220547182,1.33176440994e-06,0.999999961571
3241000000,242,3241000000,world,-0.000223225921302,8.30040103839e-05,2.84972946283,4.97299940872e-05,0.000269085168293,1.42778528044e-06,0.999999962559
3251000000,243,3251000000,world,-0.000213974460878,6.22349106424e-05,2.85148710621,3.32561984166e-05,0.000268492275057,1.5240680047e-06,0.999999963402
3261000000,244,3261000000,world,-0.000204646146085,3.99002147289e-05,2.85322835199,1.69050193834e-05,0.000267492975115,1.6207857991e-06,0.99999996408
3271000000,245,3271000000,world,-0.00019517298305,1.61655036623e-05,2.85495256636,8.76011431127e-07,0.000266012026594,1.71784909049e-06,0.999999964617
3281000000,246,3281000000,world,-0.000186620301904,-6.27914683482e-06,2.8566591411,-1.50639389666e-05,0.000263921959985,1.8162614524e-06,0.999999965057
3291000000,247,3291000000,world,-0.000178474926247,-2.83068485595e-05,2.85834749098,-3.08104870023e-05,0.000261278500141,1.91577883937e-06,0.99999996539
3301000000,248,3301000000,world,-0.000172679000128,-4.68962154195e-05,2.860017055,-4.6806499704e-05,0.000257901195895,2.0176486541e-06,0.999999965646
3311000000,249,3311000000,world,-0.000166241887338,-6.68340823504e-05,2.86166729215,-6.26254239951e-05,0.000254147886362,2.11951688706e-06,0.999999965741
3321000000,250,3321000000,world,-0.000159104852193,-8.80266540291e-05,2.86329768426,-7.83301386337e-05,0.000250092183224,2.22138156914e-06,0.999999965657
3331000000,251,3331000000,world,-0.000151230229041,-0.00011036003817,2.86490776127,-9.38653845635e-05,0.000245836610625,2.32341996902e-06,0.999999965374
3341000000,252,3341000000,world,-0.000142826888761,-0.000133418553833,2.86649727832,-0.000109009650429,0.000241232327882,2.42572541289e-06,0.999999964959
3351000000,253,3351000000,world,-0.000135689189215,-0.000154881917885,2.86806609152,-0.000123933332098,0.000236037428477,2.52936623844e-06,0.99999996446
3361000000,254,3361000000,world,-0.000127637685215,-0.000177259924685,2.86961406202,-0.000138336051224,0.00023048892843,2.63312229496e-06,0.999999963866
3371000000,255,3371000000,world,-0.000118665997598,-0.000200445277453,2.871141057,-0.000152330917081,0.000224631283056,2.73718992896e-06,0.999999963164
3381000000,256,3381000000,world,-0.000108783102279,-0.000224323422913,2.87264694884,-0.00016601925062,0.00021852699358,2.84123882261e-06,0.999999962338
3391000000,257,3391000000,world,-9.96172292265e-05,-0.000247577487553,2.87413161517,-0.00017959788129,0.00021207374942,2.94583490844e-06,0.99999996138
3401000000,258,3401000000,world,-9.05419366907e-05,-0.000270580735928,2.87559493792,-0.000193045918201,0.000205480391064,3.05081708471e-06,0.999999960251
3411000000,259,3411000000,world,-8.04686144015e-05,-0.000294048930985,2.87703676657,-0.000206071011766,0.000198782993395,3.15583361698e-06,0.999999959005
3421000000,260,3421000000,world,-7.18666893436e-05,-0.0003156577243,2.87845675421,-0.000218808070415,0.000191576172938,3.26202298802e-06,0.999999957705
3431000000,261,3431000000,world,-6.21767602911e-05,-0.000337659562734,2.87985450058,-0.000230984257814,0.000184133043681,3.36817464321e-06,0.999999956365
3441000000,262,3441000000,world,-5.14247094754e-05,-0.000359973964719,2.88122962135,-0.000242648877354,0.000176485567273,3.47447078803e-06,0.999999954981
3451000000,263,3451000000,world,-3.96506377114e-05,-0.00038251764994,2.88258174727,-0.000253913858461,0.000168714334694,3.58073044908e-06,0.999999953525
3461000000,264,3461000000,world,-2.79932942495e-05,-0.000404786367991,2.88391052382,-0.000264884023171,0.000160770579854,3.68707539674e-06,0.999999951988
3471000000,265,3471000000,world,-1.69505267469e-05,-0.000426526259029,2.88521561022,-0.000275632004516,0.000152740601066,3.79372110517e-06,0.999999950341
3481000000,266,3481000000,world,-4.88584307281e-06,-0.000448302662187,2.88649667899,-0.000285986030649,0.00014483874479,3.90020073896e-06,0.999999948609
3491000000,267,3491000000,world,8.15886939081e-06,-0.000470036181126,2.8877534158,-0.000295807019302,0.000136832655643,4.00653933688e-06,0.999999946879
3501000000,268,3501000000,world,2.09332131438e-05,-0.000491003996529,2.88898551856,-0.000305147082985,0.000128560726196,4.11326097527e-06,0.99999994517
3511000000,269,3511000000,world,3.38638678679e-05,-0.000511399858497,2.89019269709,-0.000313986113882,0.000120085525116,4.22031027116e-06,0.999999943487
3521000000,270,3521000000,world,4.77185288572e-05,-0.000531610052943,2.89137467268,-0.000322370938475,0.000111568790095,4.32735539291e-06,0.999999941805
3531000000,271,3531000000,world,6.24399018669e-05,-0.000551577367343,2.89253120206,-0.000330352940238,0.000103082566324,4.43400393892e-06,0.999999940111
3541000000,272,3541000000,world,7.79636576136e-05,-0.000571245800811,2.89366230749,-0.000337984815067,9.4721084975e-05,4.54019423021e-06,0.999999938387
3551000000,273,3551000000,world,9.23067155907e-05,-0.000590478391952,2.89476815971,-0.00034526108694,8.64118082102e-05,4.64681022352e-06,0.999999936653
3561000000,274,3561000000,world,0.000106967065502,-0.000609284867953,2.89584892395,-0.00035204343296,7.81035785452e-05,4.75340432779e-06,0.999999934971
3571000000,275,3571000000,world,0.000122390246495,-0.000627636166634,2.89690475915,-0.000358304270828,6.97429993338e-05,4.85978046984e-06,0.999999933365
3581000000,276,3581000000,world,0.000138520993573,-0.000645486580334,2.89793581811,-0.00036404062466,6.13297610917e-05,4.96605083423e-06,0.999999931844
3591000000,277,3591000000,world,0.000154502490582,-0.000662766575954,2.89894224766,-0.000369309071053,5.28244383088e-05,5.07266722636e-06,0.999999930397
3601000000,278,3601000000,world,0.000170339346846,-0.000679441168115,2.89992418879,-0.000374150374827,4.43126933121e-05,5.17925965801e-06,0.999999929011
3611000000,279,3611000000,world,0.000186798966734,-0.000695506819099,2.90088177696,-0.0003786066549,3.59541822157e-05,5.28530300174e-06,0.999999927668
3621000000,280,3621000000,world,0.000204706152898,-0.000711600108465,2.9018151428,-0.000382625689361,2.79792558319e-05,5.39063414237e-06,0.999999926393
3631000000,281,3631000000,world,0.000230773295471,-0.000732812646187,2.90272441554,-0.000385599097552,2.09765988712e-05,5.49256720418e-06,0.999999925422
3641000000,282,3641000000,world,0.000256770946858,-0.000752932575425,2.90360971085,-0.000388162244241,1.39064854841e-05,5.59459560872e-06,0.999999924553
3651000000,283,3651000000,world,0.000282573249592,-0.000771887465991,2.90447114074,-0.000390338773944,6.72000604699e-06,5.69671485185e-06,0.999999923779
3661000000,284,3661000000,world,0.000308084698319,-0.000789631331735,2.90530878663,-0.000392159685157,-5.94321251146e-07,5.79914282888e-06,0.999999923088
3671000000,285,3671000000,world,0.000334762768669,-0.000806770297975,2.90612271577,-0.000393593049418,-7.83180597524e-06,5.90122019058e-06,0.999999922494
3681000000,286,3681000000,world,0.000361307496719,-0.00082277836046,2.90691299183,-0.000394733187271,-1.50961520716e-05,6.0030741688e-06,0.999999921961
3691000000,287,3691000000,world,0.000387273594,-0.000837489686355,2.90767967624,-0.000395631899052,-2.23506140417e-05,6.10487761338e-06,0.999999921469
3701000000,288,3701000000,world,0.00041256787799,-0.000850806066928,2.90842282808,-0.000396292852442,-2.95637112031e-05,6.20686788578e-06,0.99999992102
3711000000,289,3711000000,world,0.000436716756745,-0.000861927835699,2.9091425035,-0.00039678218647,-3.70233219757e-05,6.30938884489e-06,0.999999920577
3721000000,290,3721000000,world,0.000460278788199,-0.000871868728214,2.909838758,-0.000396997564777,-4.47382125085e-05,6.4121714459e-06,0.999999920175
3731000000,291,3731000000,world,0.000483265345063,-0.000880668362814,2.91051189964,-0.000396937881928,-5.27184389429e-05,6.51537109498e-06,0.999999919809
3741000000,292,3741000000,world,0.000505061877887,-0.000887691385102,2.91116325142,-0.000396675246451,-6.09818626326e-05,6.61927466245e-06,0.999999919443
3751000000,293,3751000000,world,0.000525740972508,-0.000893033241014,2.91179433679,-0.000396202424161,-6.94598681026e-05,6.7234295194e-06,0.999999919077
3761000000,294,3761000000,world,0.000545980406411,-0.000897435592211,2.91240662124,-0.000395467508774,-7.79963519622e-05,6.82744010316e-06,0.999999918738
3771000000,295,3771000000,world,0.000565159639654,-0.000900462192397,2.91300151269,-0.000394513739602,-8.65165664187e-05,6.93166541022e-06,0.999999918413
3781000000,296,3781000000,world,0.000583047202783,-0.000901957412375,2.91358036512,-0.000393343826297,-9.52416334227e-05,7.0363643707e-06,0.99999991808
3791000000,297,3791000000,world,0.000600676065533,-0.000902703450586,2.91414448129,-0.000391870631672,-0.000104203788225,7.14113459834e-06,0.999999917764
3801000000,298,3801000000,world,0.000618072935494,-0.000902736068087,2.91469511299,-0.000390085042156,-0.000113407441856,7.24606578548e-06,0.99999991746
3811000000,299,3811000000,world,0.000635254704319,-0.000902083172857,2.91523346366,-0.00038797570227,-0.000122808439361,7.35129258075e-06,0.999999917169
3821000000,300,3821000000,world,0.000652230427515,-0.000900765714318,2.91576069026,-0.000385510143201,-0.000132317812936,7.45646585083e-06,0.999999916909
3831000000,301,3831000000,world,0.000668011445885,-0.000898189295437,2.91627790427,-0.000382766645157,-0.000141959279541,7.56169089149e-06,0.99999991664
3841000000,302,3841000000,world,0.000682997190545,-0.000894616194756,2.91678617518,-0.000379710155941,-0.000151521531752,7.6668773246e-06,0.999999916401
3851000000,303,3851000000,world,0.000697873091547,-0.000890482243126,2.91728653136,-0.000376300917306,-0.000161010091264,7.77199107531e-06,0.999999916206
3861000000,304,3861000000,world,0.000712641750575,-0.000885799857578,2.91777984615,-0.000372550110614,-0.000170658667517,7.87704818126e-06,0.99999991601
3871000000,305,3871000000,world,0.000726255301724,-0.000880156655467,2.91826633341,-0.000368501645677,-0.000180597963926,7.98247096299e-06,0.999999915764
3881000000,306,3881000000,world,0.000738783649457,-0.000873592030615,2.91874599304,-0.000364138995733,-0.000190794244713,8.08839955143e-06,0.999999915467
3891000000,307,3891000000,world,0.000751286113529,-0.000866544662129,2.91921882564,-0.000359360488483,-0.000201032862597,8.19429572464e-06,0.999999915189
3901000000,308,3901000000,world,0.00074883465426,-0.000863694593362,2.91968482833,-0.000353672551485,-0.000212791442951,8.30437462169e-06,0.999999914783
3911000000,309,3911000000,world,0.000747221720268,-0.00086032480057,2.92014400332,-0.000347573940573,-0.000224184368168,8.41371338316e-06,0.999999914431
3921000000,310,3921000000,world,0.000746534531575,-0.000856141578855,2.92059635051,-0.000341123298735,-0.000235112965565,8.52251580255e-06,0.999999914142
3931000000,311,3931000000,world,0.00074681372673,-0.000851120619533,2.92104190208,-0.000334389640341,-0.000245856569372,8.63083505431e-06,0.999999913832
3941000000,312,3941000000,world,0.000748051095493,-0.000845248846,2.92148102543,-0.000327396372075,-0.000256441407923,8.73865939218e-06,0.999999913487
3951000000,313,3951000000,world,0.000748630609046,-0.000839364289182,2.92191426925,-0.000320063134652,-0.000266999594477,8.84667635067e-06,0.999999913096
3961000000,314,3961000000,world,0.000744022219772,-0.000835857951267,2.92234216225,-0.000312087673069,-0.000277890009058,8.9565578457e-06,0.999999912649
3971000000,315,3971000000,world,0.000739722298107,-0.000831959506738,2.92276521462,-0.000303726478171,-0.00028839832011,9.06584232804e-06,0.999999912247
3981000000,316,3981000000,world,0.000733058617909,-0.000829654095371,2.92318391528,-0.000294785474997,-0.000298650749137,9.17561591163e-06,0.999999911913
3991000000,317,3991000000,world,0.000727778446547,-0.00082603289999,2.92359873496,-0.000285601819994,-0.0003080823444,9.28436132228e-06,0.999999911715
4001000000,318,4001000000,world,0.000723815203805,-0.000821094667851,2.92401012563,-0.000276306443513,-0.000316912381371,9.39219747178e-06,0.999999911567
4011000000,319,4011000000,world,0.000721068381184,-0.000814858684743,2.92441852166,-0.000266948562041,-0.000325220579216,9.4990841496e-06,0.99999991144
4021000000,320,4021000000,world,0.000719412471231,-0.000807360309216,2.92482434048,-0.000257545883973,-0.000332982684752,9.60514828894e-06,0.99999991135
4031000000,321,4031000000,world,0.000718117155576,-0.00080049195708,2.92522798378,-0.000247853377411,-0.000340195917656,9.7114232158e-06,0.999999911371
4041000000,322,4041000000,world,0.000717275448216,-0.000793553452146,2.9256298367,-0.000237879579384,-0.000346761625194,9.81722389969e-06,0.999999911537
4051000000,323,4051000000,world,0.00071714743477,-0.000785319741941,2.926030274,-0.000227768058672,-0.00035258361123,9.92181174883e-06,0.999999911854
4061000000,324,4061000000,world,0.000717645788878,-0.000776835618629,2.92642969179,-0.000217410756481,-0.000357574243042,1.00258419339e-05,0.999999912386
4071000000,325,4071000000,world,0.000718651903017,-0.000768567225644,2.9268284858,-0.000206898240552,-0.000361819468905,1.01296707574e-05,0.999999913089
4081000000,326,4081000000,world,0.000719934771301,-0.000759036337169,2.92722703545,-0.0001964715663,-0.000365436374019,1.02325313559e-05,0.999999913875
4091000000,327,4091000000,world,0.00072217354896,-0.000749295936767,2.92762570716,-0.000186047082324,-0.000368335710729,1.03349968416e-05,0.999999914804
4101000000,328,4101000000,world,0.000725569816929,-0.000739814358161,2.9280248524,-0.000175547175894,-0.000370469937832,1.04374913835e-05,0.999999915913
4111000000,329,4111000000,world,0.000728737470439,-0.000729115531492,2.92842480702,-0.000165032690272,-0.000371964064239,1.05391560243e-05,0.999999917148
4121000000,330,4121000000,world,0.000731558259596,-0.000717263756875,2.92882589523,-0.000154508858397,-0.000372829647288,1.06397366189e-05,0.999999918506
4131000000,331,4131000000,world,0.000733930589845,-0.000704332155261,2.92922837632,-0.000143959836539,-0.000373077020921,1.07393761431e-05,0.999999919987
4141000000,332,4141000000,world,0.000735768545392,-0.000690403105149,2.92963210938,-0.000133482698725,-0.000372709555084,1.08382891482e-05,0.999999921576
4151000000,333,4151000000,world,0.000737001966279,-0.000675563096952,2.93003678699,-0.000123179123706,-0.000371775100594,1.09364248158e-05,0.999999923245
4161000000,334,4161000000,world,0.000737572949083,-0.000659897323801,2.93044211322,-0.000113060580149,-0.000370270209756,1.1033845822e-05,0.999999924998
4171000000,335,4171000000,world,0.000738966982138,-0.000644777259352,2.93084780526,-0.000102969527786,-0.000368029955096,1.11314814596e-05,0.999999926914
4181000000,336,4181000000,world,0.000740521763412,-0.000629754272952,2.93125358933,-9.28505663879e-05,-0.000365147110219,1.12290602975e-05,0.99999992896
4191000000,337,4191000000,world,0.00074114211424,-0.000614006335126,2.93165920204,-8.27723995355e-05,-0.000361778175521,1.13257672213e-05,0.999999931069
4201000000,338,4201000000,world,0.000744146858557,-0.000599550462251,2.93206439416,-7.25156053006e-05,-0.000357639326341,1.14227946416e-05,0.999999933353
4211000000,339,4211000000,world,0.000746816999431,-0.000584854517452,2.93246892116,-6.22988045072e-05,-0.00035304396634,1.15194351921e-05,0.999999935673
4221000000,340,4221000000,world,0.000750859911366,-0.000570927902717,2.93287255181,-5.21543705783e-05,-0.000347764212613,1.1616271777e-05,0.999999938103
4231000000,341,4231000000,world,0.000753453791819,-0.000556273855373,2.93327506037,-4.22762777027e-05,-0.000342079921066,1.17123317996e-05,0.999999940528
4241000000,342,4241000000,world,0.000754580480483,-0.000540937266781,2.93367623222,-3.26631211839e-05,-0.000336002219687,1.18077964159e-05,0.999999942948
4251000000,343,4251000000,world,0.000754247113245,-0.000524968970579,2.93407591816,-2.32281889808e-05,-0.00032958625033,1.19028047596e-05,0.999999945346
4261000000,344,4261000000,world,0.000753667146487,-0.00050875034899,2.93447428597,-1.38877398018e-05,-0.000322779721566,1.19972821557e-05,0.999999947738
4271000000,345,4271000000,world,0.000753360770798,-0.000492473371948,2.93487159879,-4.6298805156e-06,-0.000315621614812,1.20912725025e-05,0.999999950108
4281000000,346,4281000000,world,0.000751529567346,-0.000475694789492,2.93526810797,4.48373040685e-06,-0.000308393024678,1.21845554816e-05,0.999999952363
4291000000,347,4291000000,world,0.000748212282505,-0.000458475843801,2.93566405636,1.33296482038e-05,-0.000300964594759,1.22772222107e-05,0.999999954546
4301000000,348,4301000000,world,0.000743463516577,-0.000440877204795,2.93605967726,2.18735868791e-05,-0.000293280765781,1.23692176995e-05,0.999999956677
4311000000,349,4311000000,world,0.000737349563203,-0.000422958157779,2.93645519486,3.01191865613e-05,-0.000285327286402,1.24606781773e-05,0.999999958763
4321000000,350,4321000000,world,0.000731423670316,-0.00040537176034,2.93685082535,3.81880819403e-05,-0.000276979803421,1.2552244953e-05,0.999999960833
4331000000,351,4331000000,world,0.000725158163174,-0.000387928133876,2.93724672179,4.61291346215e-05,-0.000268386769929,1.26434609541e-05,0.99999996284
4341000000,352,4341000000,world,0.000720459124435,-0.000370791614293,2.93764287375,5.39477926017e-05,-0.000259439006025,1.27345090357e-05,0.999999964809
4351000000,353,4351000000,world,0.000715061167688,-0.000353576535143,2.93803924042,6.16067986055e-05,-0.000250516561262,1.28249914443e-05,0.999999966641
4361000000,354,4361000000,world,0.000708269591457,-0.000336189094386,2.93843578352,6.90032778182e-05,-0.000241582165461,1.29149250828e-05,0.999999968355
4371000000,355,4371000000,world,0.000700138406908,-0.000318671390212,2.93883246665,7.60863597911e-05,-0.000232523385709,1.30042475254e-05,0.999999969987
4381000000,356,4381000000,world,0.000690735242356,-0.00030106418233,2.93922925483,8.28568446164e-05,-0.000223317340971,1.30930422917e-05,0.999999971546
4391000000,357,4391000000,world,0.000681229738365,-0.00028359908644,2.93962611486,8.93693941064e-05,-0.000213865482873,1.31817940378e-05,0.99999997305
4401000000,358,4401000000,world,0.000671255187449,-0.000266234347818,2.94002301419,9.56899945025e-05,-0.000204307125451,1.32702496526e-05,0.999999974463
4411000000,359,4411000000,world,0.000660131070433,-0.000248872801518,2.94041992145,0.000101800522799,-0.000194803077167,1.33579102572e-05,0.999999975755
4421000000,360,4421000000,world,0.000647932754629,-0.000231547785353,2.94081680684,0.000107706783773,-0.000185476979658,1.34448476021e-05,0.999999976908
4431000000,361,4431000000,world,0.000636845370187,-0.000214235255204,2.94121364248,0.000113359406375,-0.000176065496809,1.3531764932e-05,0.999999977984
4441000000,362,4441000000,world,0.000624936477549,-0.000197022549463,2.94161040007,0.000118709505757,-0.000166605418425,1.36182114776e-05,0.999999978983
4451000000,363,4451000000,world,0.000612024362519,-0.000179946090284,2.94200705305,0.000123758867711,-0.000157085097195,1.3704167333e-05,0.99999997991
4461000000,364,4461000000,world,0.000598175691687,-0.000163032822048,2.9424034411,0.000128528870258,-0.000147504823007,1.37898241228e-05,0.999999980766
4471000000,365,4471000000,world,0.000583461828265,-0.000146306394405,2.94279840421,0.000133076021841,-0.000137941792928,1.38751905485e-05,0.999999981535
4481000000,366,4481000000,world,0.000568116392714,-0.000129778417309,2.94319038497,0.000137408241709,-0.000128455350843,1.39599036381e-05,0.999999982212
4491000000,367,4491000000,world,0.00055344670938,-0.000113386189188,2.94357788692,0.00014150959261,-0.000119018883531,1.40442516677e-05,0.999999982806
4501000000,368,4501000000,world,0.000538036871908,-9.72492906717e-05,2.94395947266,0.000145378944108,-0.000109827681781,1.41280876589e-05,0.999999983302
4511000000,369,4511000000,world,0.000524073885449,-8.09542059705e-05,2.94433376314,0.000148928382743,-0.000100469826917,1.42119886357e-05,0.999999983762
4521000000,370,4521000000,world,0.000509353450581,-6.49746828596e-05,2.94469943307,0.000152206978838,-9.11199138755e-05,1.42954224243e-05,0.999999984163
4531000000,371,4531000000,world,0.000493919460962,-4.93270300279e-05,2.9450554173,0.000155231006162,-8.17687518767e-05,1.43785358236e-05,0.999999984505
4541000000,372,4541000000,world,0.0004706395587,-3.08255593919e-05,2.94540223473,0.000157708198039,-7.32334029383e-05,1.445987145e-05,0.999999984778
4551000000,373,4551000000,world,0.000444181342407,-1.15350227797e-05,2.94574106511,0.000159874715038,-6.50802653486e-05,1.45401208623e-05,0.999999984997
4561000000,374,4561000000,world,0.000417852325319,7.08829435751e-06,2.94607304468,0.000161868155033,-5.70059417892e-05,1.46198738248e-05,0.999999985168
4571000000,375,4571000000,world,0.000391769478874,2.50124329227e-05,2.94639926568,0.000163698753326,-4.9063551999e-05,1.4699327168e-05,0.99999998529
4581000000,376,4581000000,world,0.000365768004262,4.23069832859e-05,2.94672077811,0.000165355516135,-4.11072032651e-05,1.47786504682e-05,0.999999985375
4591000000,377,4591000000,world,0.000338002988627,5.96361112091e-05,2.94703859141,0.000166777732323,-3.32249346491e-05,1.48573907204e-05,0.99999998543
4601000000,378,4601000000,world,0.000310817278506,7.61950463667e-05,2.94735367578,0.000168070502468,-2.51269765595e-05,1.49361657286e-05,0.999999985449
4611000000,379,4611000000,world,0.00028425586671,9.1988750691e-05,2.9476669639,0.000169255520778,-1.68063111204e-05,1.50151687452e-05,0.999999985422
4621000000,380,4621000000,world,0.000258342383199,0.000107030774101,2.94797935225,0.000170356670123,-8.31814480543e-06,1.5094149338e-05,0.999999985341
4631000000,381,4631000000,world,0.000233084147534,0.000121339785943,2.94829170258,0.000171353591181,2.87036662645e-07,1.51728402497e-05,0.999999985204
4641000000,382,4641000000,world,0.000208781123639,0.000134670019679,2.94860484307,0.000172268736034,8.9401719963e-06,1.52514144326e-05,0.999999985005
4651000000,383,4651000000,world,0.000185169032081,0.000147267960455,2.94891927468,0.000173081513233,1.77132100288e-05,1.53300370365e-05,0.999999984747
4661000000,384,4661000000,world,0.000162141875703,0.000159234819296,2.94923327738,0.000173788348158,2.6746667713e-05,1.54086514418e-05,0.999999984422
4671000000,385,4671000000,world,0.000140907541743,0.000170000708737,2.94954422956,0.000174459421282,3.62153150542e-05,1.54875487458e-05,0.999999984006
4681000000,386,4681000000,world,0.00012025966207,0.000180169967775,2.94984961281,0.000175042906867,4.5994949312e-05,1.55666585458e-05,0.999999983501
4691000000,387,4691000000,world,0.000100017326283,0.000189846515547,2.95014701038,0.000175538873458,5.59864767937e-05,1.56458425431e-05,0.999999982903
4701000000,388,4701000000,world,8.0146342853e-05,0.000199060817695,2.95043410313,0.000175925649582,6.6109134618e-05,1.57247138003e-05,0.999999982216
4711000000,389,4711000000,world,6.10718188147e-05,0.000207685773522,2.95070866529,0.000176197072808,7.62852861898e-05,1.58033496685e-05,0.999999981443
4721000000,390,4721000000,world,4.33200838665e-05,0.000215558281201,2.95096856077,0.000176371257878,8.65558239347e-05,1.58820605487e-05,0.999999980575
4731000000,391,4731000000,world,2.57743436766e-05,0.000223071266415,2.95121173991,0.000176415922697,9.70153530685e-05,1.59606875384e-05,0.999999979605
4741000000,392,4741000000,world,8.41040268328e-06,0.00023024569165,2.9514362352,0.000176333758617,0.000107721220201,1.60392135497e-05,0.999999978523
