%time,field.header.seq,field.header.stamp,field.header.frame_id,field.twist.linear.x,field.twist.linear.y,field.twist.linear.z,field.twist.angular.x,field.twist.angular.y,field.twist.angular.z
1581000000,157,1581000000,,0.0325422536004,0.0184786567028,1.20237751172,0.0,0.0,0.0
1591000000,158,1591000000,,0.00639984063576,0.013063859798,1.16881070404,0.0,0.0,0.0
1601000000,159,1601000000,,0.0110120060807,-0.037617522232,1.14351525701,0.0,0.0,0.0
1611000000,160,1611000000,,0.00384749691477,0.0185139653827,1.18145096989,0.0,0.0,0.0
1621000000,161,1621000000,,0.0131531145392,0.0161271351285,1.1593296449,0.0,0.0,0.0
1631000000,162,1631000000,,-0.036130030923,0.00697650320118,1.14120663529,0.0,0.0,0.0
1641000000,163,1641000000,,0.0293442602624,-0.0434068492617,1.21943159303,0.0,0.0,0.0
1651000000,164,1651000000,,-0.000969033148135,-0.017951001421,1.16114830391,0.0,0.0,0.0
1661000000,165,1661000000,,0.0277078562214,-0.0206573350785,1.13167367047,0.0,0.0,0.0
1671000000,166,1671000000,,-0.021161105902,0.0250207160286,1.14460997298,0.0,0.0,0.0
1680000000,167,1680000000,,-0.00513076433674,-0.029048052023,1.14777761078,0.0,0.0,0.0
1691000000,168,1691000000,,-0.017381711517,-0.0287257960798,1.17496848431,0.0,0.0,0.0
1701000000,169,1701000000,,-0.00988904263632,-0.0322025606514,1.17973317627,0.0,0.0,0.0
1711000000,170,1711000000,,0.0320905395049,-0.00324428426771,1.12910267628,0.0,0.0,0.0
1721000000,171,1721000000,,0.00429364266395,0.0177320407718,1.13526251094,0.0,0.0,0.0
1731000000,172,1731000000,,-0.00449879911577,-0.0285114259205,1.18326523723,0.0,0.0,0.0
1741000000,173,1741000000,,-0.0510685947828,-0.0273430969264,1.15998470643,0.0,0.0,0.0
1751000000,174,1751000000,,0.0187230124831,0.044577006571,1.09293593426,0.0,0.0,0.0
1761000000,175,1761000000,,-0.0278411606116,0.0209807610658,1.13582287471,0.0,0.0,0.0
1771000000,176,1771000000,,-0.0710827287285,0.0304426748351,1.10852699337,0.0,0.0,0.0
1782000000,177,1782000000,,-0.010930219113,0.00198304028059,1.09231551043,0.0,0.0,0.0
1791000000,178,1791000000,,0.0103390671426,-0.0183297392519,1.0904754607,0.0,0.0,0.0
1802000000,179,1802000000,,0.00501461143543,0.00898202224119,1.05338125675,0.0,0.0,0.0
1812000000,180,1812000000,,0.0307925833732,0.0376714416664,1.02772842456,0.0,0.0,0.0
1822000000,181,1822000000,,-0.0316785380951,-0.0337125138553,1.04404113785,0.0,0.0,0.0
1832000000,182,1832000000,,-0.0355676599182,-0.0013141987972,1.05792395573,0.0,0.0,0.0
1842000000,183,1842000000,,-0.0429771949033,0.000447421885909,0.988935471056,0.0,0.0,0.0
1851000000,184,1851000000,,0.00479779273392,0.0247910498426,0.997912454946,0.0,0.0,0.0
1861000000,185,1861000000,,0.0323899373323,-0.0136217054313,1.02101740981,0.0,0.0,0.0
1871000000,186,1871000000,,-0.00959812460339,-0.00337839862112,0.997392368508,0.0,0.0,0.0
1881000000,187,1881000000,,0.0106403882654,0.047533264252,0.960695001985,0.0,0.0,0.0
1891000000,188,1891000000,,-0.00102570059938,0.030098394529,0.953795990865,0.0,0.0,0.0
1901000000,189,1901000000,,-0.0171638495096,0.0158539460567,0.927263716698,0.0,0.0,0.0
1912000000,190,1912000000,,0.0369182886815,-0.0197831913349,0.940838648804,0.0,0.0,0.0
1921000000,191,1921000000,,-0.0057162203582,0.0263764559685,0.899343635624,0.0,0.0,0.0
1931000000,192,1931000000,,0.00966400824289,0.0146856316992,0.900090055717,0.0,0.0,0.0
1941000000,193,1941000000,,-0.0102997787232,0.0115464187645,0.908787855559,0.0,0.0,0.0
1951000000,194,1951000000,,-0.00118107144828,-0.0160536068241,0.880963837548,0.0,0.0,0.0
1960000000,195,1960000000,,0.0114814861503,-0.0302036661849,0.88251431692,0.0,0.0,0.0
1971000000,196,1971000000,,0.0107035980594,-0.0453234595335,0.834274248651,0.0,0.0,0.0
1981000000,197,1981000000,,0.00116094208965,-0.00958346705348,0.867677823316,0.0,0.0,0.0
1992000000,198,1992000000,,-0.00547077157993,-0.0213665192149,0.835214963534,0.0,0.0,0.0
2000000000,199,2000000000,,-0.0109029115383,0.0272334833671,0.800621409555,0.0,0.0,0.0
2011000000,200,2011000000,,0.00382776091144,0.0386669186732,0.833471258708,0.0,0.0,0.0
2021000000,201,2021000000,,-0.00167706252933,0.000544097193943,0.755782148282,0.0,0.0,0.0
2031000000,202,2031000000,,0.013662366726,-0.00544222695677,0.786531270491,0.0,0.0,0.0
2040000000,203,2040000000,,-0.00752872346938,0.0213820610379,0.770042445086,0.0,0.0,0.0
2051000000,204,2051000000,,-0.019940822747,-0.0374272457321,0.751173501888,0.0,0.0,0.0
2061000000,205,2061000000,,0.0138866000869,-0.00224716942403,0.744324417994,0.0,0.0,0.0
2072000000,206,2072000000,,-0.000894301180205,-0.0551559730968,0.754705868412,0.0,0.0,0.0
2080000000,207,2080000000,,0.00116246481817,-0.0169423616874,0.723968469506,0.0,0.0,0.0
2091000000,208,2091000000,,-0.0127199361519,0.021386714385,0.715772149586,0.0,0.0,0.0
2101000000,209,2101000000,,0.0339662931436,-0.00690793156295,0.697341185234,0.0,0.0,0.0
2111000000,210,2111000000,,-0.00621827258241,0.00196096077047,0.690198240576,0.0,0.0,0.0
2120000000,211,2120000000,,0.00241655329229,-0.0348301260952,0.694304175895,0.0,0.0,0.0
2130000000,212,2130000000,,0.0266931198064,-0.0180462588618,0.686754936332,0.0,0.0,0.0
2141000000,213,2141000000,,-0.000288860428529,-0.0118639170743,0.659967345243,0.0,0.0,0.0
2151000000,214,2151000000,,-0.00432453076886,0.017205494148,0.640318590162,0.0,0.0,0.0
2161000000,215,2161000000,,-0.0242360971098,-0.0250157296438,0.647558564502,0.0,0.0,0.0
2173000000,216,2173000000,,0.02994454892,-0.0309296859803,0.661779475005,0.0,0.0,0.0
2182000000,217,2182000000,,-0.0432602466377,-0.0345523752148,0.632472445021,0.0,0.0,0.0
2191000000,218,2191000000,,-0.0376112450987,-0.031370108902,0.655149589801,0.0,0.0,0.0
2202000000,219,2202000000,,0.0203884879899,0.0144842138824,0.665338172342,0.0,0.0,0.0
2212000000,220,2212000000,,0.0247311396746,-0.0320578943929,0.630101098453,0.0,0.0,0.0
2221000000,221,2221000000,,0.00341383108224,-0.000847230430627,0.62901794684,0.0,0.0,0.0
2232000000,222,2232000000,,0.0281535026371,-0.00195205289725,0.628415563502,0.0,0.0,0.0
2242000000,223,2242000000,,-0.00543871627502,-0.0256390494626,0.642246144213,0.0,0.0,0.0
2251000000,224,2251000000,,-0.04023305136,0.0118153783724,0.628334221275,0.0,0.0,0.0
2264000000,225,2264000000,,0.0357047165505,0.0188269774096,0.615523074459,0.0,0.0,0.0
2272000000,226,2272000000,,-0.0245633670288,-0.00708438934639,0.618765065354,0.0,0.0,0.0
2281000000,227,2281000000,,0.0100151466961,0.0229587512196,0.59960007207,0.0,0.0,0.0
2291000000,228,2291000000,,0.0110105290047,0.0214603171348,0.573113477375,0.0,0.0,0.0
2302000000,229,2302000000,,0.00890123297216,-0.00415758019865,0.610571909486,0.0,0.0,0.0
2312000000,230,2312000000,,0.00129004603503,-0.0174301166225,0.584351698922,0.0,0.0,0.0
2319000000,231,2319000000,,0.00548781781773,0.0241570387482,0.559620078113,0.0,0.0,0.0
2332000000,232,2332000000,,0.0192180206805,0.0163601790577,0.584133933513,0.0,0.0,0.0
2340000000,233,2340000000,,-0.00195383991236,-0.0121958596399,0.566267647264,0.0,0.0,0.0
2355000000,234,2355000000,,0.0157536802441,0.011456885837,0.563137135631,0.0,0.0,0.0
2364000000,235,2364000000,,-0.00504596872322,-0.0140564557448,0.566638060684,0.0,0.0,0.0
2373000000,236,2373000000,,0.00227600148486,0.00672810278512,0.531517457421,0.0,0.0,0.0
2381000000,237,2381000000,,0.0293156214158,0.029452031307,0.523619341973,0.0,0.0,0.0
2392000000,238,2392000000,,0.00690924747391,-0.0194289680902,0.516620738785,0.0,0.0,0.0
2416000000,239,2416000000,,-0.0132264991161,4.97706209676e-05,0.536248847776,0.0,0.0,0.0
2416000000,240,2416000000,,-0.0171343233572,0.0220963911854,0.506661989413,0.0,0.0,0.0
2431000000,241,2431000000,,-0.00216476009368,0.0209648342404,0.496873878764,0.0,0.0,0.0
2438000000,242,2438000000,,-0.0101141337723,0.0341563372092,0.488668118103,0.0,0.0,0.0
2440000000,243,2440000000,,-0.0245548238642,-0.00868461994363,0.483669297425,0.0,0.0,0.0
2452000000,244,2452000000,,-0.00268297040502,-0.0188795816489,0.50700370754,0.0,0.0,0.0
2464000000,245,2464000000,,0.00300113604486,-0.00938584281036,0.479869094425,0.0,0.0,0.0
2472000000,246,2472000000,,-0.00602067403183,0.0182577407053,0.484019259749,0.0,0.0,0.0
2482000000,247,2482000000,,-0.0012008374128,-0.0207534723102,0.495269735761,0.0,0.0,0.0
2491000000,248,2491000000,,-0.0289260487742,0.0180875160252,0.489647939783,0.0,0.0,0.0
2501000000,249,2501000000,,-0.00964608254717,-0.0144457530364,0.488916885964,0.0,0.0,0.0
2511000000,250,2511000000,,-0.0330392434981,0.0134518668018,0.465535646443,0.0,0.0,0.0
2522000000,251,2522000000,,-0.0146300427939,-0.00656697002359,0.48632015763,0.0,0.0,0.0
2530000000,252,2530000000,,0.00015782859055,-0.0366746958877,0.483572963285,0.0,0.0,0.0
2541000000,253,2541000000,,-0.00220620250964,-0.0331129625226,0.453587205879,0.0,0.0,0.0
2552000000,254,2552000000,,0.0163400855674,0.0154032755508,0.490477005399,0.0,0.0,0.0
2563000000,255,2563000000,,-0.0451829270537,0.0104259956969,0.441737672741,0.0,0.0,0.0
2571000000,256,2571000000,,-0.017986448461,-0.0379434096207,0.503862855558,0.0,0.0,0.0
2581000000,257,2581000000,,0.0160754535347,-0.0374857155259,0.47481125237,0.0,0.0,0.0
2592000000,258,2592000000,,-0.0242599730202,0.00812040472692,0.466571079656,0.0,0.0,0.0
2601000000,259,2601000000,,0.00116485051175,0.0217902714646,0.479962626193,0.0,0.0,0.0
2615000000,260,2615000000,,0.010197662825,-0.00206781759018,0.445203809126,0.0,0.0,0.0
2621000000,261,2621000000,,0.0132830587102,-0.0152108277932,0.44349088768,0.0,0.0,0.0
2634000000,262,2634000000,,0.0101066413646,-0.00935210244661,0.430261189018,0.0,0.0,0.0
2643000000,263,2643000000,,0.019796265381,0.00501781786428,0.412200657833,0.0,0.0,0.0
2651000000,264,2651000000,,-0.0311468250276,-0.00918955042807,0.444698331632,0.0,0.0,0.0
2662000000,265,2662000000,,-0.0516955888103,-0.0367301922127,0.394600878754,0.0,0.0,0.0
2672000000,266,2672000000,,0.0183999651623,0.0095548318321,0.394414241879,0.0,0.0,0.0
2697000000,267,2697000000,,0.00493254804524,0.0124788824247,0.425227646062,0.0,0.0,0.0
2697000000,268,2697000000,,0.0279113517804,-0.00550770388975,0.403101836676,0.0,0.0,0.0
2701000000,269,2701000000,,0.029905362306,-0.0462367543634,0.402586515557,0.0,0.0,0.0
2713000000,270,2713000000,,-0.00951723391712,-0.051683299485,0.411132686473,0.0,0.0,0.0
2722000000,271,2722000000,,-0.00467692343433,-0.0071805602276,0.399456124435,0.0,0.0,0.0
2736000000,272,2736000000,,-0.0316719175105,-0.0097940302937,0.400143337293,0.0,0.0,0.0
2741000000,273,2741000000,,-0.0028010619326,0.0215280066083,0.392410187416,0.0,0.0,0.0
2753000000,274,2753000000,,-0.0121263771283,-0.0351526315245,0.368662655366,0.0,0.0,0.0
2762000000,275,2762000000,,-0.00738694053328,0.00992268765206,0.365898004494,0.0,0.0,0.0
2772000000,276,2772000000,,0.0220382799548,-0.0389021217778,0.341051785071,0.0,0.0,0.0
2781000000,277,2781000000,,-0.000432204792956,0.00828625168612,0.389904385275,0.0,0.0,0.0
2791000000,278,2791000000,,-0.00394884278761,-0.00151616339488,0.355476154772,0.0,0.0,0.0
2802000000,279,2802000000,,-0.066022325242,0.0285352423789,0.345112828695,0.0,0.0,0.0
2811000000,280,2811000000,,0.0159547924753,0.0291424181591,0.328504941244,0.0,0.0,0.0
2821000000,281,2821000000,,0.00814770371285,-0.0137131772479,0.314275108081,0.0,0.0,0.0
2831000000,282,2831000000,,0.00921756447733,-0.005983546017,0.317873599771,0.0,0.0,0.0
2842000000,283,2842000000,,0.0261327645252,-0.0139269004545,0.292633896417,0.0,0.0,0.0
2852000000,284,2852000000,,-0.0410010578968,0.0103630826795,0.281182661572,0.0,0.0,0.0
2862000000,285,2862000000,,-0.0135234307903,0.0292688840494,0.256618434603,0.0,0.0,0.0
2871000000,286,2871000000,,0.0156695762235,0.0279495677508,0.284121625783,0.0,0.0,0.0
2882000000,287,2882000000,,0.0130138690182,0.00565490574111,0.305595269281,0.0,0.0,0.0
2892000000,288,2892000000,,0.0171939144386,0.00469810989581,0.293594272823,0.0,0.0,0.0
2902000000,289,2902000000,,-0.0276936685158,-0.00329003449952,0.255869241253,0.0,0.0,0.0
2912000000,290,2912000000,,-0.0398758163099,-0.0220495021831,0.263685746583,0.0,0.0,0.0
2920000000,291,2920000000,,0.00693360177028,-0.0330980529224,0.275488900732,0.0,0.0,0.0
2932000000,292,2932000000,,-0.00969116686863,-0.0257236000291,0.253136939266,0.0,0.0,0.0
2941000000,293,2941000000,,0.0254348535533,0.0266970244312,0.259438396876,0.0,0.0,0.0
2951000000,294,2951000000,,-0.0278450989338,0.00924845105811,0.280211733155,0.0,0.0,0.0
2965000000,295,2965000000,,0.0144252113173,0.0157187120873,0.229708242367,0.0,0.0,0.0
2972000000,296,2972000000,,0.0266457643891,-0.0204092137878,0.270978802124,0.0,0.0,0.0
2981000000,297,2981000000,,0.0197047387976,0.0115470420798,0.25615922671,0.0,0.0,0.0
2991000000,298,2991000000,,0.00773310736087,-0.0161893388947,0.247267167729,0.0,0.0,0.0
3001000000,299,3001000000,,-0.017516191807,-0.00543081547824,0.240648943614,0.0,0.0,0.0
3012000000,300,3012000000,,-0.026848908661,-0.0119285545062,0.196869106546,0.0,0.0,0.0
3021000000,301,3021000000,,0.0163296405364,0.00700199115469,0.245624491141,0.0,0.0,0.0
3031000000,302,3031000000,,-0.00398870980857,-0.0033290142415,0.222054943179,0.0,0.0,0.0
3042000000,303,3042000000,,-0.0222109316635,-0.00862483012721,0.236335140398,0.0,0.0,0.0
3049000000,304,3049000000,,-0.00352828897923,-0.0198445893239,0.228535884161,0.0,0.0,0.0
3061000000,305,3061000000,,0.0281147835344,0.0137527183389,0.216064104659,0.0,0.0,0.0
3072000000,306,3072000000,,0.028610521296,-0.0129577860974,0.211259811376,0.0,0.0,0.0
3082000000,307,3082000000,,0.0247836357342,0.03451476896,0.233376653997,0.0,0.0,0.0
3091000000,308,3091000000,,0.0295790292639,0.0425551231901,0.202761644128,0.0,0.0,0.0
3102000000,309,3102000000,,-0.0174364180208,0.00281949761475,0.191818212751,0.0,0.0,0.0
3111000000,310,3111000000,,0.00609715861434,-0.0295881049321,0.215821573168,0.0,0.0,0.0
3121000000,311,3121000000,,0.0127078030017,-0.0520010691094,0.173407069674,0.0,0.0,0.0
3131000000,312,3131000000,,0.00637117997025,-0.0137892388533,0.223496560277,0.0,0.0,0.0
3141000000,313,3141000000,,-0.000256969699141,-0.0164958959879,0.205149217793,0.0,0.0,0.0
3151000000,314,3151000000,,0.0180462634419,0.00382095495547,0.170814013989,0.0,0.0,0.0
3160000000,315,3160000000,,-0.000916627016156,0.00152596830148,0.158365622204,0.0,0.0,0.0
3171000000,316,3171000000,,-0.0313674404367,0.0228186172915,0.212102582788,0.0,0.0,0.0
3181000000,317,3181000000,,-0.0334765282174,-0.00515759672838,0.196281505914,0.0,0.0,0.0
3191000000,318,3191000000,,-0.0239389321505,-0.0136473928838,0.202401387983,0.0,0.0,0.0
3200000000,319,3200000000,,0.00853884762614,8.12916245872e-05,0.172828901429,0.0,0.0,0.0
3212000000,320,3212000000,,-0.0285539585305,0.00747638988274,0.189167661121,0.0,0.0,0.0
3221000000,321,3221000000,,-0.0243828942557,0.0146219383965,0.177353855387,0.0,0.0,0.0
3231000000,322,3231000000,,-0.0119104112884,0.011986182975,0.167804579289,0.0,0.0,0.0
3241000000,323,3241000000,,-0.031390311734,-0.00980405883545,0.167416556039,0.0,0.0,0.0
3251000000,324,3251000000,,-0.00552827557565,-0.0260218512375,0.181906574135,0.0,0.0,0.0
3261000000,325,3261000000,,0.0198663271524,-0.00116465551818,0.163494710827,0.0,0.0,0.0
3271000000,326,3271000000,,0.02283616324,-0.0355928913286,0.174279681832,0.0,0.0,0.0
3282000000,327,3282000000,,0.0193431890952,-0.0068901012638,0.160899524639,0.0,0.0,0.0
3292000000,328,3292000000,,0.0208576327507,0.0018895492942,0.164254292529,0.0,0.0,0.0
3300000000,329,3300000000,,0.0223772657687,-0.0216460501006,0.180112612195,0.0,0.0,0.0
3312000000,330,3312000000,,0.0124918175505,0.00861632471533,0.148465741212,0.0,0.0,0.0
3321000000,331,3321000000,,0.0229223444486,-0.011313359924,0.183304825937,0.0,0.0,0.0
3331000000,332,3331000000,,0.0269605691436,-0.00328302474374,0.168629050376,0.0,0.0,0.0
3341000000,333,3341000000,,-0.0126218417512,0.0151657719907,0.175327895329,0.0,0.0,0.0
3352000000,334,3352000000,,0.0177339548272,0.0161029792363,0.140224469268,0.0,0.0,0.0
3359000000,335,3359000000,,-0.00299103419239,0.00227654584405,0.184950076884,0.0,0.0,0.0
3371000000,336,3371000000,,-0.00759795533001,0.0038412086145,0.175395560933,0.0,0.0,0.0
3381000000,337,3381000000,,-0.00349133070006,0.00483677212436,0.158341333321,0.0,0.0,0.0
3393000000,338,3393000000,,0.012509498284,0.0103062281612,0.15428154165,0.0,0.0,0.0
3401000000,339,3401000000,,0.0012595784106,-0.00583778847217,0.145136498155,0.0,0.0,0.0
3412000000,340,3412000000,,0.014160152086,-0.0054391705826,0.164070934281,0.0,0.0,0.0
3421000000,341,3421000000,,-0.00558194766506,0.0130747865365,0.178523946321,0.0,0.0,0.0
3431000000,342,3431000000,,0.00790102583088,0.00517243131016,0.122078290958,0.0,0.0,0.0
3441000000,343,3441000000,,0.0466397046182,0.0367458278905,0.17183421992,0.0,0.0,0.0
3452000000,344,3452000000,,0.016882115977,0.00355985980148,0.118835578821,0.0,0.0,0.0
3461000000,345,3461000000,,-0.0163371048497,-0.00786795139193,0.130668639093,0.0,0.0,0.0
3471000000,346,3471000000,,-0.0125709144583,-0.00474764314143,0.125115595994,0.0,0.0,0.0
3486000000,347,3486000000,,-0.00697833137044,-0.0236309460628,0.0918824812003,0.0,0.0,0.0
3492000000,348,3492000000,,-0.00511657914332,-0.0223241447231,0.138394065678,0.0,0.0,0.0
3502000000,349,3502000000,,0.00188250239692,-0.0144846789503,0.176841427984,0.0,0.0,0.0
3511000000,350,3511000000,,0.000299158527317,0.0100402767703,0.124837002065,0.0,0.0,0.0
3523000000,351,3523000000,,-0.0300339817136,0.0303388052421,0.120422953998,0.0,0.0,0.0
3531000000,352,3531000000,,-0.0282508130956,-0.0381486901393,0.117199536577,0.0,0.0,0.0
3541000000,353,3541000000,,0.0010762972647,0.00308335268049,0.0981347008992,0.0,0.0,0.0
3552000000,354,3552000000,,0.0353260632916,0.0105692218313,0.125312172405,0.0,0.0,0.0
3561000000,355,3561000000,,-0.0195106646192,0.00733988059479,0.115099570149,0.0,0.0,0.0
3572000000,356,3572000000,,0.0526641648788,0.022358871488,0.117105538322,0.0,0.0,0.0
3581000000,357,3581000000,,-0.00307668083269,0.0260710140352,0.135926613004,0.0,0.0,0.0
3591000000,358,3591000000,,0.0100252151364,0.0300616284486,0.134134029455,0.0,0.0,0.0
3600000000,359,3600000000,,-0.0223182508388,0.0119797439885,0.109185469729,0.0,0.0,0.0
3611000000,360,3611000000,,0.00178355463885,-0.0102490820808,0.113445179267,0.0,0.0,0.0
3621000000,361,3621000000,,-0.00772499936839,0.00337124718487,0.108872782648,0.0,0.0,0.0
3631000000,362,3631000000,,0.00118848966849,-0.011171261301,0.102633908747,0.0,0.0,0.0
3640000000,363,3640000000,,-0.0304613043921,0.0200343214513,0.0995418227758,0.0,0.0,0.0
3651000000,364,3651000000,,-0.00735116187904,-0.00128443841593,0.0932674954541,0.0,0.0,0.0
3662000000,365,3662000000,,0.027909779262,0.000959840660653,0.104392414867,0.0,0.0,0.0
3671000000,366,3671000000,,-0.0143525254551,0.0365333645563,0.0834308435552,0.0,0.0,0.0
3680000000,367,3680000000,,0.0283751613653,-0.02094014138,0.0863590379382,0.0,0.0,0.0
3691000000,368,3691000000,,0.00932423860026,-0.0301938519447,0.0986284022371,0.0,0.0,0.0
3701000000,369,3701000000,,0.00665381860508,0.0138245980123,0.0862978174818,0.0,0.0,0.0
3711000000,370,3711000000,,-0.0121751460994,0.0291312419021,0.0986035178195,0.0,0.0,0.0
3722000000,371,3722000000,,0.0356796899872,-0.0268971616237,0.0833376195583,0.0,0.0,0.0
3732000000,372,3732000000,,0.0208779639794,0.0155165395315,0.0811147708353,0.0,0.0,0.0
3743000000,373,3743000000,,-0.00135776767345,-0.016083474152,0.11220843972,0.0,0.0,0.0
3752000000,374,3752000000,,0.00373474352192,-0.0124391206199,0.0816479678759,0.0,0.0,0.0
3761000000,375,3761000000,,0.0229484116011,-0.0122939073732,0.0607519040564,0.0,0.0,0.0
3771000000,376,3771000000,,-0.00719777470749,-0.0157353636105,0.0889682460486,0.0,0.0,0.0
3780000000,377,3780000000,,0.00669157270414,0.032533715516,0.0210080252779,0.0,0.0,0.0
3791000000,378,3791000000,,0.0287068439298,0.0035112029462,0.0971894114293,0.0,0.0,0.0
3808000000,379,3808000000,,0.0151279630132,0.00395296523202,0.029997625398,0.0,0.0,0.0
3821000000,380,3821000000,,0.0209743316704,0.0137481978342,0.0649167122357,0.0,0.0,0.0
3822000000,381,3822000000,,-0.00443563028062,0.00185270636101,0.0357471792213,0.0,0.0,0.0
3831000000,382,3831000000,,0.00831678363162,-0.0396377822088,0.088037916139,0.0,0.0,0.0
3849000000,383,3849000000,,0.0131969365686,0.0169042344227,0.0149131112514,0.0,0.0,0.0
3853000000,384,3853000000,,0.0262280060431,0.00263928683053,0.078756215932,0.0,0.0,0.0
3864000000,385,3864000000,,-0.00591775931438,0.034797184029,0.0722019940824,0.0,0.0,0.0
3871000000,386,3871000000,,-0.0167640868239,0.00739981140733,0.0617259717451,0.0,0.0,0.0
3883000000,387,3883000000,,0.0139872473769,-0.000463379657703,0.055842779109,0.0,0.0,0.0
3890000000,388,3890000000,,0.0245992104279,-0.00936291910056,0.0808298036894,0.0,0.0,0.0
3901000000,389,3901000000,,-0.00946412113311,0.0220997226274,0.0322774753588,0.0,0.0,0.0
3912000000,390,3912000000,,0.00440101310174,-0.0218840118256,0.0408560760004,0.0,0.0,0.0
3923000000,391,3923000000,,-0.00221985344926,-0.0132603240039,0.0594272542954,0.0,0.0,0.0
3934000000,392,3934000000,,-0.0183208438226,0.00521251178686,0.0765857193534,0.0,0.0,0.0
3947000000,393,3947000000,,0.0217371615268,-0.0189884813199,0.0422840708274,0.0,0.0,0.0
3952000000,394,3952000000,,-0.00810111364865,0.00276737225803,0.0704280117192,0.0,0.0,0.0
3961000000,395,3961000000,,-0.00109942712664,0.0208826000345,0.0204932133945,0.0,0.0,0.0
3974000000,396,3974000000,,0.0323548190903,0.00219444083185,0.0365385221498,0.0,0.0,0.0
3981000000,397,3981000000,,0.0426120936779,0.0264133807813,0.0416478646541,0.0,0.0,0.0
3992000000,398,3992000000,,-0.0176838293796,-0.0378580231402,0.0611656023962,0.0,0.0,0.0
4002000000,399,4002000000,,0.0113050856256,-0.0490540928885,0.0227153676617,0.0,0.0,0.0
4011000000,400,4011000000,,0.0262495708708,0.00167115046976,0.0487996427949,0.0,0.0,0.0
4021000000,401,4021000000,,0.00796755624086,0.0223752215122,0.0416637711725,0.0,0.0,0.0
4031000000,402,4031000000,,-0.00192861191501,0.0080022079658,0.0642439170423,0.0,0.0,0.0
4041000000,403,4041000000,,0.0247747073831,-0.00789428305059,0.0290039493503,0.0,0.0,0.0
4051000000,404,4051000000,,0.0263445889484,0.0159996984141,0.0540074294989,0.0,0.0,0.0
4059000000,405,4059000000,,0.0250749083557,-0.0259420660579,0.0769589455546,0.0,0.0,0.0
4074000000,406,4074000000,,-0.0304347666309,0.00142518243091,0.0177815615936,0.0,0.0,0.0
4081000000,407,4081000000,,0.0102054652989,-0.0372386912362,0.0456501786593,0.0,0.0,0.0
4092000000,408,4092000000,,-0.0121360837418,-0.0352087242955,0.0568689229557,0.0,0.0,0.0
4102000000,409,4102000000,,0.0279179492312,0.00409168820862,0.035267285661,0.0,0.0,0.0
4110000000,410,4110000000,,-0.00412675307921,0.00134173444261,0.0365729917878,0.0,0.0,0.0
4122000000,411,4122000000,,0.00244127055036,-0.00209522065922,0.0390064131967,0.0,0.0,0.0
4130000000,412,4130000000,,0.0106586322355,0.00416812114937,0.0338543789112,0.0,0.0,0.0
4142000000,413,4142000000,,0.0497974860788,0.000810909531521,0.0479933506113,0.0,0.0,0.0
4152000000,414,4152000000,,-0.00967046690915,0.00582116839158,0.0503775894493,0.0,0.0,0.0
4162000000,415,4162000000,,0.00877124039039,0.0199556508239,0.0884513837336,0.0,0.0,0.0
4173000000,416,4173000000,,-0.0217278673583,0.0039440767524,0.0652533294136,0.0,0.0,0.0
4181000000,417,4181000000,,-0.00127575002959,-0.00807243373656,0.0686553143661,0.0,0.0,0.0
4191000000,418,4191000000,,-0.00400668643585,-0.0560307448164,0.0374695623348,0.0,0.0,0.0
4201000000,419,4201000000,,0.00499361689057,0.0336772096348,0.0332254207808,0.0,0.0,0.0
4211000000,420,4211000000,,-0.012766005721,-0.017975378575,0.0635853020927,0.0,0.0,0.0
4221000000,421,4221000000,,-0.0216017608665,-0.0226799867945,0.0496020281883,0.0,0.0,0.0
4231000000,422,4231000000,,0.00450368599471,-0.0257974119538,0.0518717300684,0.0,0.0,0.0
4242000000,423,4242000000,,0.0452044346096,-0.0121576114782,0.00214354622238,0.0,0.0,0.0
4252000000,424,4252000000,,-0.00183999747275,-0.0102947174328,0.0817526908002,0.0,0.0,0.0
4262000000,425,4262000000,,0.0170420846081,-0.0335393984391,0.0381226678615,0.0,0.0,0.0
4272000000,426,4272000000,,0.033548780378,-0.021702916887,0.0344641180591,0.0,0.0,0.0
4286000000,427,4286000000,,-0.0231019834604,0.00229342312173,0.0509680076833,0.0,0.0,0.0
4293000000,428,4293000000,,-0.0415969191175,0.00180954294201,0.0244652389823,0.0,0.0,0.0
4301000000,429,4301000000,,-0.0309022155634,-0.00817689124563,0.0505400582535,0.0,0.0,0.0
4311000000,430,4311000000,,0.0252822741321,0.00217709528253,0.0475147190404,0.0,0.0,0.0
4321000000,431,4321000000,,-0.0252946788782,0.018664438026,0.0524528181904,0.0,0.0,0.0
4331000000,432,4331000000,,0.00221702818021,-0.0219550153221,0.0188343820026,0.0,0.0,0.0
4341000000,433,4341000000,,0.0235378446657,-0.00577621353524,0.0369136578416,0.0,0.0,0.0
4351000000,434,4351000000,,0.00986421097549,0.0127925992873,0.0325702362188,0.0,0.0,0.0
4373000000,436,4373000000,,-0.036583749024,-0.0169343007205,0.0597511216791,0.0,0.0,0.0
4384000000,437,4384000000,,0.0567933351787,-0.000972567025607,0.0416797166334,0.0,0.0,0.0
4391000000,438,4391000000,,-0.00601697229348,-0.0245297397196,0.0514462121997,0.0,0.0,0.0
4405000000,439,4405000000,,-0.000421435655116,-0.026916227127,-0.0135887327732,0.0,0.0,0.0
4413000000,440,4413000000,,0.00448020269333,-0.00488619563662,0.0549352171423,0.0,0.0,0.0
4421000000,441,4421000000,,-0.00272934584537,-0.00211567188815,0.000969901006766,0.0,0.0,0.0
4432000000,442,4432000000,,-0.0129527731888,-0.0141574812633,0.0404110009413,0.0,0.0,0.0
4441000000,443,4441000000,,-0.0100768188196,-0.0321226562452,-0.00814314386148,0.0,0.0,0.0
4452000000,444,4452000000,,0.00782530857232,0.00816379740977,0.0167182058134,0.0,0.0,0.0
4461000000,445,4461000000,,0.00592493701827,-0.00476257834563,0.027541813166,0.0,0.0,0.0
4471000000,446,4471000000,,-0.0242847472216,-0.00893468166148,0.0404316609882,0.0,0.0,0.0
4482000000,447,4482000000,,-0.0212325474849,0.00624495825599,0.037898836297,0.0,0.0,0.0
4492000000,448,4492000000,,0.0154786588282,-0.000577615123499,0.012374646608,0.0,0.0,0.0
4501000000,449,4501000000,,0.00220856587323,-0.0420202510021,0.0520366072834,0.0,0.0,0.0
4511000000,450,4511000000,,0.0266335037525,0.00380613999998,0.0501277563173,0.0,0.0,0.0
4521000000,451,4521000000,,-0.00222526989176,0.0321471993713,0.039856955799,0.0,0.0,0.0
4531000000,452,4531000000,,0.0105240629503,0.00375713778582,0.0947308909109,0.0,0.0,0.0
4542000000,453,4542000000,,0.00957413584933,0.0162205046493,0.0502833089417,0.0,0.0,0.0
4554000000,454,4554000000,,0.0143226132002,-0.0183859573671,0.0669793534742,0.0,0.0,0.0
4561000000,455,4561000000,,0.0211658284313,0.0403913759205,0.0644594117864,0.0,0.0,0.0
4572000000,456,4572000000,,0.00272875781847,0.00946465719692,0.060922954436,0.0,0.0,0.0
4582000000,457,4582000000,,-0.0155759563012,-0.0209542927863,0.0243452306911,0.0,0.0,0.0
4591000000,458,4591000000,,-0.0200480617268,-0.00407110527916,0.0688317008673,0.0,0.0,0.0
4602000000,459,4602000000,,-0.000916232422272,0.0123083699584,0.0152467011546,0.0,0.0,0.0
4615000000,460,4615000000,,-0.000667452585222,-0.0111024763673,0.0563085199156,0.0,0.0,0.0
4628000000,461,4628000000,,-0.0373156011487,-0.0180190022155,0.0111325771101,0.0,0.0,0.0
4632000000,462,4632000000,,-0.00243634718183,0.0295164400978,0.010814172959,0.0,0.0,0.0
4640000000,463,4640000000,,0.00294925474226,-0.0197659655994,0.0365593444363,0.0,0.0,0.0
4652000000,464,4652000000,,-0.0137731273284,0.0472481337979,-0.0116001832191,0.0,0.0,0.0
4661000000,465,4661000000,,-0.00314942179005,0.00244326194197,0.0366855930479,0.0,0.0,0.0
4671000000,466,4671000000,,-0.0150037248851,-0.0118414915071,-0.00523401454712,0.0,0.0,0.0
4682000000,467,4682000000,,-0.0252515664313,0.0295340403678,0.0526617763862,0.0,0.0,0.0
4691000000,468,4691000000,,-0.00536599434857,-0.0111336289922,0.0418055258367,0.0,0.0,0.0
4701000000,469,4701000000,,0.0196716668222,0.00608070422509,0.0325964878311,0.0,0.0,0.0
4711000000,470,4711000000,,-0.0192336572696,-0.00776733871382,0.0533469979484,0.0,0.0,0.0
4722000000,471,4722000000,,0.0213465919094,0.00591918229393,0.0335127726158,0.0,0.0,0.0
4734000000,472,4734000000,,0.0178888271912,-0.00334849643604,0.0286272508974,0.0,0.0,0.0
4742000000,473,4742000000,,-0.00541750258271,-0.00647583981738,-0.00642800952961,0.0,0.0,0.0
4755000000,474,4755000000,,-0.0159040707455,0.00100916521797,0.0638051821803,0.0,0.0,0.0
4761000000,475,4761000000,,-0.0162133990647,0.00860578376698,0.0316869651079,0.0,0.0,0.0
4777000000,476,4777000000,,0.0130814925008,-0.0293078367578,-0.028321917232,0.0,0.0,0.0
4791000000,477,4791000000,,0.000715006269318,-0.0157746730957,-0.0094641500294,0.0,0.0,0.0
4796000000,478,4796000000,,-0.0262898327767,-0.00261944518437,-0.0217061275973,0.0,0.0,0.0
4800000000,479,4800000000,,-0.00224777230109,0.0151373355494,0.0245117891159,0.0,0.0,0.0
4811000000,480,4811000000,,0.0265615002361,0.00548406605443,0.00645314026381,0.0,0.0,0.0
4821000000,481,4821000000,,0.00469521230483,0.0114151752602,0.0331356052293,0.0,0.0,0.0
4832000000,482,4832000000,,0.0326427120913,-0.012418841242,-0.00420967249249,0.0,0.0,0.0
4841000000,483,4841000000,,0.00778563468351,0.0470792139774,0.0355550291152,0.0,0.0,0.0
4850000000,484,4850000000,,0.0259609991846,0.029645250332,0.00192790542585,0.0,0.0,0.0
4862000000,485,4862000000,,-0.0179643442388,-0.0129040485097,0.0252834699956,0.0,0.0,0.0
4872000000,486,4872000000,,-0.0108716813226,-0.0126584543969,-0.0111170662967,0.0,0.0,0.0
4882000000,487,4882000000,,0.0247578065988,-0.0462764625145,-0.0151350119384,0.0,0.0,0.0
4892000000,488,4892000000,,0.000136498906654,-0.00784241069741,-0.0201277467696,0.0,0.0,0.0
4901000000,489,4901000000,,0.0366132308033,-0.000906154070603,-0.0572895964826,0.0,0.0,0.0
4911000000,490,4911000000,,-0.0103181491035,-0.0286880240075,-0.00459011051343,0.0,0.0,0.0
4921000000,491,4921000000,,0.0201464878097,-0.0109158397981,-0.0345769597708,0.0,0.0,0.0
4932000000,492,4932000000,,-0.0145849981889,0.0190034529748,0.0170501735534,0.0,0.0,0.0
4941000000,493,4941000000,,-0.0156574717834,0.0119828965235,-0.0305379377931,0.0,0.0,0.0
4952000000,494,4952000000,,0.0303245745495,0.0170334799213,-0.00368338090153,0.0,0.0,0.0
4959000000,495,4959000000,,-0.0152600816718,0.0147276083382,0.00618566713489,0.0,0.0,0.0
4972000000,496,4972000000,,-0.00456906287598,0.025663375402,0.0027859145042,0.0,0.0,0.0
4984000000,497,4984000000,,-0.0116451055642,-0.0140487308296,0.002178844401,0.0,0.0,0.0
4991000000,498,4991000000,,0.0180991828738,0.011841194634,0.0048194268588,0.0,0.0,0.0
5003000000,499,5003000000,,-0.0186034883132,-0.00528894167463,0.00794932644892,0.0,0.0,0.0
5012000000,500,5012000000,,-0.0120196956221,0.0119212713373,0.00497719627574,0.0,0.0,0.0
5022000000,501,5022000000,,0.00378922047269,0.0191373685408,0.0155070677238,0.0,0.0,0.0
5033000000,502,5033000000,,0.00402645562092,-0.000991408277188,0.0191514170631,0.0,0.0,0.0
5041000000,503,5041000000,,0.0193158610928,-0.0350206381846,0.00122017247302,0.0,0.0,0.0
5052000000,504,5052000000,,-0.0133691507713,0.00770670685641,-0.0119676999773,0.0,0.0,0.0
5062000000,505,5062000000,,-0.0146850151347,0.00730447115251,0.00804349825361,0.0,0.0,0.0
5072000000,506,5072000000,,0.00773762884162,0.0196243912333,0.0378265924444,0.0,0.0,0.0
5083000000,507,5083000000,,-0.00678428046388,-0.0402564193877,0.00666260045349,0.0,0.0,0.0
5092000000,508,5092000000,,0.00998676708646,-0.00451628600303,0.0546889345481,0.0,0.0,0.0
5103000000,509,5103000000,,0.0257719511298,-0.019657259611,0.0110849780704,0.0,0.0,0.0
5116000000,510,5116000000,,-0.0220225948547,0.02398291842,0.0380552891731,0.0,0.0,0.0
5121000000,511,5121000000,,0.00825654828563,0.00512314961533,-0.0207629111545,0.0,0.0,0.0
5132000000,512,5132000000,,0.0108983040676,-0.0222560798459,0.0337458581075,0.0,0.0,0.0
5142000000,513,5142000000,,1.62955560166e-05,-0.0139777473978,-0.0116697016564,0.0,0.0,0.0
5151000000,514,5151000000,,-0.0286609112122,-0.0334670237698,0.0173716576227,0.0,0.0,0.0
5162000000,515,5162000000,,0.0204444630065,-0.00620232264644,0.0386529934736,0.0,0.0,0.0
5171000000,516,5171000000,,0.00201312305946,-0.000293833472827,0.0152789743655,0.0,0.0,0.0
5181000000,517,5181000000,,0.00180312191026,0.0145704876095,0.000292533422785,0.0,0.0,0.0
5192000000,518,5192000000,,-0.00496942408014,0.0251679841024,0.0213157886295,0.0,0.0,0.0
5201000000,519,5201000000,,0.00189607165308,-0.00371237041866,0.0110008821955,0.0,0.0,0.0
5211000000,520,5211000000,,-0.0241424175144,-0.00480122824732,0.0233148825135,0.0,0.0,0.0
5221000000,521,5221000000,,-0.0139777472446,-0.00762407465749,-0.00685382795856,0.0,0.0,0.0
5232000000,522,5232000000,,0.004573629725,0.0176967845682,-0.011347053074,0.0,0.0,0.0
5241000000,523,5241000000,,-0.00303698163959,0.022708796341,-0.00167497126676,0.0,0.0,0.0
5254000000,524,5254000000,,0.0447803945841,-0.00246205238762,-0.0443918318615,0.0,0.0,0.0
5260000000,525,5260000000,,-0.0367852649322,-0.0454600949181,-0.0144960632184,0.0,0.0,0.0
5271000000,526,5271000000,,0.0259915577282,-0.00360438644924,0.0204953780925,0.0,0.0,0.0
5281000000,527,5281000000,,-0.00368709991122,-0.0116193566891,0.00164175840902,0.0,0.0,0.0
5292000000,528,5292000000,,-0.0107286471896,-0.0344696225109,-0.0227461393009,0.0,0.0,0.0
5302000000,529,5302000000,,-0.00911404118276,0.0258392170952,-0.0145154598295,0.0,0.0,0.0
5312000000,530,5312000000,,-0.00378121312446,0.0324174855395,-0.00514709242604,0.0,0.0,0.0
5321000000,531,5321000000,,-0.000611348085575,-0.0133597359628,-0.041680472418,0.0,0.0,0.0
5329000000,532,5329000000,,0.00876078294906,-0.00127868170882,-0.00187401124643,0.0,0.0,0.0
5341000000,533,5341000000,,0.0222522341315,-0.0187717526148,-0.0215616256516,0.0,0.0,0.0
5351000000,534,5351000000,,0.00983871616433,-0.0348726777063,-0.023392577074,0.0,0.0,0.0
5361000000,535,5361000000,,0.00626511960024,-0.00816330098003,-0.0607370027545,0.0,0.0,0.0
5372000000,536,5372000000,,0.0119620797364,-0.0050190194875,-0.0364925967296,0.0,0.0,0.0
5381000000,537,5381000000,,-0.0128488488386,-0.0132888975964,-0.00513012347342,0.0,0.0,0.0
5391000000,538,5391000000,,-0.0367000639092,0.0351455031356,-0.00405080317491,0.0,0.0,0.0
5410000000,539,5410000000,,0.011311682821,0.0314644153755,-0.0145205005227,0.0,0.0,0.0
5412000000,540,5412000000,,-0.00996114116108,-0.0112614114593,-0.0412315534303,0.0,0.0,0.0
5422000000,541,5422000000,,0.0450623361217,-0.00329453260429,-0.0452704829208,0.0,0.0,0.0
5431000000,542,5431000000,,-0.0242449311026,-0.0279549048833,-0.0251124057708,0.0,0.0,0.0
5441000000,543,5441000000,,0.01943902191,0.0347176652487,-0.0517509951518,0.0,0.0,0.0
5451000000,544,5451000000,,-0.0154196541529,0.0460625300697,-0.0218972487889,0.0,0.0,0.0
5461000000,545,5461000000,,-0.00487525353459,-0.00331128475004,0.0108524044887,0.0,0.0,0.0
5471000000,546,5471000000,,-0.0170360323187,0.0119993758711,-0.0158984836081,0.0,0.0,0.0
5481000000,547,5481000000,,0.00773189332892,-0.00102026792036,-0.0468850892754,0.0,0.0,0.0
5491000000,548,5491000000,,0.00743987880395,-0.0140303381887,-0.020114740787,0.0,0.0,0.0
5501000000,549,5501000000,,-0.00163265155998,-0.012296445392,-0.044700700655,0.0,0.0,0.0
5511000000,550,5511000000,,0.0033219200925,-0.01157724574,-0.0122623283363,0.0,0.0,0.0
5521000000,551,5521000000,,-0.0162767728554,0.0141217837713,0.00114877992514,0.0,0.0,0.0
5531000000,552,5531000000,,0.00439565382016,-0.00159581155099,-0.0129148314673,0.0,0.0,0.0
5541000000,553,5541000000,,-0.0130787506857,-0.019316712854,-0.017985747517,0.0,0.0,0.0
5551000000,554,5551000000,,0.0421989171334,-0.0240961787564,-0.0165862157037,0.0,0.0,0.0
5561000000,555,5561000000,,0.00689528147341,0.00220552713516,-0.00213305087879,0.0,0.0,0.0
5571000000,556,5571000000,,0.0137392864018,-0.0098878406723,-0.0273261069354,0.0,0.0,0.0
5581000000,557,5581000000,,-0.0337705441593,-0.0123069855751,-0.00327100387543,0.0,0.0,0.0
5592000000,558,5592000000,,-0.0102329573229,0.00997630451982,-0.00523368679345,0.0,0.0,0.0
5601000000,559,5601000000,,-0.0109291345781,-0.00256667268263,-0.0144167708508,0.0,0.0,0.0
5611000000,560,5611000000,,0.00823723937887,-0.008054855621,0.0129079920167,0.0,0.0,0.0
5622000000,561,5622000000,,0.00687964664278,0.0293077881617,-0.00334326442561,0.0,0.0,0.0
5632000000,562,5632000000,,-0.00374434845184,0.031020886511,0.00865733728907,0.0,0.0,0.0
5643000000,563,5643000000,,0.0186287491075,0.00253018934671,-0.0292176307815,0.0,0.0,0.0
5653000000,564,5653000000,,0.00536128655685,0.00339046793136,-0.0277917053351,0.0,0.0,0.0
5661000000,565,5661000000,,-0.00240255243593,-0.0300095506828,0.00962766927796,0.0,0.0,0.0
5671000000,566,5671000000,,0.017148106982,-0.0173386498338,0.0188927739049,0.0,0.0,0.0
5683000000,567,5683000000,,-0.011999046929,0.0207938921022,0.0179475915367,0.0,0.0,0.0
5691000000,568,5691000000,,0.00900502668281,0.011866206888,-0.0147228247506,0.0,0.0,0.0
5702000000,569,5702000000,,0.0305101103933,0.0119237792905,0.00526738353723,0.0,0.0,0.0
5711000000,570,5711000000,,-0.0109209588774,-0.00156590976988,-0.011745300911,0.0,0.0,0.0
5721000000,571,5721000000,,-0.00729396715764,-5.41063891391e-05,-0.0511328833505,0.0,0.0,0.0
5731000000,572,5731000000,,-0.02645893435,-0.0128077713489,0.0184884717408,0.0,0.0,0.0
5741000000,573,5741000000,,-0.00329905053964,-0.00443598216395,-7.20953797988e-05,0.0,0.0,0.0
5753000000,574,5753000000,,-0.0188532663059,0.00480249083843,-0.00982459834719,0.0,0.0,0.0
5761000000,575,5761000000,,-0.00476654779089,-0.0353952113632,-0.0228667928815,0.0,0.0,0.0
5771000000,576,5771000000,,-0.0378753600346,-0.0166484144852,-0.0199003710122,0.0,0.0,0.0
5781000000,577,5781000000,,-0.0122444319082,-0.00275652590662,0.0180049483402,0.0,0.0,0.0
5791000000,578,5791000000,,-0.00907997943525,0.048675129249,-0.0314430369975,0.0,0.0,0.0
5802000000,579,5802000000,,0.0317019153532,0.0122653156814,-0.00630509560166,0.0,0.0,0.0
5811000000,580,5811000000,,-0.00716339728858,0.0251534382252,-0.0158713947636,0.0,0.0,0.0
5822000000,581,5822000000,,0.0294400969626,-0.0052906300886,0.00596551646473,0.0,0.0,0.0
5831000000,582,5831000000,,-0.000534570132966,-0.00627043279883,0.0635508704133,0.0,0.0,0.0
5842000000,583,5842000000,,0.00828026536871,-0.0244605035401,-0.0055525459806,0.0,0.0,0.0
5851000000,584,5851000000,,0.0120014813418,0.0159896185359,-0.00437947364211,0.0,0.0,0.0
5861000000,585,5861000000,,0.00826081614819,0.00269389975888,0.0210977085798,0.0,0.0,0.0
5871000000,586,5871000000,,-0.0130260355249,0.0373561289954,-0.0300639856315,0.0,0.0,0.0
5885000000,587,5885000000,,0.0104763375567,-0.0434608580096,-0.00225724433597,0.0,0.0,0.0
5890000000,588,5890000000,,0.0180382896882,0.0228419641437,0.00789812054885,0.0,0.0,0.0
5901000000,589,5901000000,,0.0320394518456,-0.0182926431994,0.0219917595281,0.0,0.0,0.0
5912000000,590,5912000000,,-0.0472388158292,0.00728087273534,0.0326435911038,0.0,0.0,0.0
5921000000,591,5921000000,,-0.0336484527649,0.00543096190284,0.00600275965138,0.0,0.0,0.0
5931000000,592,5931000000,,0.0314267480531,0.00186671752469,-0.00741657802623,0.0,0.0,0.0
5942000000,593,5942000000,,0.0113493213385,0.0216183900455,-0.0048861813687,0.0,0.0,0.0
5951000000,594,5951000000,,-0.0200918440549,-0.0066135413275,0.00872810546999,0.0,0.0,0.0
5963000000,595,5963000000,,-0.0130085650908,0.0195296315508,0.031662872408,0.0,0.0,0.0
5971000000,596,5971000000,,0.0187001986235,0.0222677841732,-0.0194331644974,0.0,0.0,0.0
5981000000,597,5981000000,,0.0119121601048,0.029836305007,0.0512519270374,0.0,0.0,0.0
5991000000,598,5991000000,,-0.00231344603841,0.0299186375191,0.00718650867045,0.0,0.0,0.0
6001000000,599,6001000000,,-0.00121572384717,0.0281525032091,-0.0130206003753,0.0,0.0,0.0
6011000000,600,6011000000,,0.00781443247628,-0.0285303070283,0.0304344975647,0.0,0.0,0.0
6021000000,601,6021000000,,0.02736024757,0.00381923709658,0.02643207189,0.0,0.0,0.0
6031000000,602,6031000000,,0.021863035698,-0.0235227088625,-0.0143917543059,0.0,0.0,0.0
6041000000,603,6041000000,,-0.00266545992835,-0.0130054927243,0.0100656025406,0.0,0.0,0.0
6051000000,604,6051000000,,0.0236650794291,-0.0031895415515,0.0358120042367,0.0,0.0,0.0
6061000000,605,6061000000,,-0.00608893212568,-0.0101242197861,0.0053482992963,0.0,0.0,0.0
6072000000,606,6072000000,,-0.00199674377187,0.0451681881766,0.0183876712368,0.0,0.0,0.0
6082000000,607,6082000000,,0.00630413452731,0.0176263392468,0.0222505788301,0.0,0.0,0.0
6092000000,608,6092000000,,0.0167944326249,-0.0475839600431,0.033088530266,0.0,0.0,0.0
6101000000,609,6101000000,,0.0241086671686,-0.000340451014185,0.0205883952172,0.0,0.0,0.0
6111000000,610,6111000000,,-0.00303311333371,0.00920151036571,0.0181667205115,0.0,0.0,0.0
6121000000,611,6121000000,,-0.00345645237674,-0.013981764128,0.0423465904202,0.0,0.0,0.0
6131000000,612,6131000000,,0.00324891295305,-0.0223829050663,-3.95969252185e-05,0.0,0.0,0.0
6141000000,613,6141000000,,-0.016439065792,0.0144659727541,0.0151076110532,0.0,0.0,0.0
6152000000,614,6152000000,,0.00126484471319,-0.008231953721,-0.0111138349745,0.0,0.0,0.0
6166000000,615,6166000000,,0.0209170732049,0.00136136615465,-0.014319000985,0.0,0.0,0.0
6175000000,616,6175000000,,0.0127135707893,0.0103725418758,0.0347849727181,0.0,0.0,0.0
6183000000,617,6183000000,,0.01489242697,0.0203020521575,0.00520138250836,0.0,0.0,0.0
6191000000,618,6191000000,,-0.00302567289167,-0.0105633904621,-0.00557439072349,0.0,0.0,0.0
6211000000,619,6211000000,,0.00859509886684,0.0254259329836,0.0126671102824,0.0,0.0,0.0
6211000000,620,6211000000,,0.0341626656248,0.0269322383395,0.00937500996202,0.0,0.0,0.0
6221000000,621,6221000000,,0.0044919448249,0.00818812782445,0.018221937152,0.0,0.0,0.0
6233000000,622,6233000000,,-0.000506734167965,-0.0306582779893,0.00107728569055,0.0,0.0,0.0
6244000000,623,6244000000,,0.0287322089188,0.0151260595739,0.00858026648379,0.0,0.0,0.0
6253000000,624,6253000000,,0.00484007210027,0.0445082831375,0.00391563824742,0.0,0.0,0.0
6261000000,625,6261000000,,0.0320947087801,0.00168169779856,-0.0094372713713,0.0,0.0,0.0
6272000000,626,6272000000,,0.00934909122192,0.0305118532831,0.000776094725484,0.0,0.0,0.0
6282000000,627,6282000000,,0.0133854516449,0.00401790688738,0.0111560617988,0.0,0.0,0.0
6291000000,628,6291000000,,-0.00494009509254,0.0270396962345,-0.0184076745311,0.0,0.0,0.0
6302000000,629,6302000000,,0.00936941510983,-0.0382192473533,0.0268857243748,0.0,0.0,0.0
6312000000,630,6312000000,,0.00454637818201,-0.0384027682057,0.018789894454,0.0,0.0,0.0
6321000000,631,6321000000,,-0.0382918773664,-0.0321878611152,-0.0448029881472,0.0,0.0,0.0
6331000000,632,6331000000,,0.0156569812687,0.0206603432964,-0.0442094384077,0.0,0.0,0.0
6341000000,633,6341000000,,-0.00276477547248,0.00659991532126,-0.0477787092762,0.0,0.0,0.0
6351000000,634,6351000000,,0.00217260777382,0.0278459231259,-0.0552259044202,0.0,0.0,0.0
6361000000,635,6361000000,,0.0241991724432,-0.0180633507529,-0.0293093709485,0.0,0.0,0.0
6371000000,636,6371000000,,-0.00446274731087,-0.0516430808952,0.0317687225131,0.0,0.0,0.0
6381000000,637,6381000000,,-0.0106190262937,0.0176237602193,-0.0114285455229,0.0,0.0,0.0
6390000000,638,6390000000,,0.00184220016333,-0.000225240407865,-0.0277121680586,0.0,0.0,0.0
6401000000,639,6401000000,,0.0308142625018,-0.0398135782095,0.00296788713167,0.0,0.0,0.0
6411000000,640,6411000000,,0.0250479386214,-0.00738205622198,0.00296472103886,0.0,0.0,0.0
6422000000,641,6422000000,,0.00524713469777,8.01429194882e-05,-0.0553440532565,0.0,0.0,0.0
6431000000,642,6431000000,,-0.00749295864789,0.0322815555304,-0.00764871351275,0.0,0.0,0.0
6442000000,643,6442000000,,0.00500321755823,-0.0326715233233,-0.0207918445624,0.0,0.0,0.0
6452000000,644,6452000000,,-0.0107074554781,-0.0421631758513,-0.021583315327,0.0,0.0,0.0
6461000000,645,6461000000,,0.00963037140404,0.0460610645392,0.0100917170502,0.0,0.0,0.0
6472000000,646,6472000000,,0.00192919083523,0.0294505813713,0.0139432233598,0.0,0.0,0.0
6483000000,647,6483000000,,0.0070133261144,0.0342686818845,0.00220941895856,0.0,0.0,0.0
6492000000,648,6492000000,,-0.00341123076815,0.00221602550471,-0.00843588840535,0.0,0.0,0.0
6503000000,649,6503000000,,-0.0479675325392,0.00563877278208,-0.0234580428594,0.0,0.0,0.0
6515000000,650,6515000000,,0.00166294161107,0.021399692214,-0.0315097469772,0.0,0.0,0.0
6523000000,651,6523000000,,0.0157322125023,0.00440056278503,-0.0279459929208,0.0,0.0,0.0
6533000000,652,6533000000,,-0.00114796230059,-0.0122511234953,0.0056904295213,0.0,0.0,0.0
6546000000,653,6546000000,,-0.0414675804616,-0.0100343841951,-0.00695233333284,0.0,0.0,0.0
6552000000,654,6552000000,,-0.00958598184627,-0.00299320158092,-0.00343121246903,0.0,0.0,0.0
6562000000,655,6562000000,,0.0419567889018,-0.0397973410063,0.0268840269632,0.0,0.0,0.0
6571000000,656,6571000000,,0.019747239048,-0.0115081026948,-0.0465950556619,0.0,0.0,0.0
6581000000,657,6581000000,,0.0221558937673,-0.00190641435238,0.00850398296788,0.0,0.0,0.0
6592000000,658,6592000000,,0.0262091654564,0.0202988994694,0.00826035860418,0.0,0.0,0.0
6601000000,659,6601000000,,0.0113222017074,0.0088311041826,-0.0113821868553,0.0,0.0,0.0
6611000000,660,6611000000,,0.0178699355385,0.00640985348184,0.00497618525572,0.0,0.0,0.0
6621000000,661,6621000000,,-0.012816458351,0.022275749844,-0.0301584146177,0.0,0.0,0.0
6631000000,662,6631000000,,0.0253837804823,0.0154551562095,0.000174498289936,0.0,0.0,0.0
6641000000,663,6641000000,,-0.0129363424882,-0.0152846794873,-0.0115099088536,0.0,0.0,0.0
6652000000,664,6652000000,,-0.00566332839459,-0.0392441061765,0.0181629952775,0.0,0.0,0.0
6662000000,665,6662000000,,0.00445019137774,-0.0133667683943,0.0415736526566,0.0,0.0,0.0
6671000000,666,6671000000,,0.0201347002223,-0.0113831085181,0.0295586628461,0.0,0.0,0.0
6682000000,667,6682000000,,-0.0393877397674,-0.0104948935661,0.0296097157355,0.0,0.0,0.0
6693000000,668,6693000000,,-0.0164591363656,0.0113000781854,-0.00481950932508,0.0,0.0,0.0
6702000000,669,6702000000,,-0.00471166317979,-0.0111491969743,0.00770294690674,0.0,0.0,0.0
6712000000,670,6712000000,,-0.00729960523622,0.0313255074925,0.0093721236479,0.0,0.0,0.0
6722000000,671,6722000000,,-0.00141144203238,0.00867690559215,0.0318007842382,0.0,0.0,0.0
6732000000,672,6732000000,,-0.0121559753208,-0.0238759679346,-0.0214601968168,0.0,0.0,0.0
6742000000,673,6742000000,,0.000281020398346,-0.0220369988254,-0.0166279319494,0.0,0.0,0.0
6751000000,674,6751000000,,-0.0253009903844,-0.0310712190793,0.0439523170811,0.0,0.0,0.0
6763000000,675,6763000000,,0.0270613925047,0.0165816806586,0.0206710818805,0.0,0.0,0.0
6773000000,676,6773000000,,-0.0286644168348,0.0434028433947,0.0154495727105,0.0,0.0,0.0
6781000000,677,6781000000,,-0.0117029005299,0.0157324838207,0.00241367782934,0.0,0.0,0.0
6792000000,678,6792000000,,0.00824970979823,0.0279355361308,0.0283394506202,0.0,0.0,0.0
6801000000,679,6801000000,,-0.00580451376808,0.00266235301251,0.0107557077024,0.0,0.0,0.0
6812000000,680,6812000000,,-0.0130012101091,-0.0249598366475,7.80535333862e-05,0.0,0.0,0.0
6821000000,681,6821000000,,0.026782168286,-0.0442834609104,-0.000400835059159,0.0,0.0,0.0
6832000000,682,6832000000,,-0.0447027678472,-0.0267455144911,0.00409004929915,0.0,0.0,0.0
6840000000,683,6840000000,,-0.012560419495,0.0183468987957,0.017942570371,0.0,0.0,0.0
6852000000,684,6852000000,,-0.00069488210687,-0.0139454292846,0.0179771051089,0.0,0.0,0.0
6861000000,685,6861000000,,0.00623109124539,-0.0189159777756,-0.0503288145851,0.0,0.0,0.0
6871000000,686,6871000000,,-0.0107470058217,0.0353940356211,-0.00590949098628,0.0,0.0,0.0
6882000000,687,6882000000,,0.0165051184691,6.14269422066e-05,0.0108354111677,0.0,0.0,0.0
6891000000,688,6891000000,,0.0353284222566,-0.00343353949664,0.0546228486336,0.0,0.0,0.0
6901000000,689,6901000000,,0.00411873241442,0.0365314497555,-0.00592211753396,0.0,0.0,0.0
6912000000,690,6912000000,,-0.0414526949436,-0.038181010493,-0.0121814021295,0.0,0.0,0.0
6922000000,691,6922000000,,0.000456349543553,-0.00182366841127,0.0270790105267,0.0,0.0,0.0
6931000000,692,6931000000,,-0.000587457843742,0.0401583993539,-0.0280956499903,0.0,0.0,0.0
6942000000,693,6942000000,,-0.0113738552578,-0.0249669419203,0.0068975110498,0.0,0.0,0.0
6952000000,694,6952000000,,0.00248392873733,0.0374977039758,-0.00993367514953,0.0,0.0,0.0
6962000000,695,6962000000,,-0.0393813739861,0.00105269743426,0.0027898018219,0.0,0.0,0.0
6971000000,696,6971000000,,-0.00269418364481,-0.0153496830553,0.0162044619583,0.0,0.0,0.0
6982000000,697,6982000000,,-0.023613603511,-0.00693981193213,-0.0215119452029,0.0,0.0,0.0
6991000000,698,6991000000,,0.0369797325249,-0.0241175209545,-0.0226436032246,0.0,0.0,0.0
7001000000,699,7001000000,,-0.0467991680285,-0.0189662712009,-0.0380739270111,0.0,0.0,0.0
7011000000,700,7011000000,,0.017002758636,0.00222236134013,0.0035237256797,0.0,0.0,0.0
7022000000,701,7022000000,,-0.00531611872855,-0.0137873516415,-0.0136520090018,0.0,0.0,0.0
7031000000,702,7031000000,,-0.0209526427323,0.00879521632464,-0.0183987776761,0.0,0.0,0.0
7041000000,703,7041000000,,0.0176814434544,-0.0162750996331,-0.0120181274806,0.0,0.0,0.0
7052000000,704,7052000000,,-0.00203446827061,-0.015620437412,-0.00454184664083,0.0,0.0,0.0
7063000000,705,7063000000,,0.0227413345511,0.01615290567,0.00652349214842,0.0,0.0,0.0
7071000000,706,7071000000,,0.000823153509967,0.000605288488964,-0.0149122140165,0.0,0.0,0.0
7081000000,707,7081000000,,-0.0027234818024,0.0131673864952,0.0396966801927,0.0,0.0,0.0
7091000000,708,7091000000,,-0.0179586041193,0.0147626598574,-0.0182830609765,0.0,0.0,0.0
7101000000,709,7101000000,,-0.00334145166609,0.0385177524821,-0.0337123845958,0.0,0.0,0.0
7111000000,710,7111000000,,-0.016158680182,0.00145728339174,-0.0493278331866,0.0,0.0,0.0
7121000000,711,7121000000,,0.00652800239617,-0.023706446565,-0.045183072692,0.0,0.0,0.0
7131000000,712,7131000000,,0.00657428870486,-0.000699341716199,-0.00698901358702,0.0,0.0,0.0
7142000000,713,7142000000,,0.000806819435179,0.00181073526009,0.0198672761527,0.0,0.0,0.0
7152000000,714,7152000000,,-0.00322999592596,-0.0176644048632,0.0180933234869,0.0,0.0,0.0
7161000000,715,7161000000,,-0.0251060318451,0.00885119908311,-0.00405784092079,0.0,0.0,0.0
7171000000,716,7171000000,,-0.00136899816041,-0.0390807616618,0.00112075084919,0.0,0.0,0.0
7182000000,717,7182000000,,-0.0202321582686,-0.00472160292254,-0.0135008971429,0.0,0.0,0.0
7192000000,718,7192000000,,-0.00353149331705,0.00599978781916,0.0124578132601,0.0,0.0,0.0
7200000000,719,7200000000,,0.00214575758927,0.00400292992336,0.0204968350513,0.0,0.0,0.0
7211000000,720,7211000000,,-0.0329328529949,-0.0166104694909,-0.00105000421356,0.0,0.0,0.0
7221000000,721,7221000000,,0.0195824560254,-0.019614371846,-0.0123204831466,0.0,0.0,0.0
7231000000,722,7231000000,,0.00175107968871,-0.0115698338826,0.0382602025899,0.0,0.0,0.0
7240000000,723,7240000000,,0.0137168752224,-0.00697202107168,0.0402994910472,0.0,0.0,0.0
7252000000,724,7252000000,,0.0165270433446,0.0167682233728,-0.00116809396283,0.0,0.0,0.0
7261000000,725,7261000000,,-0.0104863926974,0.0204821490635,0.0176162756946,0.0,0.0,0.0
7271000000,726,7271000000,,-0.0197913515295,-0.0350696380302,-0.0067744082551,0.0,0.0,0.0
7281000000,727,7281000000,,0.01235197525,-0.0157441003923,-0.00181074223582,0.0,0.0,0.0
7291000000,728,7291000000,,0.0184206110166,0.00676700596778,0.00258632384467,0.0,0.0,0.0
7301000000,729,7301000000,,-0.00361789477441,-0.00237634339279,0.029915991538,0.0,0.0,0.0
7313000000,730,7313000000,,-0.019419723946,-0.00802685591159,-0.016804146868,0.0,0.0,0.0
7322000000,731,7322000000,,-0.0125189374434,-0.0157581082906,0.0189898471936,0.0,0.0,0.0
7332000000,732,7332000000,,-0.0265675858708,0.0252573029702,0.0528090315225,0.0,0.0,0.0
7344000000,733,7344000000,,0.0169120935361,0.012930965251,-0.00517251848956,0.0,0.0,0.0
7351000000,734,7351000000,,-0.0123480155983,-0.0141830808647,0.0186495016267,0.0,0.0,0.0
7361000000,735,7361000000,,0.00931251172208,-0.0182548495497,0.014205226303,0.0,0.0,0.0
7372000000,736,7372000000,,-0.0379749547607,0.013213276785,0.00870376535189,0.0,0.0,0.0
7381000000,737,7381000000,,0.00672284159178,-0.0234014126469,-0.00370288806841,0.0,0.0,0.0
7392000000,738,7392000000,,-0.0189873944576,0.00477728044755,0.0248419601342,0.0,0.0,0.0
7413000000,739,7413000000,,-0.0311952179998,0.0125071624683,-0.0158064925739,0.0,0.0,0.0
7413000000,740,7413000000,,-0.00388268423542,-0.0127457173284,0.0104577416237,0.0,0.0,0.0
7423000000,741,7423000000,,-0.009292184177,-0.0243535484879,0.0468313281065,0.0,0.0,0.0
7433000000,742,7433000000,,0.0133582851502,0.0200986166511,0.00339451192167,0.0,0.0,0.0
7448000000,743,7448000000,,0.053638265906,0.0300114054557,0.0238898617003,0.0,0.0,0.0
7459000000,744,7459000000,,0.00977364913189,-0.0193234361265,0.031754294815,0.0,0.0,0.0
7465000000,745,7465000000,,-0.0127143358228,-0.013761004317,-0.0210021659553,0.0,0.0,0.0
7471000000,746,7471000000,,0.0246142122019,-0.0125565375636,-0.0141901593251,0.0,0.0,0.0
7481000000,747,7481000000,,-0.00519352113094,0.0284489525952,-0.0179302553262,0.0,0.0,0.0
7491000000,748,7491000000,,-0.0330358342504,0.0275223489469,-0.02204617435,0.0,0.0,0.0
7502000000,749,7502000000,,0.0141140001507,-0.0012171350644,0.00263352298097,0.0,0.0,0.0
7513000000,750,7513000000,,0.0275609746875,-0.0176445547416,-0.0204528930994,0.0,0.0,0.0
7522000000,751,7522000000,,-0.0154871980974,-0.0272224759069,0.0126208453521,0.0,0.0,0.0
7532000000,752,7532000000,,-0.00666655438324,-0.00253591176432,-0.0269271433636,0.0,0.0,0.0
7541000000,753,7541000000,,0.00523682107678,-0.0204115244663,0.00889450473718,0.0,0.0,0.0
7552000000,754,7552000000,,0.0137127528574,0.0490559005387,-0.00372452181763,0.0,0.0,0.0
7560000000,755,7560000000,,-0.0119589258051,0.000523199595392,0.0171918152469,0.0,0.0,0.0
7571000000,756,7571000000,,0.0138853300755,-0.0113278510932,0.0204825027039,0.0,0.0,0.0
7581000000,757,7581000000,,-0.00489203442244,-0.00333328461881,0.0236748194165,0.0,0.0,0.0
7591000000,758,7591000000,,-0.000775654885766,-0.00528070876738,-0.00462750795721,0.0,0.0,0.0
7601000000,759,7601000000,,-0.0175961136054,-0.000584141563048,-0.00731194651266,0.0,0.0,0.0
7611000000,760,7611000000,,-0.00278012637189,0.00408625948642,0.0152955325644,0.0,0.0,0.0
7621000000,761,7621000000,,-0.00350595649234,-0.0325266399733,-0.0286171563323,0.0,0.0,0.0
7631000000,762,7631000000,,0.019862794402,0.00578041675715,0.0310557728827,0.0,0.0,0.0
7640000000,763,7640000000,,0.0147229907752,-0.0316061684503,-0.00343205374283,0.0,0.0,0.0
7651000000,764,7651000000,,0.0231299191825,-0.0205720233509,0.00754098579289,0.0,0.0,0.0
7661000000,765,7661000000,,-0.0272753814232,0.020363961173,0.0190777135761,0.0,0.0,0.0
7672000000,766,7672000000,,-0.00774541018844,-0.00807916344565,0.0321341415453,0.0,0.0,0.0
7682000000,767,7682000000,,-0.0187955866596,-0.0198880721634,-0.00146170991609,0.0,0.0,0.0
7693000000,768,7693000000,,0.0207223649968,-0.00322268382732,0.0207894104931,0.0,0.0,0.0
7702000000,769,7702000000,,0.00507007753255,0.0264246201373,0.0406051252728,0.0,0.0,0.0
7711000000,770,7711000000,,0.0106378039546,-0.0231873557607,0.0270382582115,0.0,0.0,0.0
7721000000,771,7721000000,,0.0285288117324,0.0323922512625,0.0629930282581,0.0,0.0,0.0
7731000000,772,7731000000,,0.0228410390738,0.0535527419563,0.0440983946945,0.0,0.0,0.0
7741000000,773,7741000000,,0.0234348118125,0.0352307486874,0.00867483805287,0.0,0.0,0.0
7751000000,774,7751000000,,-0.00661817249636,-0.00184278676124,0.0467435095348,0.0,0.0,0.0
7761000000,775,7761000000,,0.0182041732328,-0.00227880999023,0.0177762029805,0.0,0.0,0.0
7771000000,776,7771000000,,-0.0219279477882,-0.00389403569255,0.0151599378651,0.0,0.0,0.0
7781000000,777,7781000000,,0.0158056530329,0.00120837746933,0.0442249669358,0.0,0.0,0.0
7792000000,778,7792000000,,-0.0094508387958,-0.00302028076063,0.0151676171344,0.0,0.0,0.0
7801000000,779,7801000000,,0.0307318915636,-0.0188774930676,0.0254714256637,0.0,0.0,0.0
7810000000,780,7810000000,,-0.0425131749063,0.0114912852066,0.0363150022625,0.0,0.0,0.0
7821000000,781,7821000000,,0.0282792083174,0.0252896568196,0.0204553906375,0.0,0.0,0.0
7830000000,782,7830000000,,0.0157347999699,0.0251815558549,0.0178260175885,0.0,0.0,0.0
7841000000,783,7841000000,,-0.00279067145521,0.0158248717584,0.0528130063151,0.0,0.0,0.0
7854000000,784,7854000000,,0.00369495722459,-0.00524104244716,0.00671639596869,0.0,0.0,0.0
7862000000,785,7862000000,,0.0154319673468,0.0131556603048,0.0404108791783,0.0,0.0,0.0
7871000000,786,7871000000,,0.0455008680168,0.0194152587713,0.00599350339752,0.0,0.0,0.0
7881000000,787,7881000000,,-0.0264000799706,-0.0215879385456,0.047095892354,0.0,0.0,0.0
7892000000,788,7892000000,,0.0065372265712,0.00739348659532,0.026462728273,0.0,0.0,0.0
7902000000,789,7902000000,,0.00989149778831,0.0182084425399,0.0577917539785,0.0,0.0,0.0
7912000000,790,7912000000,,-0.0284981199568,0.0491127817685,0.00778721026323,0.0,0.0,0.0
7921000000,791,7921000000,,0.0369924909894,-0.0026137848968,0.018582662645,0.0,0.0,0.0
7933000000,792,7933000000,,0.0161536357536,-0.00743219119029,0.023213263837,0.0,0.0,0.0
7942000000,793,7942000000,,-0.0303024635787,0.00245357139125,0.0186990513198,0.0,0.0,0.0
7948000000,794,7948000000,,0.0152776517063,0.0257297850172,0.0223143112139,0.0,0.0,0.0
7963000000,795,7963000000,,0.000426024861986,0.00130461387385,0.0159933201101,0.0,0.0,0.0
7972000000,796,7972000000,,0.0202340650813,0.0172926526557,0.0435188665763,0.0,0.0,0.0
7982000000,797,7982000000,,-0.0322672220371,-0.00218948393095,0.024936869081,0.0,0.0,0.0
7991000000,798,7991000000,,-0.0186778466755,-0.0176217037144,0.0169179717298,0.0,0.0,0.0
8000000000,799,8000000000,,0.00632879349422,0.00799072868287,0.00393063152065,0.0,0.0,0.0
8011000000,800,8011000000,,-0.0162149281775,-0.00243662666318,0.0381332277471,0.0,0.0,0.0
8021000000,801,8021000000,,0.0142959896533,-0.00642355748921,-0.0286029906308,0.0,0.0,0.0
8031000000,802,8031000000,,-0.013562943707,-0.0403289682165,0.00511216399349,0.0,0.0,0.0
8042000000,803,8042000000,,0.0294559647951,0.00611495706117,0.0480381458662,0.0,0.0,0.0
8052000000,804,8052000000,,-0.0179981959395,0.00833861986696,0.0272205923446,0.0,0.0,0.0
8061000000,805,8061000000,,-0.0209450533644,0.00752750841986,-0.00183942504718,0.0,0.0,0.0
8071000000,806,8071000000,,0.0105502131181,0.0495387014817,-0.0321016211326,0.0,0.0,0.0
8081000000,807,8081000000,,-0.0232054007073,-0.000675497412367,0.0208358602366,0.0,0.0,0.0
8091000000,808,8091000000,,0.0138402138816,0.00689557284229,-0.00742331423606,0.0,0.0,0.0
8102000000,809,8102000000,,-0.0244506607145,0.0322538435652,0.00900098754788,0.0,0.0,0.0
8110000000,810,8110000000,,-0.0355111200629,-0.00767767451407,0.00974030849136,0.0,0.0,0.0
8122000000,811,8122000000,,0.0122567983063,0.0247218571923,-0.0388463709932,0.0,0.0,0.0
8132000000,812,8132000000,,0.00229108522308,-0.0121397039034,-0.00582248293936,0.0,0.0,0.0
8141000000,813,8141000000,,-0.000997497613123,-0.0110538841923,-0.00532910477011,0.0,0.0,0.0
8151000000,814,8151000000,,-0.0214935172784,0.00931305201527,-0.0261421167383,0.0,0.0,0.0
8161000000,815,8161000000,,0.00168854023927,-0.0185591084294,-0.00780686827901,0.0,0.0,0.0
8171000000,816,8171000000,,-0.0112802465307,-0.00635653523992,-0.00660673052378,0.0,0.0,0.0
8181000000,817,8181000000,,0.0114218573252,-0.0020140883502,-0.00345378847664,0.0,0.0,0.0
8191000000,818,8191000000,,-0.0074960393018,-0.00386055717312,-0.0075155332831,0.0,0.0,0.0
8202000000,819,8202000000,,0.00321944183987,-0.00534223970218,-0.0171948110787,0.0,0.0,0.0
8212000000,820,8212000000,,-0.0223106646079,0.0184743013282,-0.0186800878119,0.0,0.0,0.0
8222000000,821,8222000000,,0.0028960391142,0.00297444090986,-0.00919827217228,0.0,0.0,0.0
8230000000,822,8230000000,,0.0386270318295,-0.00931329214176,-0.00348790271267,0.0,0.0,0.0
8241000000,823,8241000000,,0.0130082513926,-0.00649037286084,-0.006855920225,0.0,0.0,0.0
8251000000,824,8251000000,,0.00116061449179,0.0136692641053,0.0414003128361,0.0,0.0,0.0
8262000000,825,8262000000,,-0.0235084740516,-0.000469949964216,0.031271377235,0.0,0.0,0.0
8271000000,826,8271000000,,0.00772249532444,0.00712993519528,-0.0363467129563,0.0,0.0,0.0
8284000000,827,8284000000,,-0.0361864374743,-0.016987164539,-0.0151518395373,0.0,0.0,0.0
8294000000,828,8294000000,,-0.0512587543874,-0.0136696348453,0.00261830570011,0.0,0.0,0.0
8302000000,829,8302000000,,-0.00184340192348,-0.0181366781677,0.00243088055399,0.0,0.0,0.0
8311000000,830,8311000000,,0.00784596099154,-0.02013687039,-0.00850233509203,0.0,0.0,0.0
8322000000,831,8322000000,,0.00960683921082,-0.0052504752943,-0.0300866811432,0.0,0.0,0.0
8334000000,832,8334000000,,-0.0118714917371,0.00391483140875,0.0283243827483,0.0,0.0,0.0
