%time,field.header.seq,field.header.stamp,field.header.frame_id,field.roll,field.pitch,field.jaw,field.roll_dot,field.pitch_dot,field.jaw_dot
320000000,7,320000000,,-7.795014767e-08,-2.47974003287e-06,1.25239112094e-05,-6.94837217452e-05,-0.00253606261685,-1.36730513987e-05
360000000,8,360000000,,1.52400673414e-06,-1.99490114028e-06,9.20019465411e-06,0.00163693691138,-0.00220009498298,-0.000108504711534
400000000,9,400000000,,-9.97539828518e-08,1.26424851032e-07,6.18962985754e-06,8.03992261655e-10,-1.05286090957e-09,-5.18878898181e-11
440000000,10,440000000,,3.11410586207e-09,1.5666994102e-07,5.57085650144e-06,1.46780558628e-12,-1.24566829074e-10,1.74664883251e-12
480000000,11,480000000,,-1.13709930361e-07,-7.26854523236e-07,5.57465955353e-06,-2.8631032007e-12,-1.12548069822e-11,2.20948950867e-13
520000000,12,520000000,,-5.00982741869e-06,-2.42707101279e-05,5.87906970395e-06,-9.56988377432e-11,-4.43758724211e-10,5.4962362786e-12
560000000,13,560000000,,-1.48398967212e-05,-7.05613783794e-05,6.50348829367e-06,-1.76137396335e-10,-7.97614307935e-10,1.18643064123e-11
600000000,14,600000000,,-2.60718807112e-05,-0.00012488719949,7.37053323974e-06,-1.81944709299e-10,-9.90822202063e-10,1.74209500992e-11
640000000,15,640000000,,-3.63090075552e-05,-0.000178793663508,8.45718204801e-06,-1.51914994473e-10,-8.86618944929e-10,1.98814107538e-11
680000000,16,680000000,,-4.4859782065e-05,-0.000228533404879,9.70181281446e-06,-1.09323335107e-10,-6.65510757614e-10,1.97230894811e-11
720000000,17,720000000,,-5.05738789798e-05,-0.000270798918791,1.11040790216e-05,-6.53873483136e-11,-5.25975707433e-10,1.94130388848e-11
763000000,18,763000000,,-5.46597075299e-05,-0.000301174179185,1.23917716337e-05,-5.32343856496e-11,-3.7667888253e-10,1.75633379368e-11
800000000,19,800000000,,-6.07139118074e-05,-0.000338896614267,1.44462073877e-05,-3.602108542e-11,-2.05054584423e-10,1.40140260507e-11
840000000,20,840000000,,-6.42426166451e-05,-0.000360479869414,1.61822172231e-05,-1.78517600008e-11,-1.10740493164e-10,1.07906652363e-11
880000000,21,880000000,,-6.73583344906e-05,-0.000375124509446,1.80799142981e-05,-1.08485000497e-11,-4.03138876448e-11,6.83575114915e-12
920000000,22,920000000,,-7.01691242284e-05,-0.00038274153485,1.99417845579e-05,-5.02617001838e-12,-7.26504576984e-12,3.29628598722e-12
961000000,23,961000000,,-7.2908718721e-05,-0.00038328053779,2.19449939323e-05,-3.16344628444e-12,3.27724587919e-12,2.44107728822e-12
1000000000,24,1000000000,,-7.54740613047e-05,-0.000377610762371,2.38849825109e-05,-7.75314708268e-12,2.78540246423e-11,6.06432005307e-12
1040000000,25,1040000000,,-7.76702581788e-05,-0.000364838866517,2.59030821326e-05,-9.46925871048e-12,8.32135749196e-11,1.04332350051e-11
1082000000,26,1082000000,,-7.93907020125e-05,-0.000346104003256,2.78918396361e-05,-1.23859256185e-11,1.53854123885e-10,1.42529356373e-11
1123000000,27,1123000000,,-8.09309567558e-05,-0.000317184691085,3.01552936435e-05,-7.96647990631e-12,2.91436652589e-10,1.97388199535e-11
1160000000,28,1160000000,,-8.13798833406e-05,-0.00029157177778,3.17596313835e-05,-4.03888381073e-12,3.90121213112e-10,2.2927187926e-11
1200000000,29,1200000000,,-8.09901612229e-05,-0.000243813294219,3.42041239492e-05,1.69262069638e-11,6.61696142323e-10,3.00382704821e-11
1251000000,30,1251000000,,-7.84701260272e-05,-0.000180552087841,3.68151995644e-05,4.90173041046e-11,9.59067936179e-10,3.62523656927e-11
1282000000,31,1282000000,,-7.58581081755e-05,-0.000137285693199,3.83339684049e-05,8.90846008073e-11,1.27437049802e-09,4.19036923216e-11
1323000000,32,1323000000,,-7.05482379999e-05,-7.05003476469e-05,4.04293168685e-05,1.35258942935e-10,1.5442657153e-09,4.61444424338e-11
1367000000,33,1367000000,,-5.96730897087e-05,-4.93543484481e-06,4.23702877015e-05,4.18419937587e-10,1.54567325605e-09,4.69815505943e-11
1400000000,34,1400000000,,-2.81740340142e-05,6.22807419859e-05,4.46349476988e-05,8.34968261199e-10,1.27726806909e-09,4.61813087771e-11
1440000000,35,1440000000,,1.44978521348e-05,0.000119911383081,4.66987585241e-05,1.14169884657e-09,1.39981715108e-09,5.02257090085e-11
1480000000,36,1480000000,,6.67467611493e-05,0.000181230614544,4.88628174935e-05,0.00131077936385,0.0015527093783,5.27472911926e-05
1520000000,37,1520000000,,0.000124612211948,0.000249787117355,5.09860510647e-05,0.00154851935804,0.00177318707574,5.32388003194e-05
1562000000,38,1562000000,,0.000190996914171,0.000328316178638,5.32805170224e-05,0.00149017223157,0.00182663334999,5.33527199877e-05
1600000000,39,1600000000,,0.000243944814429,0.000392244022805,5.52461715415e-05,0.00135976495221,0.00161762721837,5.29474491486e-05
1640000000,40,1640000000,,0.000292258802801,0.00045264326036,5.73535071453e-05,9.19261999854e-10,1.18610554711e-09,4.53609858009e-11
1681000000,41,1681000000,,0.000323709042277,0.000493353640195,5.92654614593e-05,3.64261204533e-10,4.80083361953e-10,2.80838217265e-11
1722000000,42,1722000000,,0.000345963431755,0.000525451963767,6.14496384514e-05,1.5486899263e-10,2.42900199954e-10,1.91926457366e-11
1760000000,43,1760000000,,0.000359622528777,0.000548721291125,6.35108081042e-05,7.14144021696e-11,1.37022476698e-10,1.39336207503e-11
1800000000,44,1800000000,,0.00036677767639,0.000567089824472,6.551068509e-05,2.2938862615e-11,8.32901594916e-11,1.04058758138e-11
1840000000,45,1840000000,,0.000367924192687,0.000580159306992,6.74984039506e-05,-6.63967839043e-12,3.59948112982e-11,6.76971282851e-12
1880000000,46,1880000000,,0.000363160652341,0.000587841554079,6.94283444318e-05,-2.25863928255e-11,1.16176044479e-11,5.64489687632e-12
1920000000,47,1920000000,,0.000350989110302,0.00058834644733,7.14425841579e-05,-7.8737891207e-11,-1.8864102988e-11,9.89307507443e-12
1961000000,48,1961000000,,0.000331324292347,0.000579838408157,7.34441564418e-05,-1.89924104221e-10,-1.0605491485e-10,1.60638516378e-11
2000000000,49,2000000000,,0.000305159279378,0.000564050977118,7.52866471885e-05,-3.69408004186e-10,-2.45439252256e-10,2.27843993672e-11
2040000000,50,2040000000,,0.000269887095783,0.000537760555744,7.72165803937e-05,-6.2488225705e-10,-4.96618413059e-10,3.03953598402e-11
2080000000,51,2080000000,,0.000226214629947,0.000503150338773,7.9086428741e-05,-9.69029079201e-10,-8.02828081792e-10,3.79468713396e-11
2120000000,52,2120000000,,0.000170292070834,0.000453699380159,8.10917335912e-05,-1.43321920998e-09,-1.29335386845e-09,4.67622329747e-11
2160000000,53,2160000000,,0.000106648723886,0.000396803749027,8.29914788483e-05,-0.00168592960108,-0.00157394213602,4.7423189244e-05
2200000000,54,2200000000,,3.22631130985e-05,0.000325037050061,8.48441268317e-05,-0.00210292218253,-0.00200902647339,4.74771295558e-05
2240000000,55,2240000000,,-5.56445556867e-05,0.000241228219238,8.67434428073e-05,-0.00225496012717,-0.00225069141015,4.75272827316e-05
2280000000,56,2280000000,,-0.000146306265378,0.000149140832946,8.86441557668e-05,-0.00228163134307,-0.00225597457029,4.73846412206e-05
2320000000,57,2320000000,,-0.000232650301768,6.13162046648e-05,9.05341439648e-05,-0.00206148577854,-0.00221956614405,4.71828352602e-05
2363000000,58,2363000000,,-0.000309139344608,-2.18593959289e-05,9.23661282286e-05,-0.00188806501683,-0.00200296170078,4.67474783363e-05
2400000000,59,2400000000,,-0.000376740703359,-9.82350320555e-05,9.42270416999e-05,-0.0015073280083,-0.00183702004142,4.63480282633e-05
2440000000,60,2440000000,,-0.000432934350101,-0.000168894199305,9.61601617746e-05,-1.12500064819e-09,-1.44899503507e-09,4.38105628164e-11
2480000000,61,2480000000,,-0.000469373684609,-0.000221307316679,9.79573524091e-05,-4.17174572664e-10,-6.90307200291e-10,2.8010715275e-11
2520000000,62,2520000000,,-0.00049022276653,-0.000257928622887,9.96469825623e-05,-2.04659997283e-10,-3.96921051582e-10,2.02103941221e-11
2560000000,63,2560000000,,-0.000504044059198,-0.000291784672299,0.000101376062958,-1.14097391257e-10,-3.49437673242e-10,1.78544141277e-11
2600000000,64,2600000000,,-0.000512456928845,-0.000322480569594,0.000102978723589,-6.18891743409e-11,-3.04459180089e-10,1.60283696038e-11
2640000000,65,2640000000,,-0.000515288265888,-0.000353886222001,0.000104589867988,2.36584710156e-12,-3.14253595368e-10,1.58241024451e-11
2684000000,66,2684000000,,-0.000511299411301,-0.000386797561077,0.000106286817754,7.52392662062e-11,-2.84097773084e-10,1.49729655757e-11
2720000000,67,2720000000,,-0.000500016263686,-0.000414759881096,0.000107760009996,1.62423477446e-10,-2.86983603548e-10,1.5608996734e-11
2760000000,68,2760000000,,-0.000480206799693,-0.000440372532466,0.000109244472696,2.68727151642e-10,-2.7096680455e-10,1.64863400709e-11
2800000000,69,2800000000,,-0.000450429273769,-0.000463457836304,0.000110742796096,4.45468439914e-10,-2.70565791993e-10,1.89552956664e-11
2840000000,70,2840000000,,-0.000409225467592,-0.000482524425024,0.000112253466796,6.7254185554e-10,-2.38921993301e-10,2.18453709983e-11
2880000000,71,2880000000,,-0.000359587313142,-0.000495597429108,0.000113669804705,1.02703667793e-09,-1.83145582033e-10,2.60067245517e-11
2920000000,72,2920000000,,-0.000297524296911,-0.000502454349771,0.000115101342089,1.3867523796e-09,-7.14932210655e-11,2.96521383836e-11
2960000000,73,2960000000,,-0.000224194067414,-0.000502133741975,0.000116514696856,1.98878535862e-09,1.03724584477e-10,3.50230851265e-11
3000000000,74,3000000000,,-0.000137680777698,-0.000493572733831,0.000117946881801,0.00223128008656,0.000316989549901,3.48015673808e-05
3040000000,75,3040000000,,-3.34437427227e-05,-0.000475769105833,0.000119345066196,0.00273938127793,0.000557186373044,3.48310095433e-05
3085000000,76,3085000000,,7.73447463871e-05,-0.000448581762612,0.000120705284644,0.00285305897705,0.00080894358689,3.47400346072e-05
3127000000,77,3127000000,,0.00018345733406,-0.000415112619521,0.000122012046631,0.00268353288993,0.000957673997618,3.41024642694e-05
3160000000,78,3160000000,,0.000296057085507,-0.00036746513797,0.000123479301692,0.00255349162035,0.00122276612092,3.40323822456e-05
3200000000,79,3200000000,,0.000389002845623,-0.000318110513035,0.000124795958982,0.00217853905633,0.00134445086587,3.36109587806e-05
3240000000,80,3240000000,,0.000466590572614,-0.000261709210463,0.000126132930745,0.0017376736505,0.00143827043939,3.31757073582e-05
3280000000,81,3280000000,,0.000527423573658,-0.000202469105716,0.000127483581309,1.17616394402e-09,1.42342493348e-09,3.1476560941e-11
3320000000,82,3320000000,,0.000562426634133,-0.00014946309966,0.000128701634821,4.8515391704e-10,9.48356060348e-10,2.29106594807e-11
3360000000,83,3360000000,,0.000582407636102,-9.50011817622e-05,0.000129982843646,2.17786483292e-10,9.55493573152e-10,2.17485075088e-11
3403000000,84,3403000000,,0.000589807052165,-4.4025353418e-05,0.000131099717692,7.95997018299e-11,1.03642172622e-09,2.23157256563e-11
3441000000,85,3441000000,,0.000590504554566,1.43925753946e-05,0.000132279819809,-5.53166540351e-11,1.36225264402e-09,2.57459036729e-11
3482000000,86,3482000000,,0.000581647618674,9.39038582146e-05,0.00013371402747,-2.92284307868e-10,1.60864166432e-09,2.81701311583e-11
3521000000,87,3521000000,,0.000564196845517,0.000169886377989,0.000134963309392,-0.000554891536012,0.00197938270867,3.12188785756e-05
3561000000,88,3561000000,,0.000535529048648,0.000251346238656,0.00013618657249,-0.000907779263798,0.00224469858222,3.16983096127e-05
3600000000,89,3600000000,,0.000491902057547,0.000346789078321,0.000137488736073,-0.001201940584,0.00229638535529,3.15692886943e-05
3647000000,90,3647000000,,0.000447513273684,0.000418307434302,0.000138523377245,-0.00144386966713,0.00205087498762,3.11490330205e-05
3680000000,91,3680000000,,0.000380563695217,0.00050005025696,0.00013987805869,-0.00163218635134,0.00163952505682,3.04410277749e-05
3722000000,92,3722000000,,0.000307301437715,0.000557929743081,0.000141166237881,-0.00178440578748,0.00111109390855,2.97131591651e-05
3762000000,93,3762000000,,0.000238158347202,0.000591326854192,0.000142286226037,-0.00192507053725,0.000632548646536,2.92613112833e-05
3800000000,94,3800000000,,0.00015693147725,0.000607522379141,0.000143502678839,-1.84339898901e-09,1.4261632153e-10,2.76675609506e-11
3841000000,95,3841000000,,0.000103567945189,0.00060770183336,0.000144302030094,-1.82357040579e-09,-1.15913473264e-10,2.70377036732e-11
3880000000,96,3880000000,,5.97517318965e-05,0.000602723448537,0.00014494881907,-1.78701820008e-09,-2.93207957913e-10,2.66383807374e-11
3920000000,97,3920000000,,-5.46141673112e-05,0.000557316525374,0.000146841834066,-1.35252520295e-09,-8.04234345786e-10,2.33466388583e-11
3961000000,98,3961000000,,-0.000120395205158,0.000515676569194,0.000147901679156,-0.00181333837099,-0.00114959653001,2.67559080385e-05
4000000000,99,4000000000,,-0.000201672213734,0.000465610210085,0.000148952138261,-0.00232936884277,-0.00143701944035,2.72319066426e-05
4041000000,100,4041000000,,-0.000298653816571,0.000401198165491,0.000150069230585,-0.00249014794827,-0.00170227710623,2.73682690022e-05
4080000000,101,4080000000,,-0.000394963484723,0.000334617012413,0.000151130312588,-0.0024121820461,-0.00177915941458,2.7181707992e-05
4120000000,102,4120000000,,-0.000487299344968,0.000259854801698,0.000152239677846,-0.00210289447568,-0.00179662415758,2.67584146059e-05
4160000000,103,4160000000,,-0.000561160210054,0.000192267892999,0.000153273678734,-0.00164774386212,-0.0017278449377,2.63199253823e-05
4200000000,104,4200000000,,-0.000616837816779,0.000125013917568,0.000154316818225,-1.15921028332e-09,-1.57226476283e-09,2.54513805864e-11
4240000000,105,4240000000,,-0.000651904614642,6.8048160756e-05,0.000155293470016,-4.33665298116e-10,-9.3941199264e-10,1.66146298108e-11
4280000000,106,4280000000,,-0.000671225076076,1.76601006388e-05,0.000156179914484,-2.40865688506e-10,-7.57340523627e-10,1.34476960817e-11
4320000000,107,4320000000,,-0.000681927311234,-3.30288130499e-05,0.000157012793352,-1.07811176653e-10,-8.97311447368e-10,1.37243038115e-11
4361000000,108,4361000000,,-0.000684081111103,-8.91715972102e-05,0.000157829024829,4.55332403726e-11,-9.68055635653e-10,1.35357220224e-11
4402000000,109,4402000000,,-0.000675344781484,-0.000151586049469,0.0001586311555,2.81953571601e-10,-1.22921872681e-09,1.48624706292e-11
4440000000,110,4440000000,,-0.000657000637148,-0.000208727651625,0.000159307805006,5.32971389244e-10,-1.32897126637e-09,1.51950344668e-11
4480000000,111,4480000000,,-0.000625175656751,-0.000273962708889,0.000160013660206,9.27587118227e-10,-1.59188529025e-09,1.6597809932e-11
4522000000,112,4522000000,,-0.000575075217057,-0.000344200845575,0.000160739728017,0.00134477228858,-0.00163630384486,1.64684097399e-05
4561000000,113,4561000000,,-0.000527081894688,-0.000396459392505,0.00016125732509,0.00166090659332,-0.00160733051598,1.5822088244e-05
4600000000,114,4600000000,,-0.000432121130871,-0.000477574212709,0.000162012802321,0.0023125235457,-0.00180411327165,1.64405391843e-05
4643000000,115,4643000000,,-0.000328544556396,-0.000545711955056,0.000162680240464,0.00264049158432,-0.00139489141293,1.54001027113e-05
4680000000,116,4680000000,,-0.000229420606047,-0.000589742907323,0.000163236050867,0.00266173738055,-0.000996432267129,1.46112479342e-05
4720000000,117,4720000000,,-0.000119349519082,-0.000619207974523,0.00016381459136,0.00266698398627,-0.000445477897301,1.36232138175e-05
4760000000,118,4760000000,,-1.38762370625e-05,-0.000626556866337,0.000164361597854,0.0024898047559,6.08247537457e-05,1.3050463167e-05
4800000000,119,4800000000,,5.20337925991e-05,-0.000620993494522,0.000164705576026,0.00239238655195,0.000338068872225,1.24934385894e-05
4840000000,120,4840000000,,0.000169471488334,-0.000586246489547,0.000165356002981,0.00212425598875,0.000913338910323,1.23093914226e-05
4883000000,121,4883000000,,0.000246848532697,-0.000545686401892,0.000165823192219,0.00190969498362,0.00120200496167,1.22624232972e-05
4921000000,122,4921000000,,0.000324290100252,-0.000486276083393,0.000166362719028,0.00165510072839,0.00147169316188,1.22672981888e-05
4962000000,123,4962000000,,0.000384813727578,-0.000425463920692,0.000166849131347,0.00135744176805,0.00160440104082,1.21070752357e-05
5000000000,124,5000000000,,0.000431059452239,-0.000361456273822,0.000167303733178,0.00114399928134,0.00178349262569,1.2307005818e-05
5040000000,125,5040000000,,0.000471514038509,-0.000286500900984,0.00016780786973,0.000834491977002,0.00188763602637,1.23021909531e-05
5080000000,126,5080000000,,0.000499625341035,-0.000212287690374,0.000168292797753,5.34260413687e-10,1.70786718101e-09,1.13413202441e-11
5120000000,127,5120000000,,0.000514962361194,-0.000144153629662,0.00016875541769,1.75209013964e-10,1.28582466896e-09,8.98515810366e-12
5160000000,128,5160000000,,0.000519318156876,-8.16267420305e-05,0.000169193619513,6.37439363446e-12,1.20494947353e-09,8.42761450903e-12
5201000000,129,5201000000,,0.000516648986377,-1.52831180458e-05,0.000169632345205,-1.20116069868e-10,1.53677270909e-09,9.69476755819e-12
5240000000,130,5240000000,,0.000507607590407,5.66521157452e-05,0.000170072977198,-2.8399027574e-10,1.8161731008e-09,1.06541485703e-11
5280000000,131,5280000000,,0.000492982275318,0.000138167146361,0.000170523329871,-0.00045139566646,0.00211227731779,1.12207071652e-05
5320000000,132,5320000000,,0.000470476195915,0.00022504714434,0.000170966377482,-0.000696167815477,0.0024642709177,1.17031322588e-05
5360000000,133,5360000000,,0.000438073999248,0.000328118941979,0.000171439009137,-0.000905999389943,0.00248892465606,1.15495349746e-05
5400000000,134,5400000000,,0.000398173026042,0.000421731121605,0.000171892665094,-0.00105647346936,0.00224294723012,1.11713588922e-05
5440000000,135,5440000000,,0.000352321163518,0.000504321069457,0.000172336425749,-0.00121670297813,0.00176416570321,1.05365588752e-05
5480000000,136,5480000000,,0.000302207510686,0.000565700931475,0.000172749263584,-1.1659698762e-09,1.20722698504e-09,9.28469367362e-12
5520000000,137,5520000000,,0.000254692713497,0.000603294291068,0.000173110995092,-8.18994760898e-10,4.46347014904e-10,6.03734943982e-12
5560000000,138,5560000000,,0.000205751683097,0.00062184187118,0.000173464373802,-7.73115738095e-10,1.84573384354e-10,5.38728089916e-12
5600000000,139,5600000000,,0.000152567983605,0.000628891517408,0.000173802793142,-1.00063368702e-09,4.84262074885e-11,5.96971690831e-12
5640000000,140,5640000000,,9.29639863898e-05,0.000627761939541,0.000174143235199,-1.24060806073e-09,-1.0827008734e-10,6.70427558955e-12
5680000000,141,5680000000,,2.49731983786e-05,0.0006186090759,0.000174482600414,-1.59677615574e-09,-3.05453135008e-10,7.62815505206e-12
5720000000,142,5720000000,,-5.05443822476e-05,0.000599352526478,0.000174830915057,-0.00194031675346,-0.000589360715821,8.43704128783e-06
5762000000,143,5762000000,,-0.000133235647809,0.000570322212297,0.000175174718606,-0.0020435298793,-0.00085347390268,8.3607610577e-06
5803000000,144,5803000000,,-0.000219826892135,0.000531947414856,0.000175505992956,-0.00256496248767,-0.00119527010247,9.39798974287e-06
5840000000,145,5840000000,,-0.000323600805132,0.000477809575386,0.000175898050657,-0.00233290949836,-0.00142746756319,9.37014556257e-06
5880000000,146,5880000000,,-0.000408724707086,0.00041909434367,0.000176260204171,-0.00202558655292,-0.00150710227899,9.08938181965e-06
5920000000,147,5920000000,,-0.000478668021969,0.000355788302841,0.000176621833816,-0.00147698493674,-0.00163254886866,8.94119330042e-06
5961000000,148,5961000000,,-0.000525632174686,0.000294097611913,0.000176953937626,-9.42453115549e-10,-1.4997640907e-09,8.11317939914e-12
6000000000,149,6000000000,,-0.000552938028704,0.000227155716857,0.000177302455995,-2.2909057984e-10,-1.11692255444e-09,5.62861129233e-12
6053000000,150,6053000000,,-0.000556098530069,0.000148887847899,0.000177686350071,1.18857673703e-10,-1.24093402221e-09,5.75687717982e-12
6080000000,151,6080000000,,-0.000550791213755,0.000111187808216,0.000177856971277,2.57943749693e-10,-1.45821621444e-09,6.44041200579e-12
6121000000,152,6121000000,,-0.000531485537067,3.41648265021e-05,0.000178187154233,5.50346657135e-10,-1.81145076716e-09,7.39138351219e-12
6160000000,153,6160000000,,-0.000500926224049,-4.51206760772e-05,0.000178529779078,0.00103288365062,-0.00206125923432,1.04353712231e-05
6200000000,154,6200000000,,-0.000444684294052,-0.000135287002195,0.000179033275344,0.00177249452099,-0.00253730639815,1.49868501467e-05
6240000000,155,6240000000,,-0.000364061706932,-0.000237460801145,0.000179701906745,0.00235581048764,-0.00259177945554,1.83440206456e-05
6280000000,156,6280000000,,-0.000260823406279,-0.000341128878063,0.00018051241932,0.00258394656703,-0.00245069968514,2.10066318687e-05
6320000000,157,6320000000,,-0.000156152484124,-0.000428872939665,0.000181372452062,0.00270259100944,-0.00197096378542,2.28696608247e-05
6361000000,158,6361000000,,-5.12495571456e-05,-0.000498961366247,0.000182325355127,0.00255508394912,-0.00153035880066,2.47154748649e-05
6400000000,159,6400000000,,4.60206429125e-05,-0.000547400792129,0.000183315845788,0.0024037710391,-0.000972386042122,2.60742981482e-05
6440000000,160,6440000000,,0.000139765499625,-0.000577867671382,0.000184440868907,0.00211334438063,-0.000467953068437,2.75182792393e-05
6480000000,161,6480000000,,0.000217234352021,-0.000586395151913,0.00018553591508,1.66754554609e-09,-1.52029031725e-11,2.6070992587e-11
6520000000,162,6520000000,,0.000278100837022,-0.000578015460633,0.00018670380814,9.44409994652e-10,2.55235166335e-10,2.0120542385e-11
6560000000,163,6560000000,,0.000326634792145,-0.000558527943213,0.00018783788255,7.78512365684e-10,4.18233087052e-10,1.96079836395e-11
6600000000,164,6600000000,,0.000372888200218,-0.000528517586645,0.000189036494703,8.27282131688e-10,6.0384769407e-10,2.17007627146e-11
6640000000,165,6640000000,,0.000419744785177,-0.000488844700158,0.000190298567759,8.75072847517e-10,8.63467741752e-10,2.44785233749e-11
6680000000,166,6680000000,,0.00046354540973,-0.000441792974016,0.000191528684809,9.45088785009e-10,1.08956543787e-09,2.69921099361e-11
6720000000,167,6720000000,,0.000506432901602,-0.00038463177043,0.000192814375623,9.51127399063e-10,1.46057776984e-09,3.02902355975e-11
6760000000,168,6760000000,,0.000545887800399,-0.000318384467391,0.00019411946414,9.13542630432e-10,1.70599956384e-09,3.22639172323e-11
6800000000,169,6800000000,,0.000579834624659,-0.000242875466938,0.000195442116819,0.000779464840889,0.00201660231687,3.32865711243e-05
6840000000,170,6840000000,,0.000609058421105,-0.000156125883223,0.000196790599148,0.000697806535754,0.00239782221615,3.44198997482e-05
6880000000,171,6880000000,,0.000633723218925,-5.22555856151e-05,0.000198231733521,0.000508018827531,0.00259074335918,3.57294265996e-05
6920000000,172,6920000000,,0.000648137414828,4.67714744445e-05,0.000199669288122,0.000221596099436,0.00245452998206,3.63091639883e-05
6960000000,173,6960000000,,0.000649309309665,0.000140302683576,0.00020112490165,-0.000166272147908,0.00217952183448,3.63935578207e-05
7003000000,174,7003000000,,0.000636088661849,0.000210047655855,0.000202398281544,-5.35465616291e-10,1.79162806813e-09,3.513090166e-11
7044000000,175,7044000000,,0.000612592848483,0.000265921204118,0.000203593532206,-7.64566909783e-10,1.3302179358e-09,3.15521844763e-11
7080000000,176,7080000000,,0.000556400278583,0.000317997852108,0.000205355463549,-1.02755837172e-09,6.61834420601e-10,2.69187293983e-11
7120000000,177,7120000000,,0.000494631007314,0.000350407091901,0.000206743177841,-1.72725933556e-09,7.86729403845e-10,3.41726473507e-11
7160000000,178,7160000000,,0.000416229944676,0.000383181090001,0.000208159646718,-0.00214631785639,0.000818256638013,3.56772216037e-05
7200000000,179,7200000000,,0.000312655552989,0.00041718481225,0.000209608740988,-0.00282799825072,0.000813960738014,3.63917351933e-05
7243000000,180,7243000000,,0.000194765729248,0.000447204773081,0.000211036109249,-0.00313393422402,0.000680450524669,3.65358864656e-05
7282000000,181,7282000000,,6.56277043163e-05,0.000468661659397,0.000212489903788,-0.00327739608474,0.000408339314163,3.63071158063e-05
7320000000,182,7320000000,,-6.37993143755e-05,0.000478458649013,0.000213939230889,-0.00318825035356,8.79796934896e-05,3.59674122592e-05
7362000000,183,7362000000,,-0.000194978769287,0.000475234381156,0.000215472304262,-0.00284193013795,-0.000238557709963,3.54072544724e-05
7416000000,184,7416000000,,-0.000343855412211,0.000450066610938,0.000217417356907,-0.00249780481681,-0.000623006548267,3.50874943251e-05
7456000000,185,7456000000,,-0.000437091686763,0.000417792092776,0.000218826811761,-0.00214341375977,-0.000922385777812,3.50637310476e-05
7482000000,186,7482000000,,-0.000485153839691,0.000394661852624,0.000219634821406,-0.00201523583382,-0.00104183435906,3.51057824446e-05
7520000000,187,7520000000,,-0.000556669023354,0.000346193904988,0.000221045615035,-0.00156811182387,-0.001304512145,3.52027309418e-05
7560000000,188,7560000000,,-0.000611413328443,0.000292827084195,0.000222448274144,-1.04232933396e-09,-1.18970666652e-09,3.11192807634e-11
7600000000,189,7600000000,,-0.000644106999971,0.000241405679844,0.000223821625696,-4.51697262926e-10,-9.59265888945e-10,2.49327624519e-11
7640000000,190,7640000000,,-0.000768531754147,0.000187492580153,0.00022534665186,-0.00255430210382,-0.00136750226375,3.73176771973e-05
7680000000,191,7680000000,,-0.000935830408707,0.000126936181914,0.000227026699577,-0.00361905596219,-0.00169638660736,4.58821341454e-05
7720000000,192,7720000000,,-0.00104663870297,5.60402440897e-05,0.000229045283049,-0.000889736402314,-0.00179450260475,5.18719971296e-05
7764000000,193,7764000000,,-0.00100499985274,-8.26503855933e-06,0.000230918070883,0.00531925214455,-0.00181456468999,5.24272181792e-05
7800000000,194,7800000000,,-0.000456932437373,-8.13373408164e-05,0.000233010010561,0.0192092657089,-0.00165262073278,4.60383780592e-05
7840000000,195,7840000000,,0.000749387778342,-0.000146832404425,0.000234752238612,0.039113111794,-0.00142531981692,3.72796057491e-05
7880000000,196,7880000000,,0.00275872647762,-0.000198641922907,0.000236071588006,0.0605370998383,-0.00120325293392,2.9181210266e-05
7920000000,197,7920000000,,0.00573808746412,-0.000241633722908,0.000237128842855,0.0876122489572,-0.000923861458432,2.32432666962e-05
7960000000,198,7960000000,,0.00974671822041,-0.000273746380117,0.000237942789681,0.112509608269,-0.000701025302988,1.89928559848e-05
8000000000,199,8000000000,,0.0148898763582,-0.000297201768262,0.000238674052525,0.141671791673,-0.000459425529698,1.79561902769e-05
8048000000,200,8048000000,,0.0238190162927,-0.000315325713018,0.000239754546783,0.179336905479,-0.00025205250131,2.04262523766e-05
8085000000,201,8085000000,,0.0294304713607,-0.000319274055073,0.000240418099565,0.192783311009,-5.61861925235e-05,2.40084100369e-05
8121000000,202,8121000000,,0.0358728431165,-0.000319005397614,0.000241250483668,0.211630433798,4.94710220664e-05,2.80000349449e-05
8160000000,203,8160000000,,0.0454437471926,-0.000312035874231,0.000242695925408,0.241951912642,0.000291550182737,3.95889110223e-05
8201000000,204,8201000000,,0.0562673658133,-0.000297020975268,0.000244511145866,0.262149035931,0.000331808056217,4.12491826864e-05
8240000000,205,8240000000,,0.0662217959762,-0.000280254083918,0.000246274954407,0.260516256094,0.000504245108459,5.05754505866e-05
8280000000,206,8280000000,,0.0771623104811,-0.000257775362115,0.000248667085543,0.279337227345,0.000607479654718,6.40228754492e-05
8320000000,207,8320000000,,0.0882043540478,-0.00022812912357,0.000251748104347,0.273654013872,0.000824345159344,8.67177877808e-05
8361000000,208,8361000000,,0.0998210832477,-0.000192984283785,0.000255637569353,0.273809164762,0.000875415222254,9.89243708318e-05
8400000000,209,8400000000,,0.109987169504,-0.000157915565069,0.000259733060375,0.263483256102,0.000932480557822,0.000112568224722
8440000000,210,8440000000,,0.120706818998,-0.000121611272334,0.000264291011263,0.254420161247,0.00090243347222,0.000116264804092
8480000000,211,8480000000,,0.130496516824,-8.55580947245e-05,0.000269067269983,0.240972548723,0.000871654599905,0.000119106676721
8520000000,212,8520000000,,0.139894336462,-5.24815477547e-05,0.00027367612347,0.223958656192,0.000834789709188,0.000118910735182
8560000000,213,8560000000,,0.148453757167,-2.01109105546e-05,0.000278409163002,0.208735302091,0.000740315299481,0.000111793320684
8600000000,214,8600000000,,0.15617609024,8.53828441905e-06,0.000282763590803,0.185385659337,0.000737270456739,0.000113645051897
8640000000,215,8640000000,,0.163039982319,3.59388141078e-05,0.000287127186311,0.16845408082,0.000637309392914,0.000103858983493
8680000000,216,8680000000,,0.169365689158,6.23784580966e-05,0.000291465461487,0.140631556511,0.000635784759652,0.000105856976006
8720000000,217,8720000000,,0.174696594477,8.67503476911e-05,0.000295663630823,0.119229406118,0.000569002295379,9.96512972051e-05
8760000000,218,8760000000,,0.178902223706,0.000109130931378,0.000299651408568,0.0933702513576,0.000542840687558,9.78985190159e-05
8800000000,219,8800000000,,0.182119712234,0.00012890472135,0.000303311855532,0.0714873149991,0.000489235913847,9.09787413548e-05
8840000000,220,8840000000,,0.184509336948,0.000148406310473,0.000307000183966,0.0475738011301,0.00045159686124,8.56155384099e-05
8880000000,221,8880000000,,0.185911923647,0.000164046810823,0.000309953902615,0.0267616007477,0.000412809662521,8.01084242994e-05
8928000000,222,8928000000,,0.186581239104,0.000180236951564,0.000313038239256,0.00685337558389,0.0003694834013,6.90586311975e-05
8960000000,223,8960000000,,0.186332985759,0.000194847903913,0.00031595150358,-0.0164665840566,0.000344980478985,7.01245517121e-05
9001000000,224,9001000000,,0.185264468193,0.000208240177017,0.000318677950418,-0.0354875922203,0.000305035966448,6.25593529548e-05
9040000000,225,9040000000,,0.183534383774,0.000219907553401,0.000321072962834,-0.0503950491548,0.000277586717857,5.75447629672e-05
9080000000,226,9080000000,,0.181313529611,0.00022989998979,0.000323183601722,-0.0645190253854,0.000248550291872,5.15135870955e-05
9126000000,227,9126000000,,0.17844197154,0.000239361295826,0.000325209723087,-0.0735624283552,0.000212417289731,4.36294394603e-05
9160000000,228,9160000000,,0.175298333168,0.000247249903623,0.000326774636051,-0.0832222476602,0.000183503958397,3.7680962123e-05
9201000000,229,9201000000,,0.171957805753,0.00025380650186,0.000328138004988,-0.0888408049941,0.000154661480337,3.24291759171e-05
9244000000,230,9244000000,,0.167763620615,0.000260214525042,0.000329368107487,-0.0912233293056,0.000119683936646,2.09293757507e-05
9282000000,231,9282000000,,0.164524659514,0.00026418842026,0.000330250361003,-0.0979617312551,0.000110627996037,2.56150433415e-05
9320000000,232,9320000000,,0.16054880619,0.000268364732619,0.000331089191604,-0.0941241979599,8.6109896074e-05,1.44557798194e-05
9360000000,233,9360000000,,0.157036244869,0.000271272932878,0.00033140348387,-0.0921995043755,7.55322325858e-05,3.43970191352e-06
9402000000,234,9402000000,,0.152908682823,0.000273760815617,0.000331443065079,-0.0882842093706,4.56849920738e-05,-7.20483376426e-06
9444000000,235,9444000000,,0.149033874273,0.000275284604868,0.000331176590407,-0.0956855490804,2.66070328507e-05,-4.90491811433e-06
9480000000,236,9480000000,,0.146138489246,0.00027592285187,0.000330789247528,-0.095354065299,1.05713761513e-05,-1.27082521431e-05
9521000000,237,9521000000,,0.141900286078,0.000276661274256,0.000329987407895,-0.105734407902,5.97470989305e-06,-1.60871823027e-05
9560000000,238,9560000000,,0.137283548713,0.000276195030892,0.000329407048412,-0.121756978333,-2.8084634323e-05,-1.17222871268e-05
9600000000,239,9600000000,,0.132109820843,0.000274939200608,0.000329114700435,-0.140785053372,-5.10366589879e-05,-5.86578471484e-06
9640000000,240,9640000000,,0.126903414726,0.00027260259958,0.000329009373672,-0.157835319638,-7.90596823208e-05,-2.10109192267e-06
9680000000,241,9680000000,,0.119234576821,0.000268788455287,0.000329084636178,-0.178226619959,-0.000109742934001,1.27666385197e-06
9720000000,242,9720000000,,0.111514538527,0.000263757829089,0.000329167582095,-0.202308416367,-0.000112707202788,9.16453700484e-06
9760000000,243,9760000000,,0.103538885713,0.000258478132309,0.000329657981638,-0.215076968074,-0.000161926916917,1.54889130499e-05
9802000000,244,9802000000,,0.0945244506001,0.000251848396147,0.000330338196363,-0.235629931092,-0.00016094413877,1.94509084395e-05
9842000000,245,9842000000,,0.084549665451,0.000243828559178,0.000331097689923,-0.24227181077,-0.000209575533518,2.29084052989e-05
9880000000,246,9880000000,,0.0742692649364,0.000235420782701,0.000332114170305,-0.255327612162,-0.000214227315155,2.70193013421e-05
9920000000,247,9920000000,,0.0643306449056,0.000226183183258,0.000333246251103,-0.256615936756,-0.00024873073562,3.00315823552e-05
9960000000,248,9960000000,,0.0541658289731,0.000216897838982,0.000334493146511,-0.259667336941,-0.000251522928011,3.39012804034e-05
10001000000,249,10001000000,,0.044694326818,0.000206908720429,0.000335825578077,-0.254838049412,-0.000276387931081,3.5896900954e-05
10040000000,250,10040000000,,0.0335586555302,0.000195221422473,0.000337372621289,-0.24691516161,-0.000285534159048,3.78356562578e-05
10080000000,251,10080000000,,0.0241084303707,0.000183666037628,0.000338980229571,-0.23990470171,-0.000281264976365,4.00177887059e-05
10120000000,252,10120000000,,0.0145605811849,0.000171808584128,0.000340703147231,-0.222696393728,-0.000313387135975,4.42294367531e-05
10160000000,253,10160000000,,0.00588463339955,0.000159381597769,0.000342479004757,-0.21320989728,-0.000295579695376,4.61693998659e-05
10200000000,254,10200000000,,-0.00218517729081,0.000146702004713,0.000344452040736,-0.190345868468,-0.000334784970619,4.97484761581e-05
10242000000,255,10242000000,,-0.00951379351318,0.000133674009703,0.000346440414432,-0.174815744162,-0.00031991652213,5.05352873006e-05
10280000000,256,10280000000,,-0.0159799922258,0.000119069336506,0.000348518806277,-0.151284024119,-0.000404399179388,5.38129133929e-05
10320000000,257,10320000000,,-0.0218075793236,0.000101301113318,0.000350970920408,-0.130922183394,-0.000468496436952,6.46621992928e-05
10360000000,258,10360000000,,-0.0264388564974,8.14474842628e-05,0.000353674753569,-0.109272867441,-0.00051355821779,6.84751212248e-05
10400000000,259,10400000000,,-0.0302262958139,6.25274187769e-05,0.000356296543032,-0.0890316814184,-0.000495451968163,6.83955222485e-05
10440000000,260,10440000000,,-0.0333341918886,4.28783860116e-05,0.00035898515489,-0.0681468993425,-0.000471237959573,6.51492155157e-05
10480000000,261,10480000000,,-0.0356460660696,2.44873099291e-05,0.000361450656783,-0.043099347502,-0.000427511433372,5.5894783145e-05
10522000000,262,10522000000,,-0.0371025316417,7.62664876675e-06,0.000363824074157,-0.0272242389619,-0.000360488833394,5.66044182051e-05
10560000000,263,10560000000,,-0.03756441921,-5.35406343261e-06,0.000365410553059,-3.28747237766e-11,-6.07139200026e-11,5.68701075815e-12
10600000000,264,10600000000,,-0.0373071916401,-1.64663997566e-05,0.000366370164556,0.0114017426968,-0.000222862989176,1.83778938663e-05
10640000000,265,10640000000,,-0.036725345999,-2.68531857728e-05,0.000367149244994,0.0133941518143,-0.000300832121866,2.85066562355e-05
10680000000,266,10680000000,,-0.0362814851105,-3.97840231017e-05,0.000368433742551,0.00914768129587,-0.000364945881302,3.79389857699e-05
10720000000,267,10720000000,,-0.0361272804439,-5.63919638807e-05,0.00037022223114,-0.00251023890451,-0.000409602187574,4.69897568109e-05
10760000000,268,10760000000,,-0.0365489311516,-7.19404342817e-05,0.000372242415324,-0.0180048383772,-0.000375047849957,5.25437826582e-05
10800000000,269,10800000000,,-0.0377105548978,-8.70344447321e-05,0.000374599650968,-0.0378511734307,-0.000333138013957,5.91173957218e-05
10842000000,270,10842000000,,-0.0398016162217,-9.91257329588e-05,0.000377214251785,-0.0596301220357,-0.000261481502093,6.41637088847e-05
10880000000,271,10880000000,,-0.0423929169774,-0.000107749590825,0.000379702076316,-0.0809826478362,-0.000194181848201,6.95652270224e-05
10920000000,272,10920000000,,-0.0460784584284,-0.00011411892774,0.000382587837521,-0.101621925831,-0.000136622766149,7.51886982471e-05
10962000000,273,10962000000,,-0.0512356758118,-0.000118754272989,0.000385977327824,-0.12748901546,-6.78477808833e-05,7.52675550757e-05
11002000000,274,11002000000,,-0.0559182427824,-0.000120363503811,0.0003887800558,-0.144867986441,-3.54041367245e-05,8.4282575699e-05
11041000000,275,11041000000,,-0.0624845996499,-0.000120797238196,0.000392236164771,-0.167551666498,8.60557975102e-06,8.43420857564e-05
11080000000,276,11080000000,,-0.0692506283522,-0.000120991506265,0.000395634735469,-0.181393578649,-1.38903678817e-05,9.09485752345e-05
11120000000,277,11120000000,,-0.0767027512193,-0.000121856704936,0.000399225798901,-0.195665881038,-3.94715716538e-05,9.30161841097e-05
11160000000,278,11160000000,,-0.0844210907817,-0.000124039521324,0.000402920763008,-0.202890694141,-6.08033260505e-05,9.58731470746e-05
11202000000,279,11202000000,,-0.0929863899946,-0.0001260357094,0.000406889128499,-0.207962796092,-5.65786285733e-05,9.63418497122e-05
11240000000,280,11240000000,,-0.101504683495,-0.000128123050672,0.00041077597416,-0.212186202407,-2.1853880753e-05,9.25628919504e-05
11281000000,281,11281000000,,-0.110180161893,-0.000128975429107,0.000414604961406,-0.207765236497,-2.54535279964e-05,9.46912987274e-05
11321000000,282,11321000000,,-0.118096135557,-0.000129288251628,0.000418148323661,-0.209093675017,1.86879751709e-05,8.799542411e-05
11361000000,283,11361000000,,-0.126824751496,-0.00012896041153,0.00042203211342,-0.195683017373,7.1626245699e-06,8.9158413175e-05
11400000000,284,11400000000,,-0.133422940969,-0.000128204977955,0.000424959202064,-0.192599013448,3.37536985171e-05,8.42726731207e-05
11441000000,285,11441000000,,-0.141288653016,-0.000127210238134,0.000428637722507,-0.174629405141,2.08014844247e-05,8.50343276397e-05
11480000000,286,11480000000,,-0.148254752159,-0.000125936450786,0.000432023400208,-0.162467971444,2.9022066883e-05,8.19952692837e-05
11520000000,287,11520000000,,-0.154343292117,-0.000125104299514,0.000435320514953,-0.144825711846,1.86748366104e-05,8.22199945105e-05
11560000000,288,11560000000,,-0.159861907363,-0.000124124475406,0.000438544753706,-0.128618478775,1.53302698891e-05,8.18258122308e-05
11600000000,289,11600000000,,-0.164713874459,-0.000123897058074,0.00044194466318,-0.110548220575,6.11922087046e-06,8.15263192635e-05
11641000000,290,11641000000,,-0.168684408069,-0.000123804682516,0.000445146870334,-0.0916503295302,-9.90159060166e-06,8.37435945868e-05
11680000000,291,11680000000,,-0.171604558825,-0.00012436027464,0.000448089995189,-0.0767118260264,-1.6366762793e-05,8.32620062283e-05
11720000000,292,11720000000,,-0.174536079168,-0.000125791339087,0.000451970641734,-0.0538261942565,-4.81354254589e-05,8.89318980626e-05
11765000000,293,11765000000,,-0.176219835877,-0.000127860534121,0.000455285480712,-0.037736248225,-5.88832372159e-05,8.95241828403e-05
11800000000,294,11800000000,,-0.177118986845,-0.000129713036586,0.000457906367956,-0.0247590970248,-7.32657426852e-05,9.19091180549e-05
11841000000,295,11841000000,,-0.177803337574,-0.000134684712975,0.000463169650175,-2.75096681546e-11,-1.27478973558e-11,1.21673339806e-11
11882000000,296,11882000000,,-0.177495166659,-0.000138788425829,0.000466688681627,0.015425356105,-0.000118751653645,9.52582267928e-05
11920000000,297,11920000000,,-0.176610097289,-0.000143863609992,0.000470690225484,0.0263705402613,-0.000140127041959,0.000103790065623
11960000000,298,11960000000,,-0.175883308053,-0.000147680868395,0.000473382999189,0.0309125371277,-0.000166919431649,0.000113362191769
12000000000,299,12000000000,,-0.173695206642,-0.000157075628522,0.000479653681396,0.0472381524742,-0.000181238501682,0.000116972587421
12040000000,300,12040000000,,-0.171494826674,-0.000164863929967,0.000484447111376,0.0649251043797,-0.000199172078283,0.000118873089377
12080000000,301,12080000000,,-0.168922543526,-0.000171481849975,0.000488509715069,0.0811394006014,-0.000196732289623,0.000116567447549
12124000000,302,12124000000,,-0.165811255574,-0.000178218499059,0.000492395774927,0.101199351251,-0.000209653328056,0.000117630785098
12160000000,303,12160000000,,-0.159967586398,-0.000187740224646,0.000497883011121,0.130287051201,-0.000198788387934,0.000110671302537
12201000000,304,12201000000,,-0.154417350888,-0.000195313303266,0.000502037932165,0.160515442491,-0.000180460119736,0.000104449442006
12240000000,305,12240000000,,-0.146580025554,-0.000203475312446,0.000506600132212,0.190480932593,-0.000180158560397,9.88175015664e-05
12280000000,306,12280000000,,-0.138944029808,-0.000209720965358,0.00051012163749,0.219324424863,-0.000158755370649,9.18263031053e-05
12320000000,307,12320000000,,-0.129677131772,-0.000215873209527,0.000513717997819,0.244303509593,-0.000147682701936,8.76857593539e-05
12361000000,308,12361000000,,-0.118827879429,-0.00022113705927,0.000517195556313,0.265573441982,-0.000108854954306,7.89993064245e-05
12406000000,309,12406000000,,-0.106165140867,-0.000225582203711,0.000520698260516,0.290402770042,-6.88113141223e-05,7.20690295566e-05
12446000000,310,12446000000,,-0.0963842123747,-0.000227611570153,0.000522994727362,0.301317989826,-5.40933142474e-05,6.84075930621e-05
12485000000,311,12485000000,,-0.0853334888816,-0.000229358905926,0.000525422859937,0.314060628414,-2.21528098336e-05,6.46450862405e-05
12520000000,312,12520000000,,-0.0717784315348,-0.000229760160437,0.000528086675331,0.315436959267,-1.27659905047e-06,6.1027258198e-05
12560000000,313,12560000000,,-0.0586374402046,-0.000229306999245,0.000530565157533,0.319162935019,3.78706245101e-05,5.71529526496e-05
12600000000,314,12600000000,,-0.0464896857738,-0.000227396943956,0.000532773206942,0.306803822517,6.20459177298e-05,5.6180953834e-05
12640000000,315,12640000000,,-0.0339569561183,-0.000224270275794,0.000535064493306,0.297266662121,9.41188482102e-05,5.40775654372e-05
12680000000,316,12680000000,,-0.02256590873,-0.000219873094466,0.000537221960258,0.27765801549,0.000117215677164,5.44746289961e-05
12720000000,317,12720000000,,-0.0115218376741,-0.000214510902879,0.0005394120235,0.262957453728,0.000149885876453,5.41395238542e-05
12762000000,318,12762000000,,-0.00169535295572,-0.000208162833587,0.000541555229574,0.244427010417,0.000161778967595,5.61755150557e-05
12801000000,319,12801000000,,0.00650982465595,-0.000201608258067,0.000543495465536,0.22209303081,0.000197220317204,5.55270526092e-05
12842000000,320,12842000000,,0.0160779505968,-0.000191969913431,0.000546104565728,0.198107719421,0.000234778635786,5.81092317589e-05
12880000000,321,12880000000,,0.023206051439,-0.000182573712664,0.000548379670363,0.168452575803,0.000253708130913,5.97081452725e-05
12920000000,322,12920000000,,0.0294950865209,-0.000172112544533,0.000550816243049,0.146300435066,0.00028033106355,6.14588279859e-05
12960000000,323,12960000000,,0.0348322167993,-0.000160497802426,0.00055335793877,0.116561830044,0.000293677410809,6.30144713796e-05
13000000000,324,13000000000,,0.0390079133213,-0.00014856029884,0.000555909064133,0.0922374501824,0.000303865264868,6.36074182694e-05
13040000000,325,13040000000,,0.0420714654028,-0.000136343296617,0.000558412226383,0.0666730999947,0.000319402781315,6.47861234029e-05
13082000000,326,13082000000,,0.0439875535667,-0.000125377046061,0.000560628599487,0.0463056340814,0.000327373680193,6.51887967251e-05
13129000000,327,13129000000,,0.0451616719365,-0.000114704598673,0.000562716333661,0.0282406210899,0.0003381492279,6.52512608212e-05
13160000000,328,13160000000,,0.0458348579705,-9.59398385021e-05,0.000566310831346,-0.00372777483426,0.000351769995177,6.58532298985e-05
13201000000,329,13201000000,,0.0451561696827,-8.09122939245e-05,0.000569093739614,-0.0262204837054,0.000349878362613,6.51564623695e-05
13242000000,330,13242000000,,0.043677162379,-6.6189597419e-05,0.000571763550397,-0.0448833182454,0.000365602376405,6.48876011837e-05
13283000000,331,13283000000,,0.0415095314384,-5.17423723068e-05,0.000574324105401,-0.0628106668591,0.000357105920557,6.33744057268e-05
13320000000,332,13320000000,,0.039004240185,-3.84182130801e-05,0.000576635822654,-0.0748790055513,0.000365155050531,6.2435385189e-05
13360000000,333,13360000000,,0.0356668904424,-2.41102097789e-05,0.00057909428142,-0.0882686376572,0.000350816117134,6.01512219873e-05
13400000000,334,13400000000,,0.0320889800787,-1.04649743662e-05,0.000581402797252,-0.0938807502389,0.00034314361983,5.74443183723e-05
13440000000,335,13440000000,,0.0280749704689,2.96379676001e-06,0.000583678251132,-0.100273363292,0.000322994019371,5.45680559298e-05
13480000000,336,13480000000,,0.0243209879845,1.47497867147e-05,0.000585657951888,-0.103102095425,0.000309470371576,5.20029861946e-05
13520000000,337,13520000000,,0.0198866408318,2.70866221399e-05,0.000587783113588,-0.104574292898,0.000286764930934,4.93690131407e-05
13560000000,338,13560000000,,0.0155905047432,3.84621453122e-05,0.000589760427829,-0.1051723212,0.000260370608885,4.61663075839e-05
13600000000,339,13600000000,,0.0114323534071,4.8365094699e-05,0.0005915822112,-0.101328879595,0.00024160653993,4.47388738394e-05
13642000000,340,13642000000,,0.0074021993205,5.74564655835e-05,0.000593322503846,-0.100502766669,0.00020219614089,4.22774610342e-05
13680000000,341,13680000000,,0.00400617113337,6.45805557724e-05,0.000594789104071,-0.0939715504646,0.000195669068489,4.1442712245e-05
13722000000,342,13722000000,,-0.000388360582292,7.3066643381e-05,0.000596713274717,-0.0882431566715,0.000164458280778,3.92690417357e-05
13764000000,343,13764000000,,-0.00347769237123,7.87308963481e-05,0.00059814110864,-0.080347366631,0.000141832089867,3.81240861316e-05
13806000000,344,13806000000,,-0.00641877669841,8.3447623183e-05,0.000599557126407,-0.0735124945641,0.000115795395686,3.69188819604e-05
13842000000,345,13842000000,,-0.0089082736522,8.71955926414e-05,0.000600875297096,-0.0655011460185,9.16828430491e-05,3.62713653885e-05
13885000000,346,13885000000,,-0.0116575788707,9.05030028662e-05,0.00060248101363,-0.0555528327823,6.09984599578e-05,3.54068215529e-05
13920000000,347,13920000000,,-0.0137551557273,9.23196421354e-05,0.000603955704719,-0.0455482713878,2.58552772721e-05,3.4672790207e-05
13960000000,348,13960000000,,-0.0153820300475,9.2888585641e-05,0.00060534052318,-0.0352010130882,-2.68009578974e-08,3.4584718378e-05
14000000000,349,14000000000,,-0.0165669042617,9.22688050196e-05,0.000606682500802,-0.0261495877057,-3.11536023219e-05,3.40987717209e-05
14040000000,350,14040000000,,-0.0174077469856,9.07093053684e-05,0.000608045957051,-0.0159251019359,-5.46891860722e-05,3.41159611708e-05
14080000000,351,14080000000,,-0.017864163965,8.79872386577e-05,0.000609403126873,-0.00686759641394,-7.22696859157e-05,3.35663353326e-05
14120000000,352,14120000000,,-0.0179580803961,8.4525825514e-05,0.000610744522419,0.00219305697829,-0.000102119432995,3.34351534548e-05
14160000000,353,14160000000,,-0.0177079234272,8.0222125689e-05,0.000612038653344,0.0103610036895,-0.000111663750431,3.28509268002e-05
14200000000,354,14200000000,,-0.0171020608395,7.47830927139e-05,0.000613412703387,0.0176359117031,-0.00014130344789,3.26561603288e-05
14240000000,355,14240000000,,-0.0162990111858,6.93432957632e-05,0.000614640593994,0.0237842015922,-0.000147738028318,3.20364015352e-05
14280000000,356,14280000000,,-0.0152230011299,6.27571353107e-05,0.000615949800704,0.0291283447295,-0.000169607636053,3.16581172228e-05
14320000000,357,14320000000,,-0.0139196123928,5.59548971069e-05,0.000617226178292,0.033598292619,-0.000174743923708,3.0834969948e-05
14360000000,358,14360000000,,-0.0125846313313,4.90293459734e-05,0.00061839108821,0.0375592745841,-0.000186366582057,3.03178221657e-05
14400000000,359,14400000000,,-0.0109848799184,4.1656428948e-05,0.000619607395492,0.0396526902914,-0.000189212529222,2.93580251309e-05
14440000000,360,14440000000,,-0.00936031155288,3.40447113558e-05,0.000620770733804,0.0425104983151,-0.000177755093318,2.84762900264e-05
14482000000,361,14482000000,,-0.00759853282943,2.63579495368e-05,0.000621949438937,0.0414234660566,-0.000189817874343,2.78342504316e-05
14520000000,362,14520000000,,-0.00599214201793,1.94154963538e-05,0.000622956489678,0.0440540648997,-0.000171366526047,2.65898652287e-05
14560000000,363,14560000000,,-0.00425053481013,1.19586329674e-05,0.000624035019428,0.0413469411433,-0.000184138756595,2.60701162915e-05
14600000000,364,14600000000,,-0.00258206948638,5.00904570799e-06,0.000625057495199,0.0410820282996,-0.00016850263637,2.49582171818e-05
14640000000,365,14640000000,,-0.00112329481635,-1.35810080337e-06,0.000625971762929,0.0384605415165,-0.000171973384568,2.44355742325e-05
14680000000,366,14680000000,,0.000403244455811,-7.79189758759e-06,0.000626964087132,0.035633765161,-0.000154317531269,2.3838454581e-05
14720000000,367,14720000000,,0.00183931353968,-1.43799179568e-05,0.00062798318686,0.0321598984301,-0.000149106868776,2.35270108533e-05
14760000000,368,14760000000,,0.00302307866514,-1.95570555661e-05,0.000628884241451,0.0282084085047,-0.000132442379254,2.26869215112e-05
14801000000,369,14801000000,,0.00407047010958,-2.46302388405e-05,0.000629781919997,0.0246307272464,-0.000114142370876,2.22213457164e-05
14840000000,370,14840000000,,0.00495983241126,-2.86613540084e-05,0.000630656024441,0.0198483113199,-8.93987671589e-05,2.15384134208e-05
14881000000,371,14881000000,,0.00563081726432,-3.02436346828e-05,0.00063144066371,0.0164267588407,3.52056849806e-05,2.22007056436e-05
14923000000,372,14923000000,,0.00627325894311,-2.62609446509e-05,0.00063247710932,0.0112917507067,0.000119688840641,2.17893157242e-05
14960000000,373,14960000000,,0.00662718061358,-2.14602259803e-05,0.00063325749943,0.00777982268482,0.00013885187218,2.04908210435e-05
15000000000,374,15000000000,,0.00685152597725,-1.62032374647e-05,0.000634028518107,0.00416288617998,0.000127050210722,1.89529691852e-05
15040000000,375,15040000000,,0.0069477763027,-1.15926904982e-05,0.0006347533199,3.78450437655e-10,4.57919188679e-11,7.57426153047e-12
15080000000,376,15080000000,,0.00691505940631,-8.19240358396e-06,0.000635428412352,-0.00239991792478,5.95149722358e-05,1.55802717927e-05
15120000000,377,15120000000,,0.00676408782601,-6.03709077041e-06,0.000636020442471,-0.00508302869275,4.87354081997e-05,1.47724786075e-05
15162000000,378,15162000000,,0.00650678668171,-4.47906268164e-06,0.000636596872937,-0.00758413877338,2.93072425848e-05,1.38776285894e-05
15212000000,379,15212000000,,0.00617415132001,-3.37485471391e-06,0.000637123128399,-0.00927821081132,2.11270562431e-05,1.30941161842e-05
15242000000,380,15242000000,,0.00586332660168,-2.93856624012e-06,0.000637519231532,-0.010831033811,6.42449322186e-06,1.23834342958e-05
15280000000,381,15280000000,,0.00522472010925,-3.25376163346e-06,0.000638128607534,-0.013852420263,-1.93685700651e-05,1.18845327961e-05
15335000000,382,15335000000,,0.00441162707284,-4.59631246486e-06,0.000638750207145,-0.0153448125347,-2.67295890808e-05,1.08559906948e-05
15386000000,383,15386000000,,0.00360629870556,-6.53999722999e-06,0.000639276113361,-0.0168187469244,-4.50188235845e-05,1.00498809843e-05
15422000000,384,15422000000,,0.00294618448243,-8.25565712148e-06,0.000639657780994,-0.0172046702355,-4.96552056575e-05,9.81054199656e-06
15451000000,385,15451000000,,0.00242687924765,-9.93662524706e-06,0.000639938050881,-0.018121374771,-6.04271808697e-05,9.29595626076e-06
15480000000,386,15480000000,,0.00191115681082,-1.15307211672e-05,0.000640197657049,-0.0183238014579,-5.84596564295e-05,9.19893773244e-06
15520000000,387,15520000000,,0.00118284090422,-1.39676421895e-05,0.000640560348984,-0.017417948693,-5.86973546888e-05,8.41392829898e-06
15560000000,388,15560000000,,0.000498888082802,-1.59121391334e-05,0.000640893587843,-0.0156356822699,-4.28046914749e-05,7.8470684457e-06
15600000000,389,15600000000,,-7.38208182156e-05,-1.74972228706e-05,0.000641182181425,-0.0146062150598,-3.95697024942e-05,7.21549440641e-06
15642000000,390,15642000000,,-0.000656961172353,-1.86550951184e-05,0.000641484220978,-0.0125206392258,-2.41383750108e-05,6.82606105329e-06
15680000000,391,15680000000,,-0.00110813684296,-1.94426665985e-05,0.000641730730422,-0.0112571492791,-8.87251280801e-06,6.22900597591e-06
15723000000,392,15723000000,,-0.00154449522961,-1.97341705643e-05,0.000641988997813,-0.00923785194755,-4.51881305708e-06,5.785893336e-06
15778000000,393,15778000000,,-0.00201006093994,-1.96178225451e-05,0.000642295693979,-0.00690346350893,6.59944453218e-06,5.10716790814e-06
15800000000,394,15800000000,,-0.00213810894638,-1.94709937205e-05,0.000642396043986,-0.00596120255068,7.7912782217e-06,4.86847557113e-06
15840000000,395,15840000000,,-0.00233718799427,-1.8998314772e-05,0.000642570783384,-0.00449735252187,1.69890245161e-05,4.41843894805e-06
15880000000,396,15880000000,,-0.00248798984103,-1.83204847417e-05,0.000642744766083,-0.00297780125402,1.60491308634e-05,3.99755163016e-06
15923000000,397,15923000000,,-0.00258260476403,-1.73755415744e-05,0.000642906641588,-1.08617059791e-09,1.6940747416e-11,2.64855281804e-12
15960000000,398,15960000000,,-0.00260810251348,-1.65784149431e-05,0.000643037201371,-6.18685831733e-12,1.16956607159e-12,1.85425595234e-13
16003000000,399,16003000000,,-0.00258879899047,-1.53780747496e-05,0.000643167819362,4.39619507464e-10,1.31784678656e-11,1.36756426496e-12
16040000000,400,16040000000,,-0.00254109175876,-1.43459092214e-05,0.000643265957478,1.46574796744e-09,3.01221790566e-11,2.15616001616e-12
16080000000,401,16080000000,,-0.00245691766031,-1.28414258143e-05,0.00064336071955,0.00250452733599,3.78214135708e-05,2.26890324484e-06
16122000000,402,16122000000,,-0.00233507133089,-1.11943863885e-05,0.000643435458187,0.00365317170508,5.2603376389e-05,1.76363869286e-06
16160000000,403,16160000000,,-0.00215663667768,-1.10224136733e-05,0.000643534411211,0.00456429086626,-6.24860840617e-05,3.16893488161e-06
16200000000,404,16200000000,,-0.00196023634635,-1.69775194081e-05,0.000643700303044,0.00534517550841,-0.000212818602449,5.04416448166e-06
16240000000,405,16240000000,,-0.00174368894659,-2.72297966148e-05,0.000643922016025,0.00583553733304,-0.000304113316815,6.24472386335e-06
16280000000,406,16280000000,,-0.00149990210775,-3.92839683627e-05,0.000644182553515,0.00622824998572,-0.000304001121549,6.78639480611e-06
16320000000,407,16320000000,,-0.00123474316206,-5.15808460477e-05,0.000644477957394,0.00644938740879,-0.000269186712103,7.13774079486e-06
16360000000,408,16360000000,,-0.000981735996902,-6.04031192779e-05,0.000644758343697,0.00643479404971,-0.000198308072868,7.30256306269e-06
16400000000,409,16400000000,,-0.000724093581084,-6.67841159157e-05,0.000645054911729,0.00646308576688,-0.000120783653983,7.40260429666e-06
16440000000,410,16440000000,,-0.000465758144855,-6.98413423379e-05,0.000645359512419,0.00610162969679,-4.00125172746e-05,7.52415735406e-06
16480000000,411,16480000000,,-0.000229875702644,-6.98614530847e-05,0.000645653577521,0.00595387071371,3.50240188709e-05,7.49035098124e-06
16524000000,412,16524000000,,2.3780779884e-05,-6.68101274641e-05,0.000645992346108,0.00537744630128,9.59378157859e-05,7.57428870202e-06
16561000000,413,16561000000,,0.000207097531529,-6.27065455774e-05,0.000646255037282,0.0050661591813,0.000144834863022,7.4891740951e-06
16601000000,414,16601000000,,0.000396827323129,-5.60006083106e-05,0.000646555505227,0.00446768617257,0.00018060261209,7.49501668906e-06
16640000000,415,16640000000,,0.000569946365431,-4.80094458908e-05,0.000646858592518,0.00390751240775,0.000206396638532,7.31577711122e-06
16682000000,416,16682000000,,0.000715895730536,-3.90711429645e-05,0.000647157838102,0.00328841502778,0.00022267170425,7.20293610357e-06
16720000000,417,16720000000,,0.000830190372653,-3.04019085888e-05,0.000647427747026,0.00268729473464,0.000235037790844,7.03432488081e-06
16760000000,418,16760000000,,0.000926972308662,-2.06445147342e-05,0.000647713604849,0.00208859727718,0.000233721773839,6.81956953485e-06
16800000000,419,16800000000,,0.000996092450805,-1.13905634862e-05,0.000647975772154,1.08754960593e-09,1.75567602123e-10,4.92727343301e-12
16840000000,420,16840000000,,0.00103683560155,-3.14541284752e-06,0.000648226996418,3.29322680237e-10,8.28049365187e-11,2.57230239713e-12
16880000000,421,16880000000,,0.00105990318116,5.31312161911e-06,0.000648478744552,8.42240652221e-11,4.64620460161e-11,1.3327896729e-12
16920000000,422,16920000000,,0.00107000442222,1.40730708154e-05,0.000648715533316,1.37362222291e-11,2.91744510494e-11,7.37422980752e-13
16962000000,423,16962000000,,0.0010690013878,2.37018011831e-05,0.00064894388197,-2.28795402762e-11,3.71203241756e-11,8.32789349633e-13
17000000000,424,17000000000,,0.00105567916762,3.42520543199e-05,0.000649167282972,-1.30865332459e-10,7.35557934006e-11,1.4588531121e-12
17040000000,425,17040000000,,0.00102997035719,4.54068867839e-05,0.000649376714136,-3.49212353479e-10,1.2287211526e-10,2.1940400885e-12
17080000000,426,17080000000,,0.000990300322883,5.66656381125e-05,0.000649569032248,-7.40495442741e-10,1.81386489162e-10,2.9681049285e-12
17120000000,427,17120000000,,0.000937542878091,6.79958830005e-05,0.000649748079013,-1.29254584813e-09,2.40964498355e-10,3.6801859303e-12
17160000000,428,17160000000,,0.00085987127386,8.03679795354e-05,0.000649931665976,-0.00205317675136,0.000296092126518,4.24006702815e-06
17200000000,429,17200000000,,0.000761659059208,9.28407171159e-05,0.000650101981591,-0.00282516912557,0.0003133060236,4.02331852456e-06
17243000000,430,17243000000,,0.000646586122457,0.000104517101136,0.000650248781312,-0.00318959425204,0.000295967154671,3.82875623473e-06
17280000000,431,17280000000,,0.000518950691912,0.000114480368211,0.000650389352813,-0.00337426131591,0.000212609244045,3.34454512085e-06
17320000000,432,17320000000,,0.000373976799892,0.000122098761494,0.000650525500532,-0.00346945389174,0.000141063996125,3.18793604492e-06
17360000000,433,17360000000,,0.000228126518778,0.00012569653336,0.000650649017189,-0.00339536974207,4.22757730121e-05,2.7336623134e-06
17400000000,434,17400000000,,9.92249988485e-05,0.000125247286633,0.000650752859656,-0.00310799269937,-6.12736475887e-05,2.48488390753e-06
17441000000,435,17441000000,,-2.69981519523e-05,0.000120855052955,0.000650848145597,-0.00283770915121,-0.000144714285852,2.12554050449e-06
17480000000,436,17480000000,,-0.000130551896291,0.000113447160402,0.000650927890092,-0.00251714279875,-0.000221589245484,1.85387875717e-06
17521000000,437,17521000000,,-0.000220587666263,0.000104567836388,0.00065099139465,-0.0021782591939,-0.000256042723777,1.52631537276e-06
17560000000,438,17560000000,,-0.000302589731291,9.23608458834e-05,0.000651052396279,-1.76293413201e-09,-3.01343061615e-10,1.23095164704e-12
17600000000,439,17600000000,,-0.000364655599697,8.00578854978e-05,0.000651090347674,-8.76564820729e-10,-2.12162731827e-10,5.11630939438e-13
17640000000,440,17640000000,,-0.000407980929594,6.82769459672e-05,0.000651111651678,-7.17507886439e-10,-2.04900110767e-10,2.64958167169e-13
17682000000,441,17682000000,,-0.000455350091215,5.32337835466e-05,0.000651127425954,-6.21907414455e-10,-2.26279481264e-10,2.03885844839e-13
17720000000,442,17720000000,,-0.000499992223922,3.62211867468e-05,0.000651136215311,-6.33961216856e-10,-2.46707071438e-10,6.00327418527e-14
17761000000,443,17761000000,,-0.000544590177014,1.66177069332e-05,0.000651129172184,-6.02339012001e-10,-2.89091139916e-10,-2.79310103692e-13
17812000000,444,17812000000,,-0.000596351339482,-9.44758539845e-06,0.000651078706142,-5.18939502481e-10,-2.94715113425e-10,-7.55517068178e-13
17844000000,445,17844000000,,-0.000625614309683,-2.70362215815e-05,0.000651031383313,-4.89860485509e-10,-3.1209707041e-10,-9.68673925794e-13
17880000000,446,17880000000,,-0.000657941622194,-4.80673406855e-05,0.000650958740152,-4.1286934982e-10,-3.02512070949e-10,-1.14283506703e-12
17920000000,447,17920000000,,-0.000687971711159,-7.34026034479e-05,0.000650862581097,-3.08376657543e-10,-2.97091490298e-10,-1.24626860481e-12
17962000000,448,17962000000,,-0.000710694293957,-0.000102624842839,0.000650777074043,-1.7180952494e-10,-3.41668138226e-10,-5.51123870932e-13
18000000000,449,18000000000,,-0.000720565731172,-0.000136100221425,0.000650762056466,-6.10548070434e-11,-4.33190011639e-10,8.72925389199e-14
18040000000,450,18040000000,,-0.000719526666217,-0.000174405431608,0.000650792615488,9.91780685355e-11,-5.03588226675e-10,6.2476895402e-13
