%time,field.header.seq,field.header.stamp,field.header.frame_id,field.angular_velocities0,field.angular_velocities1,field.angular_velocities2,field.angular_velocities3
286000000,7,286000000,,4.6306032709e-05,-9.06802788541e-05,-4.63060327251e-05,9.06802788379e-05
322000000,8,322000000,,0.000100504203241,-8.58288392658e-05,-0.000100504203258,8.5828839249e-05
366000000,9,366000000,,0.000114202482078,-6.01080517521e-05,-0.000114202482095,6.01080517351e-05
410000000,10,410000000,,8.62921815267e-05,-6.95645966807e-05,-8.62921815439e-05,6.95645966635e-05
449000000,11,449000000,,7.15897780786e-05,-6.92643854593e-05,-7.15897780959e-05,6.9264385442e-05
488000000,12,488000000,,8.9040111783e-05,-6.4323357107e-05,-8.90401118002e-05,6.43233570898e-05
534000000,13,534000000,,8.95754436992e-05,-5.81386178721e-05,-8.95754437161e-05,5.81386178551e-05
583000000,14,583000000,,8.52328680774e-05,-5.24510865406e-05,-8.52328680939e-05,5.2451086524e-05
622000000,15,622000000,,8.09851613249e-05,-4.78886226213e-05,-8.09851613409e-05,4.78886226053e-05
672000000,16,672000000,,7.82300550632e-05,-4.44266720123e-05,-7.82300550785e-05,4.4426671997e-05
689000000,17,689000000,,7.59147437438e-05,-4.08069567252e-05,-7.59147437584e-05,4.08069567105e-05
721000000,18,721000000,,7.65997252131e-05,-3.94195006539e-05,-7.6599725227e-05,3.94195006399e-05
765000000,19,765000000,,7.77026069581e-05,-3.81806527268e-05,-7.77026069714e-05,3.81806527134e-05
815000000,20,815000000,,7.81816285667e-05,-3.60778413608e-05,-7.81816285795e-05,3.6077841348e-05
847000000,21,847000000,,7.9831245806e-05,-3.52032965359e-05,-7.98312458184e-05,3.52032965235e-05
906000000,22,906000000,,8.16885594059e-05,-3.44865673838e-05,-8.1688559418e-05,3.44865673716e-05
925000000,23,925000000,,8.38723675823e-05,-3.40020476434e-05,-8.38723675943e-05,3.40020476313e-05
994000000,24,994000000,,8.6136526657e-05,-3.37452335234e-05,-8.6136526669e-05,3.37452335114e-05
1012000000,25,1012000000,,8.82447079796e-05,-3.34616276617e-05,-8.82447079917e-05,3.34616276495e-05
1060000000,26,1060000000,,9.0541781925e-05,-3.37410395886e-05,-9.05417819373e-05,3.37410395762e-05
1102000000,27,1102000000,,9.25659167017e-05,-3.40686017827e-05,-9.25659167142e-05,3.406860177e-05
1143000000,28,1143000000,,9.36709954807e-05,-3.42927030261e-05,-9.36709954936e-05,3.42927030131e-05
1164000000,29,1164000000,,9.49768535383e-05,-3.47596438192e-05,-9.49768535515e-05,3.4759643806e-05
1208000000,30,1208000000,,9.53641232909e-05,-3.52699685483e-05,-9.53641233042e-05,3.52699685349e-05
1262000000,31,1262000000,,9.4621499542e-05,-3.57963102996e-05,-9.46214995554e-05,3.57963102862e-05
1298000000,32,1298000000,,9.37226823155e-05,-3.62354956033e-05,-9.37226823289e-05,3.62354955898e-05
1333000000,33,1333000000,,9.17784982729e-05,-3.66190445392e-05,-9.17784982864e-05,3.66190445256e-05
1376000000,34,1376000000,,0.000103015228737,-2.29220253899e-05,-0.000103015228751,2.29220253762e-05
1405000000,35,1405000000,,0.000102804986967,-1.88886575611e-05,-0.000102804986981,1.88886575474e-05
1451000000,36,1451000000,,9.86819837486e-05,-1.75309801244e-05,-9.86819837622e-05,1.75309801108e-05
1494000000,37,1494000000,,7.24660963823e-05,1.61027665097e-06,-7.24660963958e-05,-1.61027666457e-06
1533000000,38,1533000000,,5.52287051426e-05,1.41559035758e-05,-5.52287051561e-05,-1.41559035894e-05
1581000000,39,1581000000,,4.29557914296e-05,2.10446084937e-05,-4.29557914431e-05,-2.10446085073e-05
1607000000,40,1607000000,,3.5431688939e-05,2.54250473905e-05,-3.54316889526e-05,-2.54250474042e-05
1654000000,41,1654000000,,4.79346496843e-05,1.28709823025e-05,-4.79346496981e-05,-1.28709823163e-05
1692000000,42,1692000000,,4.66836629944e-05,1.18463482117e-05,-4.66836630083e-05,-1.18463482256e-05
1725000000,43,1725000000,,4.03981471467e-05,1.48279593691e-05,-4.03981471608e-05,-1.48279593833e-05
1765000000,44,1765000000,,3.17872447122e-05,1.72052222664e-05,-3.17872447265e-05,-1.72052222808e-05
1821000000,45,1821000000,,2.42642454047e-05,2.02594868481e-05,-2.42642454192e-05,-2.02594868627e-05
1846000000,46,1846000000,,1.73516268703e-05,2.33251237336e-05,-1.7351626885e-05,-2.33251237483e-05
1885000000,47,1885000000,,1.0827377284e-05,2.62239086492e-05,-1.08273772989e-05,-2.62239086642e-05
1934000000,48,1934000000,,4.5119077186e-06,2.88711747745e-05,-4.51190773366e-06,-2.88711747896e-05
1976000000,49,1976000000,,-1.51333315556e-06,3.11808248499e-05,1.51333314031e-06,-3.11808248653e-05
2009000000,50,2009000000,,-7.11891211405e-06,3.30987484526e-05,7.11891209863e-06,-3.30987484681e-05
2053000000,51,2053000000,,-1.208017552e-05,3.44166461915e-05,1.20801755044e-05,-3.44166462071e-05
2088000000,52,2088000000,,-1.63367802544e-05,3.50176520143e-05,1.63367802387e-05,-3.50176520301e-05
2141000000,53,2141000000,,-1.95351236485e-05,3.46301735794e-05,1.95351236327e-05,-3.46301735954e-05
2175000000,54,2175000000,,-7.49474992202e-07,1.07231906977e-05,7.49474976238e-07,-1.07231907137e-05
2220000000,55,2220000000,,1.21788361892e-05,-6.01404973773e-06,-1.21788362053e-05,6.01404972159e-06
2254000000,56,2254000000,,2.14032275125e-05,-1.77093949615e-05,-2.14032275287e-05,1.77093949453e-05
2310000000,57,2310000000,,2.73930855294e-05,-2.69483890407e-05,-2.73930855457e-05,2.69483890243e-05
2341000000,58,2341000000,,3.41906330336e-05,-3.49431011717e-05,-3.419063305e-05,3.49431011552e-05
2384000000,59,2384000000,,3.64192021365e-05,-3.96279233448e-05,-3.6419202153e-05,3.96279233283e-05
2418000000,60,2418000000,,3.93936537052e-05,-4.23486444886e-05,-3.93936537219e-05,4.23486444719e-05
2461000000,61,2461000000,,2.05736527728e-05,-2.91478556761e-05,-2.05736527896e-05,2.91478556593e-05
2491000000,62,2491000000,,1.4763901703e-05,-2.91998505744e-05,-1.47639017199e-05,2.91998505574e-05
2551000000,63,2551000000,,1.65511147079e-05,-3.37628640502e-05,-1.65511147249e-05,3.37628640331e-05
2575000000,64,2575000000,,1.95760530831e-05,-3.95745823921e-05,-1.95760531002e-05,3.95745823749e-05
2624000000,65,2624000000,,2.32904392154e-05,-4.44217220108e-05,-2.32904392326e-05,4.44217219935e-05
2643000000,66,2643000000,,2.75470782748e-05,-4.91836390673e-05,-2.75470782922e-05,4.91836390499e-05
2692000000,67,2692000000,,3.21984185861e-05,-5.37295630615e-05,-3.21984186036e-05,5.3729563044e-05
2730000000,68,2730000000,,3.73021887824e-05,-5.81724360594e-05,-3.73021888e-05,5.81724360418e-05
2782000000,69,2782000000,,4.27320952074e-05,-6.2263191952e-05,-4.27320952251e-05,6.22631919343e-05
2802000000,70,2802000000,,4.85126332666e-05,-6.58157668042e-05,-4.85126332843e-05,6.58157667864e-05
2851000000,71,2851000000,,5.43831668833e-05,-6.85651300278e-05,-5.43831669011e-05,6.85651300099e-05
2886000000,72,2886000000,,6.02761463554e-05,-7.04839942583e-05,-6.02761463734e-05,7.04839942403e-05
2938000000,73,2938000000,,6.60494717317e-05,-7.13207812421e-05,-6.60494717497e-05,7.13207812241e-05
2975000000,74,2975000000,,7.16056330598e-05,-7.09219979072e-05,-7.16056330779e-05,7.09219978891e-05
3008000000,75,3008000000,,7.25229861535e-05,-3.93277180477e-05,-7.25229861716e-05,3.93277180295e-05
3050000000,76,3050000000,,7.23230506775e-05,-1.77922593679e-05,-7.23230506957e-05,1.77922593496e-05
3085000000,77,3085000000,,7.10557268108e-05,-3.95341075783e-06,-7.10557268291e-05,3.95341073949e-06
3143000000,78,3143000000,,6.91853606134e-05,7.90894237656e-06,-6.91853606317e-05,-7.90894239496e-06
3183000000,79,3183000000,,6.6594590832e-05,1.47673985087e-05,-6.65945908504e-05,-1.47673985272e-05
3217000000,80,3217000000,,6.42258455577e-05,1.94445748178e-05,-6.42258455762e-05,-1.94445748364e-05
3255000000,81,3255000000,,6.15734471072e-05,2.25352546828e-05,-6.15734471257e-05,-2.25352547014e-05
3295000000,82,3295000000,,7.8643455932e-05,7.40736054602e-06,-7.86434559505e-05,-7.40736056467e-06
3347000000,83,3347000000,,8.38623563695e-05,7.52019801421e-06,-8.38623563882e-05,-7.52019803296e-06
3384000000,84,3384000000,,8.52379233331e-05,1.17857033352e-05,-8.52379233519e-05,-1.1785703354e-05
3411000000,85,3411000000,,8.34803562297e-05,1.81839170722e-05,-8.34803562485e-05,-1.81839170911e-05
3455000000,86,3455000000,,8.13240137497e-05,2.3889842105e-05,-8.13240137686e-05,-2.3889842124e-05
3486000000,87,3486000000,,7.79339617943e-05,2.89387055865e-05,-7.79339618133e-05,-2.89387056055e-05
3541000000,88,3541000000,,4.73216287669e-05,2.60978059723e-05,-4.73216287859e-05,-2.60978059914e-05
3572000000,89,3572000000,,2.81714080349e-05,2.25798390347e-05,-2.8171408054e-05,-2.25798390538e-05
3612000000,90,3612000000,,1.53115902812e-05,1.90256041154e-05,-1.53115903004e-05,-1.90256041346e-05
3652000000,91,3652000000,,8.11916138902e-06,1.56851801282e-05,-8.11916140821e-06,-1.56851801475e-05
3682000000,92,3682000000,,3.66456830601e-06,1.16648342935e-05,-3.66456832525e-06,-1.16648343128e-05
3749000000,93,3749000000,,1.92828636352e-06,5.53537104769e-06,-1.92828638282e-06,-5.53537106705e-06
3762000000,94,3762000000,,1.68667758665e-06,1.32467071661e-06,-1.68667760599e-06,-1.32467073602e-06
3827000000,95,3827000000,,4.68478146416e-06,2.30446257627e-05,-4.68478148356e-06,-2.30446257822e-05
3850000000,96,3850000000,,3.27183772794e-06,3.51420628249e-05,-3.27183774737e-06,-3.51420628444e-05
3888000000,97,3888000000,,-4.0958465267e-07,4.138679537e-05,4.09584633194e-07,-4.13867953895e-05
3943000000,98,3943000000,,-6.26211123608e-06,3.02788189325e-05,6.26211121657e-06,-3.0278818952e-05
3981000000,99,3981000000,,4.62533567601e-06,-8.98065944576e-07,-4.62533569556e-06,8.98065924951e-07
4026000000,100,4026000000,,1.18056775825e-05,-2.25849228338e-05,-1.18056776021e-05,2.25849228141e-05
4064000000,101,4064000000,,1.80799827276e-05,-3.72901736478e-05,-1.80799827472e-05,3.72901736281e-05
4091000000,102,4091000000,,2.21373993223e-05,-4.75376266116e-05,-2.2137399342e-05,4.75376265919e-05
4136000000,103,4136000000,,2.54814220158e-05,-5.4305760455e-05,-2.54814220355e-05,5.43057604352e-05
4178000000,104,4178000000,,2.7888672275e-05,-5.8329160311e-05,-2.78886722948e-05,5.83291602911e-05
4217000000,105,4217000000,,8.27582872135e-06,-4.52223021816e-05,-8.27582874114e-06,4.52223021617e-05
4257000000,106,4257000000,,3.16818001232e-06,-5.15863574437e-05,-3.16818003214e-06,5.15863574238e-05
4298000000,107,4298000000,,3.5595312329e-06,-5.90564378093e-05,-3.55953125276e-06,5.90564377894e-05
4331000000,108,4331000000,,5.57683573209e-06,-6.6024492972e-05,-5.57683575198e-06,6.6024492952e-05
4375000000,109,4375000000,,8.25672198353e-06,-7.2302145658e-05,-8.25672200347e-06,7.2302145638e-05
4418000000,110,4418000000,,1.15948580985e-05,-7.80256241722e-05,-1.15948581185e-05,7.80256241521e-05
4460000000,111,4460000000,,1.56193466559e-05,-8.33756985812e-05,-1.56193466759e-05,8.33756985611e-05
4486000000,112,4486000000,,2.06066053981e-05,-8.80886752663e-05,-2.06066054182e-05,8.80886752462e-05
4548000000,113,4548000000,,4.84692378164e-05,-7.38537360625e-05,-4.84692378365e-05,7.38537360423e-05
4588000000,114,4588000000,,6.9582432364e-05,-6.1299755763e-05,-6.95824323841e-05,6.12997557428e-05
4623000000,115,4623000000,,7.93463008246e-05,-5.19794711239e-05,-7.93463008448e-05,5.19794711036e-05
4653000000,116,4653000000,,8.36878228705e-05,-4.24992731547e-05,-8.36878228907e-05,4.24992731345e-05
4695000000,117,4695000000,,8.69676702223e-05,-3.67470922071e-05,-8.69676702425e-05,3.67470921869e-05
4732000000,118,4732000000,,8.70662739478e-05,-3.0161878509e-05,-8.70662739681e-05,3.01618784887e-05
4773000000,119,4773000000,,8.57053052969e-05,-2.49833039879e-05,-8.57053053171e-05,2.49833039676e-05
4802000000,120,4802000000,,8.44602732058e-05,-1.93556578709e-05,-8.44602732261e-05,1.93556578506e-05
4852000000,121,4852000000,,8.08249817551e-05,-1.52983661692e-05,-8.08249817754e-05,1.52983661489e-05
4907000000,122,4907000000,,7.77422732925e-05,-1.05336245796e-05,-7.77422733128e-05,1.05336245593e-05
4922000000,123,4922000000,,7.36234936289e-05,-6.63445391274e-06,-7.36234936493e-05,6.63445389235e-06
4990000000,124,4990000000,,6.86896384925e-05,-3.66521245793e-06,-6.86896385128e-05,3.66521243752e-06
5016000000,125,5016000000,,6.38263953195e-05,-9.03367345268e-07,-6.38263953398e-05,9.03367324837e-07
5067000000,126,5067000000,,6.11081332701e-05,7.1305974081e-07,-6.11081332904e-05,-7.13059761264e-07
5101000000,127,5101000000,,8.3253561797e-05,-5.45099553311e-06,-8.32535618174e-05,5.45099551263e-06
5136000000,128,5136000000,,8.96190979753e-05,-3.90170040298e-06,-8.96190979957e-05,3.90170038247e-06
5172000000,129,5172000000,,8.96957130709e-05,1.57502899116e-07,-8.96957130913e-05,-1.57502919647e-07
5231000000,130,5231000000,,8.76827593533e-05,4.56793169455e-06,-8.76827593738e-05,-4.5679317151e-06
5247000000,131,5247000000,,8.40384257941e-05,9.09339212662e-06,-8.40384258146e-05,-9.09339214718e-06
5303000000,132,5303000000,,5.24736000946e-05,6.64267073136e-06,-5.24736001151e-05,-6.64267075193e-06
5325000000,133,5325000000,,3.18669773043e-05,4.35932413889e-06,-3.18669773248e-05,-4.35932415948e-06
5362000000,134,5362000000,,1.90000374955e-05,2.3095296807e-06,-1.9000037516e-05,-2.3095297013e-06
5430000000,135,5430000000,,1.09701451855e-05,4.27753288132e-07,-1.09701452061e-05,-4.27753308738e-07
5456000000,136,5456000000,,6.42166081984e-06,-2.66883904726e-06,-6.42166084039e-06,2.66883902665e-06
5502000000,137,5502000000,,2.16960979279e-05,1.26414245378e-05,-2.16960979485e-05,-1.26414245584e-05
5527000000,138,5527000000,,2.12081346188e-05,1.80567031953e-05,-2.12081346394e-05,-1.8056703216e-05
5569000000,139,5569000000,,1.53798935103e-05,1.91147107136e-05,-1.53798935309e-05,-1.91147107343e-05
5604000000,140,5604000000,,8.87765959564e-06,1.86579398573e-05,-8.87765961624e-06,-1.86579398779e-05
5644000000,141,5644000000,,2.88874714659e-06,1.74037999341e-05,-2.8887471672e-06,-1.74037999548e-05
5695000000,142,5695000000,,-2.53523360922e-06,1.52479082933e-05,2.53523358858e-06,-1.5247908314e-05
5758000000,143,5758000000,,4.17814904093e-07,-1.38885116464e-05,-4.17814924745e-07,1.38885116257e-05
5775000000,144,5775000000,,4.33596445489e-06,-3.72881813724e-05,-4.33596447555e-06,3.72881813517e-05
5811000000,145,5811000000,,6.64547224813e-06,-4.98286633446e-05,-6.64547226879e-06,4.98286633238e-05
5846000000,146,5846000000,,9.50134237697e-06,-5.72974864148e-05,-9.50134239763e-06,5.7297486394e-05
5883000000,147,5883000000,,1.12842401108e-05,-6.27544963735e-05,-1.12842401315e-05,6.27544963528e-05
5935000000,148,5935000000,,1.40674074898e-05,-6.4681390137e-05,-1.40674075105e-05,6.46813901163e-05
5972000000,149,5972000000,,-5.67272863215e-06,-5.23750725991e-05,5.67272861148e-06,5.23750725783e-05
6011000000,150,6011000000,,-1.16245845949e-05,-5.35327807587e-05,1.16245845742e-05,5.3532780738e-05
6066000000,151,6066000000,,-1.16699661183e-05,-5.84586478337e-05,1.16699660976e-05,5.8458647813e-05
6101000000,152,6101000000,,-1.13241941748e-05,-6.37349878165e-05,1.1324194154e-05,6.37349877957e-05
6158000000,153,6158000000,,-9.39331563197e-06,-6.81767973361e-05,9.39331561121e-06,6.81767973152e-05
6176000000,154,6176000000,,2.39517553541e-05,-4.51522558506e-05,-2.39517553749e-05,4.51522558297e-05
6228000000,155,6228000000,,4.51658249156e-05,-2.91914959474e-05,-4.51658249364e-05,2.91914959265e-05
6251000000,156,6251000000,,5.854281731e-05,-1.63437155358e-05,-5.85428173308e-05,1.63437155149e-05
6286000000,157,6286000000,,6.74119444501e-05,-7.68858897673e-06,-6.7411944471e-05,7.68858895581e-06
6335000000,158,6335000000,,7.11317555714e-05,-2.68792686427e-07,-7.11317555923e-05,2.68792665512e-07
6377000000,159,6377000000,,7.374406183e-05,4.54622018827e-06,-7.37440618509e-05,-4.54622020917e-06
6426000000,160,6426000000,,7.38699598881e-05,8.91800932154e-06,-7.38699599089e-05,-8.91800934243e-06
6451000000,161,6451000000,,7.29458620854e-05,1.17047008676e-05,-7.29458621062e-05,-1.17047008885e-05
6484000000,162,6484000000,,7.11172541749e-05,-1.06217727232e-05,-7.11172541957e-05,1.06217727023e-05
6526000000,163,6526000000,,7.41122153713e-05,-1.44902755984e-05,-7.41122153921e-05,1.44902755776e-05
6567000000,164,6567000000,,7.799997712e-05,-1.21380137485e-05,-7.79999771408e-05,1.21380137277e-05
6607000000,165,6607000000,,8.14658359998e-05,-7.98683088699e-06,-8.14658360205e-05,7.98683086615e-06
6648000000,166,6648000000,,8.42053924518e-05,-3.19048436125e-06,-8.42053924726e-05,3.1904843404e-06
6684000000,167,6684000000,,8.62531027974e-05,2.05455245506e-06,-8.62531028182e-05,-2.05455247593e-06
6731000000,168,6731000000,,8.74871079765e-05,7.8990421317e-06,-8.74871079974e-05,-7.8990421526e-06
6774000000,169,6774000000,,8.77970863153e-05,1.4348650743e-05,-8.77970863361e-05,-1.43486507639e-05
6822000000,170,6822000000,,6.01751232178e-05,3.16535588074e-05,-6.01751232387e-05,-3.16535588284e-05
6858000000,171,6858000000,,4.26136042028e-05,4.18798584689e-05,-4.26136042237e-05,-4.18798584899e-05
6906000000,172,6906000000,,3.04400194609e-05,5.09805073891e-05,-3.04400194818e-05,-5.098050741e-05
6944000000,173,6944000000,,2.3265009351e-05,5.50785926993e-05,-2.32650093719e-05,-5.50785927203e-05
6967000000,174,6967000000,,1.89010955715e-05,5.57315209524e-05,-1.89010955924e-05,-5.57315209734e-05
7016000000,175,7016000000,,4.10925015358e-05,6.21753596575e-05,-4.10925015566e-05,-6.21753596785e-05
7052000000,176,7052000000,,5.10523750848e-05,6.85266715365e-05,-5.10523751056e-05,-6.85266715575e-05
7105000000,177,7105000000,,4.31525252504e-05,7.21121786599e-05,-4.31525252713e-05,-7.21121786809e-05
7134000000,178,7134000000,,3.65848945129e-05,7.46706124641e-05,-3.65848945337e-05,-7.46706124851e-05
7170000000,179,7170000000,,2.03864379408e-05,4.7301641118e-05,-2.03864379617e-05,-4.73016411389e-05
7209000000,180,7209000000,,1.13244121964e-05,2.67982253147e-05,-1.13244122173e-05,-2.67982253356e-05
7264000000,181,7264000000,,6.23079230901e-06,1.23476446781e-05,-6.23079232986e-06,-1.2347644699e-05
7289000000,182,7289000000,,4.05643576726e-06,8.22305811025e-08,-4.05643578809e-06,-8.22306020044e-08
7362000000,183,7362000000,,3.68949395713e-06,-9.38095451657e-06,-3.68949397795e-06,9.38095449568e-06
7414000000,184,7414000000,,5.14627496493e-06,-1.82035913988e-05,-5.14627498575e-06,1.82035913779e-05
7456000000,185,7456000000,,8.83418843689e-06,-2.58199599083e-05,-8.8341884577e-06,2.58199598875e-05
7479000000,186,7479000000,,1.30224266713e-05,-3.07674331538e-05,-1.30224266921e-05,3.07674331329e-05
7488000000,187,7488000000,,1.46685590533e-05,-3.5694410633e-05,-1.46685590741e-05,3.56944106121e-05
7533000000,188,7533000000,,1.661422738e-05,-3.81789243471e-05,-1.66142274008e-05,3.81789243262e-05
7565000000,189,7565000000,,1.37593131507e-06,-2.4819054911e-05,-1.37593133591e-06,2.48190548901e-05
7601000000,190,7601000000,,-3.62153299871e-06,-0.000382527409197,3.62153297786e-06,0.000382527409176
7648000000,191,7648000000,,1.36641532331e-05,-0.000914964560913,-1.36641532539e-05,0.000914964560892
7696000000,192,7696000000,,2.56060116269e-05,-0.00150248739757,-2.56060116478e-05,0.00150248739755
7729000000,193,7729000000,,3.32732892958e-05,-0.00207548965641,-3.32732893167e-05,0.00207548965639
7773000000,194,7773000000,,3.87689956286e-05,-0.00260405874859,-3.87689956495e-05,0.00260405874856
7815000000,195,7815000000,,4.23104745817e-05,-0.00302063224125,-4.23104746026e-05,0.00302063224123
7860000000,196,7860000000,,4.45589583527e-05,-0.00329680492081,-4.45589583736e-05,0.00329680492079
7905000000,197,7905000000,,4.62876673e-05,-0.00347414252831,-4.62876673209e-05,0.00347414252829
7924000000,198,7924000000,,4.692034337e-05,-0.0034943265372,-4.69203433909e-05,0.00349432653718
7963000000,199,7963000000,,4.75558731475e-05,-0.00342682960224,-4.75558731683e-05,0.00342682960222
8015000000,200,8015000000,,4.75973688838e-05,-0.00319449383377,-4.75973689046e-05,0.00319449383375
8056000000,201,8056000000,,4.76021315383e-05,-0.00259523498677,-4.76021315591e-05,0.00259523498675
8121000000,202,8121000000,,4.66362401183e-05,-0.00210349244526,-4.66362401391e-05,0.00210349244524
8136000000,203,8136000000,,4.59744362387e-05,-0.00155202561336,-4.59744362595e-05,0.00155202561334
8165000000,204,8165000000,,4.5342167579e-05,-0.00101734149664,-4.53421675997e-05,0.00101734149662
8237000000,205,8237000000,,4.57586786426e-05,-0.000255254716881,-4.57586786633e-05,0.00025525471686
8252000000,206,8252000000,,4.41691562928e-05,0.000498103160134,-4.41691563135e-05,-0.000498103160155
8293000000,207,8293000000,,4.00704705658e-05,0.00134328871942,-4.00704705865e-05,-0.00134328871944
8330000000,208,8330000000,,3.61361149561e-05,0.00210773693518,-3.61361149768e-05,-0.0021077369352
8373000000,209,8373000000,,3.40086891894e-05,0.00301046718676,-3.40086892101e-05,-0.00301046718678
8414000000,210,8414000000,,3.20229665422e-05,0.00383805374648,-3.20229665629e-05,-0.0038380537465
8463000000,211,8463000000,,3.08578584802e-05,0.00473431855955,-3.08578585009e-05,-0.00473431855957
8497000000,212,8497000000,,2.97300154876e-05,0.00562128090394,-2.97300155083e-05,-0.00562128090396
8549000000,213,8549000000,,2.86198279529e-05,0.00648350000096,-2.86198279736e-05,-0.00648350000098
8582000000,214,8582000000,,2.81102621992e-05,0.00738125837205,-2.81102622199e-05,-0.00738125837207
8604000000,215,8604000000,,2.66156179272e-05,0.00819191114546,-2.66156179479e-05,-0.00819191114549
8646000000,216,8646000000,,2.59598159328e-05,0.00905812390037,-2.59598159534e-05,-0.00905812390039
8692000000,217,8692000000,,2.4196142597e-05,0.0098146359062,-2.41961426177e-05,-0.00981463590622
8733000000,218,8733000000,,2.28327903979e-05,0.010604547756,-2.28327904186e-05,-0.010604547756
8768000000,219,8768000000,,2.10323917103e-05,0.0113251480129,-2.1032391731e-05,-0.0113251480129
8808000000,220,8808000000,,1.94075027857e-05,0.01204774008,-1.94075028063e-05,-0.01204774008
8869000000,221,8869000000,,1.75227246766e-05,0.0127200385437,-1.75227246972e-05,-0.0127200385437
8897000000,222,8897000000,,1.55702769628e-05,0.013374179282,-1.55702769834e-05,-0.013374179282
8934000000,223,8934000000,,1.33904653107e-05,0.0139539382543,-1.33904653313e-05,-0.0139539382543
8979000000,224,8979000000,,1.11668267693e-05,0.0145308340844,-1.11668267899e-05,-0.0145308340845
9020000000,225,9020000000,,8.92432898154e-06,0.0150663246898,-8.92432900206e-06,-0.0150663246898
9050000000,226,9050000000,,6.48000262031e-06,0.0155973030174,-6.4800026408e-06,-0.0155973030174
9084000000,227,9084000000,,3.97206414055e-06,0.016102341592,-3.97206416101e-06,-0.016102341592
9143000000,228,9143000000,,1.48252221221e-06,0.0166169533214,-1.48252223263e-06,-0.0166169533214
9177000000,229,9177000000,,-1.1229253234e-06,0.0170853375605,1.12292530301e-06,-0.0170853375605
9244000000,230,9244000000,,-3.75674482753e-06,0.0175679333945,3.75674480718e-06,-0.0175679333946
9261000000,231,9261000000,,-6.57292714666e-06,0.0179710483496,6.57292712633e-06,-0.0179710483496
9296000000,232,9296000000,,-9.34017772342e-06,0.0187941607623,9.34017770312e-06,-0.0187941607623
9337000000,233,9337000000,,-1.21192598668e-05,0.0198034985996,1.21192598466e-05,-0.0198034985996
9391000000,234,9391000000,,-1.5089560028e-05,0.0208497634934,1.50895600078e-05,-0.0208497634934
9438000000,235,9438000000,,-1.81377641662e-05,0.0219993051488,1.8137764146e-05,-0.0219993051489
9469000000,236,9469000000,,-2.11201134826e-05,0.0229740643101,2.11201134625e-05,-0.0229740643101
9483000000,237,9483000000,,-2.40714848696e-05,0.0239503959463,2.40714848495e-05,-0.0239503959463
9525000000,238,9525000000,,-2.69654336538e-05,0.0246874769459,2.69654336338e-05,-0.0246874769459
9566000000,239,9566000000,,-2.96661771847e-05,0.025327529651,2.96661771647e-05,-0.025327529651
9603000000,240,9603000000,,-3.24381359795e-05,0.0258569895387,3.24381359595e-05,-0.0258569895387
9644000000,241,9644000000,,-3.51280929128e-05,0.0263420903337,3.51280928928e-05,-0.0263420903337
9711000000,242,9711000000,,-3.76846668359e-05,0.0266306920981,3.76846668159e-05,-0.0266306920981
9737000000,243,9737000000,,-4.05407675073e-05,0.0267066002772,4.05407674874e-05,-0.0267066002772
9774000000,244,9774000000,,-4.2763267336e-05,0.0268635597014,4.27632673161e-05,-0.0268635597014
9802000000,245,9802000000,,-4.53689096687e-05,0.0268185123972,4.53689096488e-05,-0.0268185123972
9854000000,246,9854000000,,-4.73920225333e-05,0.0267730178523,4.73920225134e-05,-0.0267730178524
9896000000,247,9896000000,,-4.97021702275e-05,0.0265745157202,4.97021702076e-05,-0.0265745157202
9936000000,248,9936000000,,-5.16600903077e-05,0.0264213406475,5.16600902878e-05,-0.0264213406475
9963000000,249,9963000000,,-5.38465824689e-05,0.0261894868887,5.3846582449e-05,-0.0261894868887
10026000000,250,10026000000,,-5.57492554866e-05,0.0259974848131,5.57492554667e-05,-0.0259974848131
10045000000,251,10045000000,,-5.76275749732e-05,0.0257294513552,5.76275749533e-05,-0.0257294513552
10096000000,252,10096000000,,-5.96182344615e-05,0.0254367491423,5.96182344416e-05,-0.0254367491423
10138000000,253,10138000000,,-6.10972772639e-05,0.0252048396323,6.1097277244e-05,-0.0252048396323
10167000000,254,10167000000,,-6.29502576482e-05,0.0248790590461,6.29502576284e-05,-0.0248790590461
10211000000,255,10211000000,,-6.41215327047e-05,0.0246759666176,6.41215326849e-05,-0.0246759666177
10258000000,256,10258000000,,-6.56621721455e-05,0.0244066072879,6.56621721257e-05,-0.0244066072879
10295000000,257,10295000000,,-6.33990008301e-05,0.0242176887106,6.33990008104e-05,-0.0242176887106
10323000000,258,10323000000,,-6.26545416438e-05,0.0240105468937,6.26545416242e-05,-0.0240105468937
10363000000,259,10363000000,,-6.24712845741e-05,0.0238349053874,6.24712845544e-05,-0.0238349053874
10421000000,260,10421000000,,-6.30757892442e-05,0.0236671042584,6.30757892246e-05,-0.0236671042584
10450000000,261,10450000000,,-6.37991229024e-05,0.0238826366441,6.37991228828e-05,-0.0238826366442
10522000000,262,10522000000,,-6.4735067725e-05,0.0243169277562,6.47350677055e-05,-0.0243169277562
10548000000,263,10548000000,,-6.59838149047e-05,0.0249276623735,6.59838148851e-05,-0.0249276623735
10573000000,264,10573000000,,-7.13558645942e-05,0.0254591084805,7.13558645747e-05,-0.0254591084805
10604000000,265,10604000000,,-7.05411486414e-05,0.0259480852437,7.05411486218e-05,-0.0259480852437
10654000000,266,10654000000,,-6.6426683191e-05,0.0263507327182,6.64266831714e-05,-0.0263507327182
10693000000,267,10693000000,,-6.45557569131e-05,0.026677202217,6.45557568936e-05,-0.0266772022171
10739000000,268,10739000000,,-6.34570090856e-05,0.0268832476659,6.34570090661e-05,-0.0268832476659
10773000000,269,10773000000,,-6.34328471457e-05,0.0269822958791,6.34328471261e-05,-0.0269822958791
10837000000,270,10837000000,,-6.3689884891e-05,0.0269501775559,6.36898848714e-05,-0.0269501775559
10869000000,271,10869000000,,-6.43331069766e-05,0.0268078889961,6.4333106957e-05,-0.0268078889961
10904000000,272,10904000000,,-6.51439624533e-05,0.026580888732,6.51439624337e-05,-0.026580888732
10937000000,273,10937000000,,-6.59187605121e-05,0.0262649348697,6.59187604925e-05,-0.0262649348697
10971000000,274,10971000000,,-6.70513297769e-05,0.0257175302165,6.70513297574e-05,-0.0257175302165
11032000000,275,11032000000,,-6.76101787651e-05,0.025261677838,6.76101787456e-05,-0.0252616778381
11060000000,276,11060000000,,-6.84491114642e-05,0.0245553035132,6.84491114447e-05,-0.0245553035133
11088000000,277,11088000000,,-6.68688054855e-05,0.0239377261265,6.68688054661e-05,-0.0239377261265
11132000000,278,11132000000,,-6.61273774586e-05,0.0232178305063,6.61273774393e-05,-0.0232178305063
11163000000,279,11163000000,,-6.56274361877e-05,0.0224827534195,6.56274361684e-05,-0.0224827534196
11223000000,280,11223000000,,-6.54561419333e-05,0.0216911375537,6.5456141914e-05,-0.0216911375537
11255000000,281,11255000000,,-6.57109029702e-05,0.0208280533423,6.57109029509e-05,-0.0208280533423
11288000000,282,11288000000,,-6.56057837615e-05,0.020003378419,6.56057837423e-05,-0.020003378419
11331000000,283,11331000000,,-6.59685429034e-05,0.0191014308044,6.59685428842e-05,-0.0191014308044
11375000000,284,11375000000,,-6.57941464568e-05,0.0182815228231,6.57941464376e-05,-0.0182815228231
11413000000,285,11413000000,,-6.59111270922e-05,0.0173900453274,6.5911127073e-05,-0.0173900453275
11446000000,286,11446000000,,-6.56522372297e-05,0.0165823501116,6.56522372105e-05,-0.0165823501116
11499000000,287,11499000000,,-6.55304437331e-05,0.0157239815106,6.5530443714e-05,-0.0157239815106
11534000000,288,11534000000,,-6.51877793893e-05,0.0149169018117,6.51877793702e-05,-0.0149169018117
11568000000,289,11568000000,,-6.48450092928e-05,0.0141055003905,6.48450092737e-05,-0.0141055003905
11606000000,290,11606000000,,-6.43859398403e-05,0.0133179459557,6.43859398212e-05,-0.0133179459557
11648000000,291,11648000000,,-6.37621168262e-05,0.0125638378045,6.37621168071e-05,-0.0125638378045
11689000000,292,11689000000,,-6.29838567212e-05,0.0118139283051,6.29838567021e-05,-0.0118139283051
11729000000,293,11729000000,,-6.20935151805e-05,0.0111231440619,6.20935151615e-05,-0.0111231440619
11788000000,294,11788000000,,-6.12092067074e-05,0.0104235857287,6.12092066885e-05,-0.0104235857287
11809000000,295,11809000000,,-6.00462090292e-05,0.0097449124976,6.00462090103e-05,-0.00974491249762
11853000000,296,11853000000,,-5.99218772102e-05,0.00920895120783,5.99218771914e-05,-0.00920895120785
11903000000,297,11903000000,,-5.79597579236e-05,0.00823870694763,5.79597579048e-05,-0.00823870694764
11933000000,298,11933000000,,-5.62160744838e-05,0.00711855439232,5.6216074465e-05,-0.00711855439233
11978000000,299,11978000000,,-5.45440017075e-05,0.00586639885966,5.45440016888e-05,-0.00586639885968
12010000000,300,12010000000,,-5.27523367306e-05,0.00477538167295,5.27523367119e-05,-0.00477538167297
12055000000,301,12055000000,,-5.08453898284e-05,0.00376328695694,5.08453898097e-05,-0.00376328695695
12104000000,302,12104000000,,-4.91144971666e-05,0.00276562882714,4.91144971479e-05,-0.00276562882716
12132000000,303,12132000000,,-4.71624961715e-05,0.00184614437244,4.71624961529e-05,-0.00184614437246
12166000000,304,12166000000,,-4.49468242431e-05,0.00117418159382,4.49468242245e-05,-0.00117418159383
12222000000,305,12222000000,,-4.34184518392e-05,0.000679322271351,4.34184518207e-05,-0.000679322271369
12265000000,306,12265000000,,-4.14815637372e-05,0.000348258119708,4.14815637187e-05,-0.000348258119725
12283000000,307,12283000000,,-3.96717103914e-05,0.00010304128817,3.9671710373e-05,-0.000103041288188
12332000000,308,12332000000,,-3.77561255649e-05,-5.05283153477e-05,3.77561255465e-05,5.05283153304e-05
12381000000,309,12381000000,,-3.61432282899e-05,-7.48829095558e-05,3.61432282716e-05,7.48829095384e-05
12420000000,310,12420000000,,-3.44893858527e-05,0.000277269153031,3.44893858344e-05,-0.000277269153048
12476000000,311,12476000000,,-3.28598027115e-05,0.000288632449759,3.28598026932e-05,-0.000288632449776
12494000000,312,12494000000,,-3.11856053406e-05,0.000532186083653,3.11856053224e-05,-0.000532186083671
12521000000,313,12521000000,,-2.96695489086e-05,0.00068898709573,2.96695488904e-05,-0.000688987095748
12575000000,314,12575000000,,-2.83474078395e-05,0.00100732746661,2.83474078213e-05,-0.00100732746663
12606000000,315,12606000000,,-2.6951021622e-05,0.00122828523462,2.69510216039e-05,-0.00122828523463
12679000000,316,12679000000,,-2.56796085138e-05,0.00153364193562,2.56796084957e-05,-0.00153364193564
12684000000,317,12684000000,,-2.43715601722e-05,0.00186346842465,2.43715601541e-05,-0.00186346842467
12724000000,318,12724000000,,-2.33196694085e-05,0.00211308069831,2.33196693904e-05,-0.00211308069833
12782000000,319,12782000000,,-2.21167107847e-05,0.00238774103519,2.21167107667e-05,-0.0023877410352
12815000000,320,12815000000,,-2.12192953102e-05,0.00261203668587,2.12192952922e-05,-0.00261203668588
12842000000,321,12842000000,,-2.06271436006e-05,0.00288770163655,2.06271435826e-05,-0.00288770163657
12882000000,322,12882000000,,-1.99510255288e-05,0.00305577555159,1.99510255109e-05,-0.00305577555161
12936000000,323,12936000000,,-1.94332409685e-05,0.00328074061643,1.94332409506e-05,-0.00328074061644
12963000000,324,12963000000,,-1.89243989637e-05,0.00341587889995,1.89243989458e-05,-0.00341587889997
13018000000,325,13018000000,,-1.84561409486e-05,0.00356501790607,1.84561409308e-05,-0.00356501790609
13048000000,326,13048000000,,-1.81691843494e-05,0.00367038988218,1.81691843316e-05,-0.0036703898822
13118000000,327,13118000000,,-1.78608450083e-05,0.00379453607237,1.78608449905e-05,-0.00379453607239
13135000000,328,13135000000,,-1.77268719155e-05,0.00388531548656,1.77268718977e-05,-0.00388531548658
13164000000,329,13164000000,,-1.79180175519e-05,0.00383948432473,1.79180175341e-05,-0.00383948432475
13221000000,330,13221000000,,-1.80471237768e-05,0.00377655280547,1.80471237591e-05,-0.00377655280549
13262000000,331,13262000000,,-1.84842406865e-05,0.00370595886924,1.84842406687e-05,-0.00370595886926
13313000000,332,13313000000,,-1.87904424033e-05,0.00359928120719,1.87904423856e-05,-0.00359928120721
13327000000,333,13327000000,,-1.94435510898e-05,0.00343851743006,1.94435510721e-05,-0.00343851743007
13360000000,334,13360000000,,-1.97747305149e-05,0.00335944564259,1.97747304972e-05,-0.00335944564261
13419000000,335,13419000000,,-2.02808026766e-05,0.00329024167338,2.0280802659e-05,-0.0032902416734
13449000000,336,13449000000,,-2.07747092614e-05,0.00316328128337,2.07747092437e-05,-0.00316328128339
13487000000,337,13487000000,,-2.13501103408e-05,0.00305280350994,2.13501103232e-05,-0.00305280350996
13523000000,338,13523000000,,-2.19219919541e-05,0.00291696655071,2.19219919365e-05,-0.00291696655072
13580000000,339,13580000000,,-2.24723021437e-05,0.00276287589203,2.24723021262e-05,-0.00276287589204
13613000000,340,13613000000,,-2.3125936374e-05,0.00263831107938,2.31259363566e-05,-0.00263831107939
13661000000,341,13661000000,,-2.35601225322e-05,0.00246928265063,2.35601225147e-05,-0.00246928265065
13692000000,342,13692000000,,-2.43103478085e-05,0.00236334679968,2.4310347791e-05,-0.00236334679969
13746000000,343,13746000000,,-2.49493472934e-05,0.00221081181873,2.4949347276e-05,-0.00221081181874
13781000000,344,13781000000,,-2.55868247229e-05,0.00209821303416,2.55868247055e-05,-0.00209821303418
13812000000,345,13812000000,,-2.62112460293e-05,0.0019626120096,2.62112460119e-05,-0.00196261200962
13851000000,346,13851000000,,-2.67624042578e-05,0.00186689581933,2.67624042405e-05,-0.00186689581935
13890000000,347,13890000000,,-2.72395570405e-05,0.00177445938491,2.72395570231e-05,-0.00177445938493
13943000000,348,13943000000,,-2.75877812828e-05,0.00169614232467,2.75877812655e-05,-0.00169614232469
13982000000,349,13982000000,,-2.79637953855e-05,0.00163780957226,2.79637953682e-05,-0.00163780957227
14023000000,350,14023000000,,-2.82313864716e-05,0.00158151392348,2.82313864542e-05,-0.00158151392349
14067000000,351,14067000000,,-2.85068043464e-05,0.00155198888471,2.85068043291e-05,-0.00155198888472
14107000000,352,14107000000,,-2.87994634613e-05,0.00153191218758,2.87994634441e-05,-0.00153191218759
14139000000,353,14139000000,,-2.88817782672e-05,0.001530703622,2.888177825e-05,-0.00153070362202
14163000000,354,14163000000,,-2.90959144247e-05,0.00154011576749,2.90959144075e-05,-0.00154011576751
14212000000,355,14212000000,,-2.90191656867e-05,0.00156029813504,2.90191656695e-05,-0.00156029813505
14261000000,356,14261000000,,-2.90982652372e-05,0.00158659244435,2.90982652201e-05,-0.00158659244437
14298000000,357,14298000000,,-2.89466347409e-05,0.00162382863297,2.89466347238e-05,-0.00162382863299
14345000000,358,14345000000,,-2.88793034026e-05,0.00166983749998,2.88793033855e-05,-0.00166983749999
14378000000,359,14378000000,,-2.87077187532e-05,0.0017241807415,2.87077187361e-05,-0.00172418074152
14430000000,360,14430000000,,-2.85555997323e-05,0.00177460418508,2.85555997152e-05,-0.00177460418509
14481000000,361,14481000000,,-2.84529437209e-05,0.0018723133584,2.84529437038e-05,-0.00187231335842
14497000000,362,14497000000,,-2.81196719518e-05,0.00193566138999,2.81196719348e-05,-0.00193566139
14553000000,363,14553000000,,-2.81302383637e-05,0.0019947638613,2.81302383467e-05,-0.00199476386132
14589000000,364,14589000000,,-2.77212766545e-05,0.00205099092042,2.77212766375e-05,-0.00205099092043
14621000000,365,14621000000,,-2.75235363033e-05,0.00211699039492,2.75235362864e-05,-0.00211699039494
14675000000,366,14675000000,,-2.71374780324e-05,0.00215858372921,2.71374780155e-05,-0.00215858372923
14710000000,367,14710000000,,-2.68272975748e-05,0.00221653279734,2.68272975579e-05,-0.00221653279736
14748000000,368,14748000000,,-2.64549514068e-05,0.00227018072183,2.645495139e-05,-0.00227018072184
14763000000,369,14763000000,,-2.62576321431e-05,0.00229858407805,2.62576321263e-05,-0.00229858407807
14814000000,370,14814000000,,-2.60697064848e-05,0.00233358159338,2.60697064681e-05,-0.0023335815934
14851000000,371,14851000000,,-2.9337186962e-05,0.00235393841647,2.93371869452e-05,-0.00235393841648
14892000000,372,14892000000,,-3.23776900449e-05,0.00237670679032,3.23776900282e-05,-0.00237670679034
14944000000,373,14944000000,,-3.32037822313e-05,0.00238871646039,3.32037822147e-05,-0.00238871646041
14966000000,374,14966000000,,-3.34892154996e-05,0.00240263262851,3.3489215483e-05,-0.00240263262852
15009000000,375,15009000000,,-3.34132342726e-05,0.00241207436379,3.34132342559e-05,-0.0024120743638
15061000000,376,15061000000,,-3.17685383028e-05,0.00240658764895,3.17685382861e-05,-0.00240658764896
15090000000,377,15090000000,,-3.19990282269e-05,0.00241231996587,3.19990282102e-05,-0.00241231996589
15126000000,378,15126000000,,-3.19842476584e-05,0.00241317240225,3.19842476418e-05,-0.00241317240227
15199000000,379,15199000000,,-3.16818392324e-05,0.00240824902186,3.16818392158e-05,-0.00240824902187
15230000000,380,15230000000,,-3.13134478929e-05,0.00239516768678,3.13134478763e-05,-0.0023951676868
15255000000,381,15255000000,,-3.08080583597e-05,0.00237805151313,3.08080583431e-05,-0.00237805151314
15334000000,382,15334000000,,-3.0375740271e-05,0.0023593424331,3.03757402545e-05,-0.00235934243311
15386000000,383,15386000000,,-2.98183961228e-05,0.00231424120066,2.98183961063e-05,-0.00231424120067
15422000000,384,15422000000,,-2.9148918081e-05,0.00225965627537,2.91489180645e-05,-0.00225965627539
15451000000,385,15451000000,,-2.86567134435e-05,0.0022223424068,2.86567134271e-05,-0.00222234240682
15473000000,386,15473000000,,-2.8233630349e-05,0.00219277268071,2.82336303326e-05,-0.00219277268072
15494000000,387,15494000000,,-2.79661504355e-05,0.00216964075163,2.79661504191e-05,-0.00216964075164
15560000000,388,15560000000,,-2.77345407135e-05,0.00215670443376,2.77345406972e-05,-0.00215670443377
15575000000,389,15575000000,,-2.75862370201e-05,0.0021431535606,2.75862370038e-05,-0.00214315356062
15622000000,390,15622000000,,-2.73894016656e-05,0.00212580583738,2.73894016493e-05,-0.0021258058374
15669000000,391,15669000000,,-2.73065329962e-05,0.00211504972799,2.730653298e-05,-0.002115049728
15709000000,392,15709000000,,-2.73081582976e-05,0.00209963462941,2.73081582814e-05,-0.00209963462943
15778000000,393,15778000000,,-2.71998624331e-05,0.00209127626527,2.71998624169e-05,-0.00209127626529
15794000000,394,15794000000,,-2.7167513204e-05,0.00208860348209,2.71675131879e-05,-0.0020886034821
15811000000,395,15811000000,,-2.70811416005e-05,0.00208233333249,2.70811415844e-05,-0.0020823333325
15862000000,396,15862000000,,-2.70558820186e-05,0.00207268372446,2.70558820025e-05,-0.00207268372448
15888000000,397,15888000000,,-2.69510796303e-05,0.00206760511846,2.69510796143e-05,-0.00206760511848
15930000000,398,15930000000,,-2.66328035824e-05,0.00208562837118,2.66328035664e-05,-0.0020856283712
15974000000,399,15974000000,,-2.64476538584e-05,0.00207550381323,2.64476538425e-05,-0.00207550381324
16006000000,400,16006000000,,-2.63303014216e-05,0.00205710009426,2.63303014057e-05,-0.00205710009427
16048000000,401,16048000000,,-2.62326712987e-05,0.0020375888452,2.62326712827e-05,-0.00203758884522
16084000000,402,16084000000,,-2.6665132741e-05,0.00205278842083,2.6665132725e-05,-0.00205278842084
16130000000,403,16130000000,,-2.70009373864e-05,0.00206440385247,2.70009373704e-05,-0.00206440385248
16173000000,404,16173000000,,-2.02797686541e-05,0.00207463548603,2.02797686382e-05,-0.00207463548604
16221000000,405,16221000000,,-1.63187426124e-05,0.00208489921245,1.63187425965e-05,-0.00208489921246
16259000000,406,16259000000,,-1.37426614143e-05,0.00209399026271,1.37426613984e-05,-0.00209399026272
16292000000,407,16292000000,,-1.25675997275e-05,0.00210405280141,1.25675997116e-05,-0.00210405280142
16343000000,408,16343000000,,-1.20319647537e-05,0.0021147704397,1.20319647378e-05,-0.00211477043972
16368000000,409,16368000000,,-1.21194810761e-05,0.00212410389743,1.21194810603e-05,-0.00212410389744
16419000000,410,16419000000,,-1.25310369021e-05,0.00213494057126,1.25310368863e-05,-0.00213494057128
16447000000,411,16447000000,,-1.3234389645e-05,0.00214302078692,1.32343896293e-05,-0.00214302078694
16493000000,412,16493000000,,-1.40808369419e-05,0.00215324286478,1.40808369261e-05,-0.00215324286479
16545000000,413,16545000000,,-1.50160759e-05,0.00216083349928,1.50160758842e-05,-0.0021608334993
16562000000,414,16562000000,,-1.58927044714e-05,0.00216924863334,1.58927044557e-05,-0.00216924863335
16614000000,415,16614000000,,-1.67100112247e-05,0.00217528812148,1.6710011209e-05,-0.0021752881215
16653000000,416,16653000000,,-1.75167005337e-05,0.00218129999204,1.75167005181e-05,-0.00218129999205
16699000000,417,16699000000,,-1.83096433257e-05,0.0021863428377,1.830964331e-05,-0.00218634283771
16729000000,418,16729000000,,-1.90394723081e-05,0.0021903679046,1.90394722925e-05,-0.00219036790462
16770000000,419,16770000000,,-1.96685925377e-05,0.00219388452338,1.96685925221e-05,-0.00219388452339
16806000000,420,16806000000,,-1.71921326443e-05,0.00217660859498,1.71921326288e-05,-0.00217660859499
16843000000,421,16843000000,,-1.66696487596e-05,0.00217840914764,1.66696487441e-05,-0.00217840914766
16883000000,422,16883000000,,-1.68831946276e-05,0.0021862869969,1.68831946121e-05,-0.00218628699692
16932000000,423,16932000000,,-1.73364657558e-05,0.00219539796226,1.73364657404e-05,-0.00219539796228
16986000000,424,16986000000,,-1.79173549866e-05,0.00220445987966,1.79173549712e-05,-0.00220445987967
17021000000,425,17021000000,,-1.86406796494e-05,0.0022132019447,1.8640679634e-05,-0.00221320194471
17055000000,426,17055000000,,-1.95009017081e-05,0.00222148665705,1.95009016927e-05,-0.00222148665707
17099000000,427,17099000000,,-2.04926628313e-05,0.00222915745342,2.0492662816e-05,-0.00222915745344
17138000000,428,17138000000,,-2.16312425808e-05,0.00223609027605,2.16312425655e-05,-0.00223609027607
17172000000,429,17172000000,,-2.68902940965e-05,0.00221427347991,2.68902940812e-05,-0.00221427347993
17204000000,430,17204000000,,-3.01392324435e-05,0.00219713367228,3.01392324282e-05,-0.00219713367229
17253000000,431,17253000000,,-3.21353893286e-05,0.00218650826382,3.21353893133e-05,-0.00218650826383
17282000000,432,17282000000,,-3.33108907942e-05,0.00217467409518,3.33108907789e-05,-0.00217467409519
17322000000,433,17322000000,,-3.37242380944e-05,0.00216855700441,3.37242380792e-05,-0.00216855700442
17382000000,434,17382000000,,-3.37123948324e-05,0.0021619476726,3.37123948173e-05,-0.00216194767261
17417000000,435,17417000000,,-3.32923876565e-05,0.00215742118603,3.32923876414e-05,-0.00215742118605
17449000000,436,17449000000,,-3.27716249363e-05,0.00215300684803,3.27716249212e-05,-0.00215300684804
17521000000,437,17521000000,,-3.20813973089e-05,0.0021496763139,3.20813972938e-05,-0.00214967631391
17541000000,438,17541000000,,-3.13404085472e-05,0.00214677857458,3.13404085322e-05,-0.0021467785746
17564000000,439,17564000000,,-3.49075281537e-05,0.00216924326184,3.49075281388e-05,-0.00216924326185
17603000000,440,17603000000,,-3.62452839409e-05,0.00217242500586,3.62452839259e-05,-0.00217242500588
17644000000,441,17644000000,,-3.66970387803e-05,0.00216929433922,3.66970387654e-05,-0.00216929433924
17693000000,442,17693000000,,-3.67137112379e-05,0.00216418515895,3.6713711223e-05,-0.00216418515896
17733000000,443,17733000000,,-3.64608613e-05,0.0021584611988,3.64608612851e-05,-0.00215846119881
17812000000,444,17812000000,,-3.59245427835e-05,0.00215062428432,3.59245427687e-05,-0.00215062428433
17844000000,445,17844000000,,-3.46954970565e-05,0.00214190914303,3.46954970417e-05,-0.00214190914304
17878000000,446,17878000000,,-3.3434853392e-05,0.0021340633495,3.34348533772e-05,-0.00213406334952
17901000000,447,17901000000,,-3.20783495576e-05,0.00212655826677,3.20783495428e-05,-0.00212655826679
17936000000,448,17936000000,,-3.06718925157e-05,0.00211968782629,3.06718925009e-05,-0.0021196878263
17973000000,449,17973000000,,-2.26958415974e-05,0.00211189818264,2.26958415826e-05,-0.00211189818265
18009000000,450,18009000000,,-1.87133170685e-05,0.00210395667072,1.87133170538e-05,-0.00210395667074
18053000000,451,18053000000,,-1.56574588739e-05,0.00209627122173,1.56574588591e-05,-0.00209627122174
18095000000,452,18095000000,,-1.22820178423e-05,0.00208921522963,1.22820178276e-05,-0.00208921522964
18147000000,453,18147000000,,-8.52018393238e-06,0.00208298090849,8.52018391772e-06,-0.0020829809085
18168000000,454,18168000000,,-4.21261335179e-06,0.00207706433278,4.21261333716e-06,-0.00207706433279
18200000000,455,18200000000,,4.76183706469e-08,0.00207360857974,-4.76183852441e-08,-0.00207360857975
18250000000,456,18250000000,,1.28188688462e-05,0.00210146630111,-1.28188688608e-05,-0.00210146630113
18289000000,457,18289000000,,1.97710746042e-05,0.00212205995336,-1.97710746187e-05,-0.00212205995337
18336000000,458,18336000000,,2.24642423703e-05,0.00213738309138,-2.24642423848e-05,-0.00213738309139
18376000000,459,18376000000,,2.26986724072e-05,0.00214835954711,-2.26986724216e-05,-0.00214835954713
18407000000,460,18407000000,,2.11516514014e-05,0.00215661589445,-2.11516514158e-05,-0.00215661589447
18450000000,461,18450000000,,1.89164770973e-05,0.00216478301008,-1.89164771117e-05,-0.00216478301009
18482000000,462,18482000000,,1.60440142948e-05,0.00217042310432,-1.60440143092e-05,-0.00217042310433
18534000000,463,18534000000,,1.29652916475e-05,0.00217596425022,-1.29652916619e-05,-0.00217596425023
18579000000,464,18579000000,,1.68578781469e-05,0.00218743751056,-1.68578781613e-05,-0.00218743751058
18611000000,465,18611000000,,1.8473504868e-05,0.0021957519358,-1.84735048823e-05,-0.00219575193581
18646000000,466,18646000000,,3.0741658278e-05,0.00217922888688,-3.07416582923e-05,-0.00217922888689
18710000000,467,18710000000,,3.41480719314e-05,0.00217360564412,-3.41480719457e-05,-0.00217360564413
18735000000,468,18735000000,,3.48560304971e-05,0.00217517916309,-3.48560305113e-05,-0.0021751791631
18766000000,469,18766000000,,3.37011887707e-05,0.00218344415356,-3.37011887849e-05,-0.00218344415358
18823000000,470,18823000000,,3.16423981276e-05,0.00219091197351,-3.16423981418e-05,-0.00219091197353
18851000000,471,18851000000,,2.93467652472e-05,0.00219769398792,-2.93467652613e-05,-0.00219769398794
18890000000,472,18890000000,,2.59241570376e-05,0.00220387829491,-2.59241570517e-05,-0.00220387829492
18943000000,473,18943000000,,2.14294882479e-05,0.00220960069111,-2.1429488262e-05,-0.00220960069112
18966000000,474,18966000000,,-8.9190059682e-06,0.00220161484352,8.91900595414e-06,-0.00220161484353
19048000000,475,19048000000,,-2.88599265763e-05,0.00219621392384,2.88599265623e-05,-0.00219621392385
19055000000,476,19055000000,,-4.38907995345e-05,0.00218832765745,4.38907995205e-05,-0.00218832765746
19095000000,477,19095000000,,-5.16665687253e-05,0.00218411502446,5.16665687114e-05,-0.00218411502447
19139000000,478,19139000000,,-5.57429830594e-05,0.00218006831098,5.57429830454e-05,-0.00218006831099
19164000000,479,19164000000,,-5.94432632356e-05,0.00217720817321,5.94432632217e-05,-0.00217720817323
19211000000,480,19211000000,,-5.82389977207e-05,0.00217121142729,5.82389977067e-05,-0.0021712114273
19252000000,481,19252000000,,-5.70655628912e-05,0.00216673223699,5.70655628773e-05,-0.00216673223701
19291000000,482,19291000000,,-5.46657229852e-05,0.0021635076028,5.46657229713e-05,-0.00216350760282
19349000000,483,19349000000,,-5.28389094317e-05,0.00215976840502,5.28389094178e-05,-0.00215976840503
19373000000,484,19373000000,,-4.98904193053e-05,0.00215730306417,4.98904192915e-05,-0.00215730306418
19450000000,485,19450000000,,-4.766039197e-05,0.00215462585914,4.76603919563e-05,-0.00215462585915
19467000000,486,19467000000,,-6.27571112168e-05,0.00216950164712,6.27571112031e-05,-0.00216950164714
19485000000,487,19485000000,,-7.04926057859e-05,0.00217221612977,7.04926057721e-05,-0.00217221612978
19536000000,488,19536000000,,-7.29096728158e-05,0.00216956067644,7.29096728021e-05,-0.00216956067645
19568000000,489,19568000000,,-7.32681859426e-05,0.0021655798922,7.3268185929e-05,-0.00216557989221
19611000000,490,19611000000,,-4.69345414999e-05,0.00215174885912,4.69345414862e-05,-0.00215174885913
19652000000,491,19652000000,,-2.90888647198e-05,0.00214335645917,2.90888647062e-05,-0.00214335645918
19691000000,492,19691000000,,-1.90797975654e-05,0.00213780396767,1.90797975518e-05,-0.00213780396768
19726000000,493,19726000000,,-1.12054952467e-05,0.00213494815253,1.12054952331e-05,-0.00213494815254
19764000000,494,19764000000,,-7.66877781991e-06,0.00213342639272,7.66877780636e-06,-0.00213342639273
19820000000,495,19820000000,,-2.80517218401e-05,0.00213211495164,2.80517218266e-05,-0.00213211495165
19854000000,496,19854000000,,-3.10290851523e-05,0.00212877558317,3.10290851388e-05,-0.00212877558318
19896000000,497,19896000000,,-2.7527003441e-05,0.00212516187439,2.75270034275e-05,-0.0021251618744
19945000000,498,19945000000,,-2.25559440639e-05,0.00212217290496,2.25559440505e-05,-0.00212217290497
19968000000,499,19968000000,,-1.75461240355e-05,0.00211979817188,1.75461240221e-05,-0.0021197981719
20018000000,500,20018000000,,-1.25607012852e-05,0.002118339247,1.25607012719e-05,-0.00211833924702
20051000000,501,20051000000,,-7.27619305834e-06,0.00211791907212,7.276193045e-06,-0.00211791907213
20093000000,502,20093000000,,-1.76832765564e-06,0.00211846485183,1.76832764232e-06,-0.00211846485184
20138000000,503,20138000000,,8.9888583178e-06,0.00214770778899,-8.98885833108e-06,-0.002147707789
20194000000,504,20194000000,,1.52144019712e-05,0.00216734163981,-1.52144019844e-05,-0.00216734163982
20206000000,505,20206000000,,1.87937105282e-05,0.00218653576421,-1.87937105414e-05,-0.00218653576423
20260000000,506,20260000000,,1.92099047186e-05,0.00219339754145,-1.92099047318e-05,-0.00219339754146
20298000000,507,20298000000,,1.80052972619e-05,0.00219792188467,-1.8005297275e-05,-0.00219792188468
20349000000,508,20349000000,,1.6230533359e-05,0.00220118663839,-1.62305333721e-05,-0.00220118663841
20389000000,509,20389000000,,2.74174459771e-05,0.00218345203865,-2.74174459901e-05,-0.00218345203866
20429000000,510,20429000000,,3.62534884854e-05,0.00217679814485,-3.62534884984e-05,-0.00217679814486
20445000000,511,20445000000,,3.9696104115e-05,0.00218200584184,-3.9696104128e-05,-0.00218200584185
20501000000,512,20501000000,,3.87211759007e-05,0.0021909474338,-3.87211759137e-05,-0.00219094743381
20531000000,513,20531000000,,3.78763505012e-05,0.0021972448073,-3.78763505142e-05,-0.00219724480732
20579000000,514,20579000000,,3.64166215517e-05,0.00220191857484,-3.64166215647e-05,-0.00220191857486
20615000000,515,20615000000,,3.69921825656e-06,0.00220098565524,-3.69921826951e-06,-0.00220098565525
20648000000,516,20648000000,,-1.69483323683e-05,0.0021988427671,1.69483323554e-05,-0.00219884276711
20688000000,517,20688000000,,-3.05779403556e-05,0.00219611126302,3.05779403427e-05,-0.00219611126303
20734000000,518,20734000000,,-3.85500094081e-05,0.00219365412474,3.85500093953e-05,-0.00219365412475
20770000000,519,20770000000,,-4.15626111022e-05,0.00219173407008,4.15626110893e-05,-0.00219173407009
20809000000,520,20809000000,,-4.35800257993e-05,0.00218975123487,4.35800257865e-05,-0.00218975123488
20854000000,521,20854000000,,-2.89257002378e-05,0.00220619806912,2.8925700225e-05,-0.00220619806913
20896000000,522,20896000000,,-2.88968744195e-05,0.00221110451113,2.88968744068e-05,-0.00221110451114
20931000000,523,20931000000,,-3.35096747333e-05,0.00221132268852,3.35096747206e-05,-0.00221132268853
20963000000,524,20963000000,,-3.87248151464e-05,0.00220994213514,3.87248151338e-05,-0.00220994213516
21022000000,525,21022000000,,-4.35291554385e-05,0.00220758835441,4.35291554258e-05,-0.00220758835442
21066000000,526,21066000000,,-4.4254789839e-05,0.00217784974824,4.42547898264e-05,-0.00217784974826
21090000000,527,21090000000,,-4.41082003557e-05,0.00215670898953,4.41082003431e-05,-0.00215670898954
21128000000,528,21128000000,,-4.38923611966e-05,0.0021430599212,4.3892361184e-05,-0.00214305992121
21172000000,529,21172000000,,-4.24576175434e-05,0.00213408381885,4.24576175309e-05,-0.00213408381886
21219000000,530,21219000000,,-4.12653154557e-05,0.00212751514334,4.12653154432e-05,-0.00212751514336
21244000000,531,21244000000,,-5.48032291769e-05,0.00214497105442,5.48032291645e-05,-0.00214497105443
21289000000,532,21289000000,,-6.01004888317e-05,0.00214475454522,6.01004888193e-05,-0.00214475454523
21355000000,533,21355000000,,-6.21252718522e-05,0.00213898007338,6.21252718398e-05,-0.00213898007339
21378000000,534,21378000000,,-6.26358876463e-05,0.00213156676406,6.2635887634e-05,-0.00213156676407
21404000000,535,21404000000,,-6.22225353312e-05,0.00212541845709,6.22225353189e-05,-0.0021254184571
21450000000,536,21450000000,,-6.09102526623e-05,0.00211950002654,6.091025265e-05,-0.00211950002655
21498000000,537,21498000000,,-5.85635934865e-05,0.00211384882146,5.85635934742e-05,-0.00211384882147
21529000000,538,21529000000,,-2.71977939176e-05,0.00211713208485,2.71977939053e-05,-0.00211713208486
21581000000,539,21581000000,,-7.85265659906e-06,0.0021210376882,7.85265658679e-06,-0.00212103768821
21614000000,540,21614000000,,4.59932224793e-06,0.00212503147414,-4.59932226018e-06,-0.00212503147415
21651000000,541,21651000000,,1.09184323597e-05,0.00213000525508,-1.09184323719e-05,-0.0021300052551
21692000000,542,21692000000,,1.50758936769e-05,0.00213446433899,-1.50758936891e-05,-0.002134464339
21727000000,543,21727000000,,1.65461407301e-05,0.00213941764109,-1.65461407423e-05,-0.0021394176411
21772000000,544,21772000000,,1.66402635718e-05,0.0021441434521,-1.6640263584e-05,-0.00214414345212
21810000000,545,21810000000,,1.52316533487e-05,0.00214939128181,-1.52316533608e-05,-0.00214939128183
21848000000,546,21848000000,,1.32978962501e-05,0.00215422326476,-1.32978962621e-05,-0.00215422326477
21893000000,547,21893000000,,1.11236646041e-05,0.00215869292467,-1.11236646161e-05,-0.00215869292468
21922000000,548,21922000000,,8.83391020185e-06,0.00216312963677,-8.8339102138e-06,-0.00216312963678
21963000000,549,21963000000,,1.94478978807e-05,0.0021438469566,-1.94478978926e-05,-0.00214384695661
22002000000,550,22002000000,,2.42247439448e-05,0.00214084690275,-2.42247439567e-05,-0.00214084690276
22044000000,551,22044000000,,2.65207535141e-05,0.00214358943184,-2.6520753526e-05,-0.00214358943186
22081000000,552,22081000000,,2.76393693634e-05,0.00214817158809,-2.76393693752e-05,-0.0021481715881
22123000000,553,22123000000,,6.51893271658e-06,0.00217251032534,-6.51893272841e-06,-0.00217251032536
22163000000,554,22163000000,,-5.9214740182e-06,0.00218824046957,5.92147400638e-06,-0.00218824046958
22213000000,555,22213000000,,-1.47268232022e-05,0.00219799856247,1.47268231904e-05,-0.00219799856248
22254000000,556,22254000000,,-1.97746197255e-05,0.00220420778236,1.97746197137e-05,-0.00220420778237
22303000000,557,22303000000,,1.98825606331e-07,0.00219623935594,-1.98825618076e-07,-0.00219623935595
22336000000,558,22336000000,,4.08507282461e-06,0.00219894415573,-4.08507283633e-06,-0.00219894415574
22374000000,559,22374000000,,1.86136628371e-06,0.00220516600661,-1.86136629539e-06,-0.00220516600662
22402000000,560,22402000000,,-1.89697763706e-06,0.00221169093161,1.8969776254e-06,-0.00221169093162
22447000000,561,22447000000,,-6.12034191728e-06,0.00221751449427,6.12034190565e-06,-0.00221751449428
22507000000,562,22507000000,,-1.05614143027e-05,0.00222256976053,1.05614142911e-05,-0.00222256976054
22549000000,563,22549000000,,-1.55898788314e-05,0.00222675549958,1.55898788198e-05,-0.00222675549959
22584000000,564,22584000000,,-2.10977949093e-05,0.00223006931529,2.10977948978e-05,-0.0022300693153
22622000000,565,22622000000,,-4.11916860248e-05,0.00220869518099,4.11916860133e-05,-0.002208695181
22650000000,566,22650000000,,-5.38798915016e-05,0.00219379567417,5.38798914902e-05,-0.00219379567419
22688000000,567,22688000000,,-6.06709461861e-05,0.00218174602591,6.06709461746e-05,-0.00218174602592
22728000000,568,22728000000,,-6.44032719361e-05,0.00217353146146,6.44032719247e-05,-0.00217353146147
22794000000,569,22794000000,,0.000292315686665,0.00216680557088,-0.000292315686676,-0.00216680557089
22813000000,570,22813000000,,0.000927317975242,0.00215892672774,-0.000927317975253,-0.00215892672775
22859000000,571,22859000000,,0.00147871226399,0.0021559449396,-0.001478712264,-0.00215594493962
22888000000,572,22888000000,,0.00203033626184,0.00215261245312,-0.00203033626185,-0.00215261245313
22932000000,573,22932000000,,0.0025205458553,0.00215110550962,-0.00252054585531,-0.00215110550963
22966000000,574,22966000000,,0.00293179225633,0.00214957304154,-0.00293179225634,-0.00214957304155
23016000000,575,23016000000,,0.00320794917496,0.00214916947365,-0.00320794917497,-0.00214916947366
23042000000,576,23042000000,,0.00350502102522,0.002148246171,-0.00350502102523,-0.00214824617101
23084000000,577,23084000000,,0.00354846389886,0.00214860672872,-0.00354846389887,-0.00214860672873
23123000000,578,23123000000,,0.00352019781498,0.00214907942266,-0.00352019781499,-0.00214907942267
23168000000,579,23168000000,,0.0033912409128,0.00214975767842,-0.00339124091281,-0.00214975767843
23204000000,580,23204000000,,0.00314289638591,0.00215037054636,-0.00314289638593,-0.00215037054637
23243000000,581,23243000000,,0.00289872718297,0.00215166894844,-0.00289872718298,-0.00215166894845
23300000000,582,23300000000,,0.00247023825211,0.00215226796083,-0.00247023825213,-0.00215226796084
23355000000,583,23355000000,,0.00199091276187,0.00215458614463,-0.00199091276188,-0.00215458614464
23396000000,584,23396000000,,0.00133458998885,0.00215659734755,-0.00133458998886,-0.00215659734756
23426000000,585,23426000000,,0.000736844579803,0.00215843037548,-0.000736844579814,-0.00215843037549
23449000000,586,23449000000,,9.6474862628e-05,0.00215887071229,-9.64748626387e-05,-0.0021588707123
23498000000,587,23498000000,,-0.000477597627628,0.00215947609821,0.000477597627618,-0.00215947609822
23524000000,588,23524000000,,-0.00115294217985,0.00216015365014,0.00115294217984,-0.00216015365015
23582000000,589,23582000000,,-0.00176846013918,0.00216069979838,0.00176846013917,-0.00216069979839
23613000000,590,23613000000,,-0.00245266352316,0.00216110769095,0.00245266352315,-0.00216110769096
23645000000,591,23645000000,,-0.00327293887092,0.002161346584,0.0032729388709,-0.00216134658401
23698000000,592,23698000000,,-0.00397991367626,0.00216227785318,0.00397991367625,-0.00216227785319
23729000000,593,23729000000,,-0.00482433256854,0.00216241979056,0.00482433256852,-0.00216241979057
23772000000,594,23772000000,,-0.00556113118138,0.00216281241699,0.00556113118137,-0.002162812417
23809000000,595,23809000000,,-0.00640464933532,0.00216273742814,0.00640464933531,-0.00216273742815
23857000000,596,23857000000,,-0.00717183237219,0.00216245408229,0.00717183237218,-0.0021624540823
23905000000,597,23905000000,,-0.0079953923023,0.00216185810967,0.00799539230229,-0.00216185810968
23934000000,598,23934000000,,-0.00880280677135,0.00216083531763,0.00880280677134,-0.00216083531764
23973000000,599,23973000000,,-0.00958459701185,0.00215980133158,0.00958459701184,-0.00215980133159
24056000000,600,24056000000,,-0.0103800263526,0.00215823470422,0.0103800263526,-0.00215823470423
24069000000,601,24069000000,,-0.0110897726022,0.00215581359816,0.0110897726022,-0.00215581359817
24086000000,602,24086000000,,-0.0118793176437,0.00215434856995,0.0118793176437,-0.00215434856996
24137000000,603,24137000000,,-0.0126218308371,0.00215250723538,0.0126218308371,-0.00215250723539
24192000000,604,24192000000,,-0.0133672365484,0.00215060453951,0.0133672365484,-0.00215060453952
24225000000,605,24225000000,,-0.0140617367003,0.0021477534859,0.0140617367003,-0.00214775348591
