%time,field.header.seq,field.header.stamp,field.header.frame_id,field.pose.position.x,field.pose.position.y,field.pose.position.z,field.pose.orientation.x,field.pose.orientation.y,field.pose.orientation.z,field.pose.orientation.w
1000000,0,1000000,world,0.0,0.0,0.74,0.0,0.0,0.0,1.0
11000000,1,11000000,world,-1.07738277069e-27,-1.09807001825e-27,0.739461,-5.3725141903e-27,4.12735521657e-27,1.15199516752e-27,1.0
21000000,2,21000000,world,1.63692024856e-24,1.51811157212e-24,0.737942,1.20292517363e-23,-1.19965837191e-23,-1.854574052e-24,1.0
31000000,3,31000000,world,-4.38394968409e-25,-6.00545634499e-25,0.735443,7.22102059036e-24,-1.67577970031e-23,7.60542676413e-25,1.0
41000000,4,41000000,world,-1.4288227372e-24,-1.79321964477e-24,0.731964,3.00119168489e-24,-2.37804484207e-23,1.87282292978e-24,1.0
51000000,5,51000000,world,-2.69206115799e-25,-7.55861801429e-25,0.727505,1.38393085235e-24,-2.25640175756e-23,9.00100114244e-26,1.0
61000000,6,61000000,world,-1.88471317411e-19,1.88448383756e-19,0.722066,-2.09958931179e-20,-2.00843404629e-20,-9.62249321172e-25,1.0
71000000,7,71000000,world,-1.05980923488e-18,1.0599478525e-18,0.715647,-1.98907702171e-19,-1.48988467839e-19,1.27556907241e-24,1.0
81000000,8,81000000,world,-1.81398562235e-18,1.81629988656e-18,0.708248,-3.20423425611e-19,-2.19866303477e-19,-2.28393126253e-24,1.0
91000000,9,91000000,world,-2.63727186469e-18,2.62906569292e-18,0.699869,-3.39349471991e-19,-2.11892373367e-19,-1.75245539326e-24,1.0
101000000,10,101000000,world,-3.62626334304e-18,3.55127298739e-18,0.69051,-2.70304196479e-19,-1.20244428974e-19,-4.42573631082e-24,1.0
111000000,11,111000000,world,-4.65281071031e-18,4.50732514976e-18,0.680171,-1.37700868953e-19,1.25467075799e-20,-3.18524849153e-24,1.0
121000000,12,121000000,world,-5.70921758422e-18,5.48980714892e-18,0.668852,-6.10063819368e-20,7.95107980144e-20,-3.40192002499e-24,1.0
131000000,13,131000000,world,1.95455416143e-10,-2.04850412469e-10,0.656553040022,-9.31607656291e-09,-8.88790617071e-09,-1.20079730219e-14,1.0
141000000,14,141000000,world,2.43295392075e-09,-2.55005973488e-09,0.643275149633,-1.15276477854e-07,-1.09980501425e-07,-3.9377377308e-14,1.0
151000000,15,151000000,world,9.22106855387e-09,-9.66414502201e-09,0.629021839783,-4.34490115325e-07,-4.14571604722e-07,-6.31840931855e-15,1.0
161000000,16,161000000,world,-1.72958770991e-06,-6.27867177438e-07,0.624997255886,6.43081826556e-07,-2.16764477512e-06,2.53020148931e-07,0.999999999997
171000000,17,171000000,world,4.37690378186e-06,-3.3599748832e-06,0.624996293284,2.30028484164e-06,3.0346441994e-06,1.02630462831e-06,0.999999999992
181000000,18,181000000,world,-3.69238189157e-06,1.32387726412e-06,0.62499628569,-2.32863846527e-06,-3.11720188014e-06,2.47553237682e-06,0.999999999989
191000000,19,191000000,world,1.32940840633e-07,-1.54747974904e-06,0.624999984387,-1.89590844616e-09,2.1681401147e-08,2.7202783396e-06,0.999999999996
201000000,20,201000000,world,1.38341867545e-06,-1.28661804867e-06,0.625000713683,-1.62363816853e-08,9.43351298755e-07,3.0113343433e-06,0.999999999995
211000000,21,211000000,world,-1.13310340905e-07,-1.70401447397e-06,0.625000150434,2.41104200277e-07,-1.73937541538e-07,3.52908746914e-06,0.999999999994
221000000,22,221000000,world,6.18598005916e-07,-1.18285846393e-06,0.625000179794,-3.21350077798e-07,-1.16741500224e-07,3.15162821047e-06,0.999999999995
231000000,23,231000000,world,5.59856391632e-07,-2.986196115e-06,0.625000835379,1.1504748383e-06,-3.37293147367e-08,3.18447078998e-06,0.999999999994
241000000,24,241000000,world,5.84056809936e-07,-2.87837537817e-07,0.625000721497,-1.02655232023e-06,5.14834615988e-08,3.09916065287e-06,0.999999999995
251000000,25,251000000,world,6.50719540204e-07,-1.11384128219e-06,0.625000000164,-2.86909892375e-08,-1.30844998988e-08,2.73740504774e-06,0.999999999996
261000000,26,261000000,world,9.62786130212e-07,-2.13527418565e-06,0.625000209643,5.87992646498e-08,4.51606575417e-07,3.53225824755e-06,0.999999999994
271000000,27,271000000,world,1.63222307625e-07,-1.9784660139e-06,0.625000130512,-7.34561472504e-08,-1.48692337826e-07,4.4908623888e-06,0.99999999999
281000000,28,281000000,world,5.06296944493e-07,-2.83582570394e-06,0.625000145121,4.61663232616e-08,2.26881929115e-07,5.36765915242e-06,0.999999999986
291000000,29,291000000,world,-1.17945357812e-06,-5.2892649895e-06,0.624994931587,-9.46615298716e-07,-2.13747397815e-06,6.5235572984e-06,0.999999999976
301000000,30,301000000,world,2.60736024168e-06,-6.59917964546e-06,0.624998791379,5.14554156131e-07,1.85796183599e-06,6.23028680672e-06,0.999999999979
311000000,31,311000000,world,-1.04169720101e-06,-3.87913305983e-06,0.624998186213,-1.5340276842e-06,-1.2181362324e-06,6.33595167839e-06,0.999999999978
321000000,32,321000000,world,2.12744519268e-06,-5.33379486378e-06,0.62499870667,-3.51697532039e-07,1.31639307384e-06,6.19850100758e-06,0.99999999998
331000000,33,331000000,world,8.73048288498e-07,-5.98824841093e-06,0.625000193534,-5.7741773184e-08,2.28566409661e-07,6.02745695361e-06,0.999999999982
341000000,34,341000000,world,3.2329096288e-07,-6.09376808422e-06,0.625000068882,1.03842880301e-08,-1.205712588e-07,5.52040813166e-06,0.999999999985
351000000,35,351000000,world,6.59064667515e-07,-5.86901299177e-06,0.625000079947,-2.31448907755e-08,1.09837435699e-07,4.93486116745e-06,0.999999999988
361000000,36,361000000,world,4.14934386796e-07,-6.06438703819e-06,0.625000048593,1.87146492163e-08,-7.99570855484e-08,4.43790341528e-06,0.99999999999
371000000,37,371000000,world,7.86981176735e-07,-6.4285036087e-06,0.625000090319,-9.818487211e-09,1.32665778956e-07,4.05111668075e-06,0.999999999992
381000000,38,381000000,world,5.54674144678e-07,-6.57277639038e-06,0.625000037394,-5.8078938155e-11,-6.41039043225e-08,3.65802813635e-06,0.999999999993
391000000,39,391000000,world,7.60160203393e-07,-6.37616355051e-06,0.625000050599,-1.89059483559e-08,7.36944144234e-08,3.28566785205e-06,0.999999999995
401000000,40,401000000,world,5.80741198241e-07,-6.48708879138e-06,0.625000036464,1.99826296572e-08,-6.1954391416e-08,2.95420283766e-06,0.999999999996
411000000,41,411000000,world,7.48905959239e-07,-6.32670646596e-06,0.625000035354,-7.00117474315e-09,5.46508380203e-08,2.64841575622e-06,0.999999999996
421000000,42,421000000,world,4.85734669215e-07,-6.46781682979e-06,0.625000136243,-1.00266135769e-09,-1.84389826996e-07,2.76901524298e-06,0.999999999996
431000000,43,431000000,world,8.44024963875e-07,-6.48436215965e-06,0.625000069728,-1.07832902819e-09,1.0117993195e-07,2.78861411647e-06,0.999999999996
441000000,44,441000000,world,5.71452882664e-07,-6.49765335403e-06,0.625000081913,-2.09981771007e-09,-1.15236087228e-07,2.77766778012e-06,0.999999999996
451000000,45,451000000,world,1.20212046669e-06,-6.51537505702e-06,0.625000298618,-2.72070534881e-09,3.87169777106e-07,2.79048774928e-06,0.999999999996
461000000,46,461000000,world,8.61905181005e-07,-6.51638937505e-06,0.624999896714,-2.95410278082e-09,1.18530686777e-07,2.78333036331e-06,0.999999999996
471000000,47,471000000,world,7.25827304401e-07,-6.47446646805e-06,0.624999996141,-2.03449141383e-09,3.27495727516e-09,2.7801086969e-06,0.999999999996
481000000,48,481000000,world,3.8365698641e-08,-6.04341511572e-06,0.625005703627,-1.05355318314e-07,-5.37386690153e-07,2.7904489503e-06,0.999999999996
491000000,49,491000000,world,-1.76931284786e-06,-4.41950711232e-06,0.625046929206,-5.63319387074e-07,-1.88224750202e-06,2.81244125584e-06,0.999999999994
501000000,50,501000000,world,-1.25883488121e-05,-4.55245714169e-06,0.625160355406,-1.02270697162e-06,-4.84888570024e-06,2.84961713334e-06,0.999999999984
511000000,51,511000000,world,-2.40877468784e-05,-3.57535871117e-06,0.625381922025,-1.75609961605e-06,-8.60353865244e-06,2.89592884695e-06,0.999999999957
521000000,52,521000000,world,-3.61732206466e-05,-1.5937123477e-06,0.625746723652,-2.71222542182e-06,-1.30865428005e-05,2.95131352417e-06,0.999999999906
531000000,53,531000000,world,-4.87628244162e-05,1.28740860506e-06,0.626289234884,-3.85710319575e-06,-1.82022871716e-05,3.01563435921e-06,0.999999999822
541000000,54,541000000,world,-6.16536802418e-05,3.93122937868e-06,0.627044343015,-5.06737129376e-06,-2.38194583035e-05,3.08869304431e-06,0.999999999699
551000000,55,551000000,world,-7.46265421284e-05,4.98330808527e-06,0.628046478903,-6.22528504512e-06,-2.97669159894e-05,3.17084595382e-06,0.999999999533
561000000,56,561000000,world,-8.79528484501e-05,6.8597926028e-06,0.629329184875,-7.55874420361e-06,-3.5908600487e-05,3.26083354415e-06,0.999999999321
571000000,57,571000000,world,-0.000101591307924,9.50218071662e-06,0.630925114257,-9.00091857297e-06,-4.23994376316e-05,3.35844884439e-06,0.999999999055
581000000,58,581000000,world,-0.000115511982304,1.28482802943e-05,0.632866033558,-1.05092439933e-05,-4.92400624044e-05,3.46347589677e-06,0.999999998726
591000000,59,591000000,world,-0.000128247203233,1.54149837442e-05,0.635182827291,-1.19068288034e-05,-5.61943607704e-05,3.5764145103e-06,0.999999998344
601000000,60,601000000,world,-0.000139906629884,1.69520912271e-05,0.63790550405,-1.31647530087e-05,-6.31421819043e-05,3.69677292305e-06,0.999999997913
611000000,61,611000000,world,-0.000151994389433,1.92069896717e-05,0.641063204856,-1.4505808866e-05,-7.01141275982e-05,3.82335326378e-06,0.999999997429
621000000,62,621000000,world,-0.000164530408978,2.21422991841e-05,0.644684214221,-1.59214741816e-05,-7.69145052367e-05,3.9562987995e-06,0.999999996908
631000000,63,631000000,world,-0.000175197761249,2.36705244673e-05,0.648795971807,-1.71254352066e-05,-8.34743082457e-05,4.09599156351e-06,0.999999996361
641000000,64,641000000,world,-0.000185904469678,2.54178610751e-05,0.653425083796,-1.82669432915e-05,-9.00583206249e-05,4.24183160578e-06,0.999999995769
651000000,65,651000000,world,-0.00019728198457,2.78844319672e-05,0.658594555219,-1.93879779508e-05,-9.66740888492e-05,4.39399732955e-06,0.999999995129
661000000,66,661000000,world,-0.000209351275828,3.10356561056e-05,0.664315452069,-2.04919315921e-05,-0.00010321583418,4.55172025231e-06,0.999999994453
671000000,67,671000000,world,-0.000222124089426,3.48296531376e-05,0.670595713199,-2.16297998451e-05,-0.00010957203262,4.71430719337e-06,0.999999993752
681000000,68,681000000,world,-0.000233783362126,3.761108195e-05,0.677442986446,-2.26168255167e-05,-0.000115410034201,4.88239755874e-06,0.999999993073
691000000,69,691000000,world,-0.000245814272851,4.0651356623e-05,0.684864636604,-2.35390642122e-05,-0.00012109293575,5.0555378561e-06,0.999999992378
701000000,70,701000000,world,-0.000256559949274,4.2279346123e-05,0.69286775737,-2.42063737068e-05,-0.000126487763009,5.23405103893e-06,0.999999991694
711000000,71,711000000,world,-0.000268295572332,4.46407378924e-05,0.701459178136,-2.484750862e-05,-0.000131786125547,5.41763408199e-06,0.999999990993
721000000,72,721000000,world,-0.00028103503406,4.77122927436e-05,0.710645475327,-2.54791038208e-05,-0.000136918063917,5.605298297e-06,0.999999990286
731000000,73,731000000,world,-0.000294453090365,5.10599044223e-05,0.720429225069,-2.61146257765e-05,-0.000141753550496,5.79676598705e-06,0.999999989595
741000000,74,741000000,world,-0.000308404532841,5.44835771377e-05,0.730792521758,-2.67187808596e-05,-0.000146227761564,5.99241699934e-06,0.999999988934
751000000,75,751000000,world,-0.000323369191823,5.85658833139e-05,0.741711576888,-2.73289251473e-05,-0.000150587166921,6.19177110327e-06,0.999999988269
761000000,76,761000000,world,-0.000339321867004,6.32679429311e-05,0.753163707486,-2.79302953455e-05,-0.000154842728556,6.39488749861e-06,0.999999987601
771000000,77,771000000,world,-0.000356232341452,6.85468977974e-05,0.765127279426,-2.85197424462e-05,-0.000158946247743,6.60182803798e-06,0.99999998694
781000000,78,781000000,world,-0.000374065492177,7.43573656356e-05,0.777581653713,-2.91196383078e-05,-0.000162849260505,6.81162244948e-06,0.999999986293
791000000,79,791000000,world,-0.000392785330841,8.06529992313e-05,0.790507136128,-2.97683894899e-05,-0.000166467554732,7.02411772642e-06,0.999999985677
801000000,80,801000000,world,-0.000412216432361,8.72040654519e-05,0.803884929785,-3.04119210392e-05,-0.000169764659282,7.23967309343e-06,0.999999985101
811000000,81,811000000,world,-0.000431924667023,9.34404433778e-05,0.817694876979,-3.09635498427e-05,-0.0001728365028,7.4582029036e-06,0.999999984557
821000000,82,821000000,world,-0.000452222063505,9.98222463185e-05,0.831901341876,-3.14614825502e-05,-0.000175717851084,7.67961393075e-06,0.999999984037
831000000,83,831000000,world,-0.000472452946591,0.000105551992856,0.846463354263,-3.18281493284e-05,-0.000178313870004,7.90418918063e-06,0.999999983564
841000000,84,841000000,world,-0.000493477939592,0.000111712439177,0.861342107726,-3.21962505319e-05,-0.000180699571019,8.13078206895e-06,0.999999983122
851000000,85,851000000,world,-0.000515209380409,0.000118205501893,0.8765008573,-3.25988475918e-05,-0.000182836594385,8.35922624117e-06,0.999999982719
861000000,86,861000000,world,-0.00053717859411,0.000124434975736,0.891904796651,-3.29633220202e-05,-0.000184634291892,8.58997136634e-06,0.999999982375
871000000,87,871000000,world,-0.000559876860345,0.000131064314077,0.907520942914,-3.33381747777e-05,-0.00018625118563,8.82264678083e-06,0.999999982061
881000000,88,881000000,world,-0.000583273792917,0.000138071710595,0.923318030787,-3.37146394214e-05,-0.000187699519086,9.05718257129e-06,0.999999981775
891000000,89,891000000,world,-0.000607338128184,0.000145432758538,0.939266412255,-3.40860997148e-05,-0.000188966584336,9.29374684041e-06,0.999999981522
901000000,90,901000000,world,-0.000632038044938,0.000153121743046,0.955337963089,-3.444876176e-05,-0.000190036303744,9.53198529313e-06,0.999999981304
911000000,91,911000000,world,-0.000657091655296,0.000160783863506,0.971505995446,-3.47995741804e-05,-0.000190876314618,9.77155073055e-06,0.99999998113
921000000,92,921000000,world,-0.000682489265899,0.000168420502625,0.987745175654,-3.51569678787e-05,-0.000191468741495,1.00124774183e-05,0.999999981002
931000000,93,931000000,world,-0.000708316647686,0.000176132487005,1.00403134887,-3.55120841466e-05,-0.000191802518883,1.0254905761e-05,0.999999980923
941000000,94,941000000,world,-0.000734487991528,0.000183813075952,1.02034117761,-3.58388988109e-05,-0.000191929175077,1.04987183214e-05,0.999999980884
951000000,95,951000000,world,-0.000761204442882,0.000191780455841,1.03665239634,-3.61650191021e-05,-0.000191866455552,1.0743782307e-05,0.999999980882
961000000,96,961000000,world,-0.00078844301663,0.000200017913426,1.05294384798,-3.64841495497e-05,-0.000191605441969,1.09902155604e-05,0.999999980918
971000000,97,971000000,world,-0.000816180357323,0.00020850752552,1.06919542222,-3.67932824621e-05,-0.000191144250032,1.12378058914e-05,0.999999980992
981000000,98,981000000,world,-0.000844392891895,0.000217230295921,1.08538799779,-3.71133646332e-05,-0.000190488828606,1.14861815924e-05,0.999999981102
991000000,99,991000000,world,-0.000873057457233,0.000226167298069,1.10150338827,-3.74609889969e-05,-0.000189645957097,1.17353299672e-05,0.999999981247
1001000000,100,1001000000,world,-0.000901954992326,0.000235043206335,1.11752429128,-3.77987581212e-05,-0.000188569486681,1.19854864483e-05,0.999999981435
1011000000,101,1011000000,world,-0.00093114490201,0.000243946892171,1.13343424045,-3.81161591629e-05,-0.000187271282909,1.22365921232e-05,0.999999981663
1021000000,102,1021000000,world,-0.000960509198102,0.000252778043241,1.14921756076,-3.83972263387e-05,-0.000185742474677,1.24885851408e-05,0.999999981935
1031000000,103,1031000000,world,-0.00099012692839,0.000261632444236,1.16485932611,-3.8644149784e-05,-0.00018398248778,1.27414805943e-05,0.999999982247
1041000000,104,1041000000,world,-0.00102014518077,0.000270681980515,1.18034531968,-3.88778458466e-05,-0.000182008740226,1.29952798843e-05,0.999999982596
1051000000,105,1051000000,world,-0.00105054934099,0.000279916890099,1.19566287154,-3.90940535305e-05,-0.000179836705733,1.32497039142e-05,0.999999982977
1061000000,106,1061000000,world,-0.00108132565064,0.000289326287876,1.21080465346,-3.9316228837e-05,-0.000177481034414,1.35045620344e-05,0.999999983386
1071000000,107,1071000000,world,-0.0011122025869,0.000298738422602,1.22576522526,-3.9535810934e-05,-0.000174939414796,1.37599328865e-05,0.999999983822
1081000000,108,1081000000,world,-0.00114342672669,0.000308305228504,1.24053937724,-3.97590185584e-05,-0.000172210503992,1.40159089726e-05,0.999999984283
1091000000,109,1091000000,world,-0.00117500100948,0.000318026732816,1.25512211999,-3.99704776326e-05,-0.000169265811085,1.42724521008e-05,0.999999984774
1101000000,110,1101000000,world,-0.00120691308764,0.000327893744628,1.26950867457,-4.01639468034e-05,-0.000166092582158,1.45295072595e-05,0.999999985295
1111000000,111,1111000000,world,-0.00123907665903,0.000337881868743,1.28369446314,-4.0328458162e-05,-0.000162668692347,1.47871210842e-05,0.999999985847
1121000000,112,1121000000,world,-0.00127127013159,0.000347871018417,1.29767510002,-4.04526605285e-05,-0.000158974436158,1.50453758995e-05,0.999999986432
1131000000,113,1131000000,world,-0.00130378352149,0.000357980422812,1.31144680991,-4.05433580515e-05,-0.000155068148977,1.53040314908e-05,0.999999987038
1141000000,114,1141000000,world,-0.00133660866195,0.000368211109502,1.32501613766,-4.06205789841e-05,-0.000150971299493,1.55628975967e-05,0.999999987658
1151000000,115,1151000000,world,-0.00136922532757,0.000378424975548,1.33839954611,-4.06783580672e-05,-0.000146666913556,1.58220165725e-05,0.999999988292
1161000000,116,1161000000,world,-0.0014019556685,0.000388687849227,1.35161343746,-4.07161337138e-05,-0.000142176547566,1.60815274699e-05,0.999999988935
1171000000,117,1171000000,world,-0.00143485325807,0.000399044012558,1.36467372843,-4.07223178775e-05,-0.000137421372365,1.63414128308e-05,0.999999989595
1181000000,118,1181000000,world,-0.00146770446678,0.000409458267791,1.37759585745,-4.06866747595e-05,-0.000132350649444,1.66016100574e-05,0.999999990276
1191000000,119,1191000000,world,-0.00150091773335,0.000419990831005,1.390394792,-4.06057731164e-05,-0.000126985109619,1.6862195182e-05,0.999999990971
1201000000,120,1201000000,world,-0.00153448620629,0.000430638563871,1.4030850371,-4.04775467099e-05,-0.00012132999399,1.71232467625e-05,0.999999991674
1211000000,121,1211000000,world,-0.00156839910686,0.000441398193852,1.41568064372,-4.02930253286e-05,-0.00011542677295,1.73844902658e-05,0.999999992375
1221000000,122,1221000000,world,-0.00160184954999,0.000452206849922,1.42819521801,-4.00689261218e-05,-0.000109231967989,1.76456843485e-05,0.999999993076
1231000000,123,1231000000,world,-0.00163557495226,0.000463116469758,1.44064192995,-3.98192564722e-05,-0.000102903116759,1.79069620119e-05,0.999999993752
1241000000,124,1241000000,world,-0.00166965633232,0.000474130960892,1.4530335236,-3.95328124777e-05,-9.63885548482e-05,1.81685015244e-05,0.999999994408
1251000000,125,1251000000,world,-0.00170408108676,0.000485247446369,1.46538232664,-3.91975147536e-05,-8.95816590595e-05,1.84302395106e-05,0.99999999505
1261000000,126,1261000000,world,-0.00173883136185,0.000496462810905,1.47770026029,-3.88064561865e-05,-8.2445186454e-05,1.8692177377e-05,0.999999995674
1271000000,127,1271000000,world,-0.00177375757008,0.000507768667306,1.48999871025,-3.83490663167e-05,-7.49499748365e-05,1.89544358306e-05,0.999999996276
1281000000,128,1281000000,world,-0.00180785034495,0.000519120558785,1.5022829687,-3.78142793651e-05,-6.70424793496e-05,1.92168641206e-05,0.999999996853
1291000000,129,1291000000,world,-0.00184227165274,0.000530563603066,1.5145507901,-3.72149784032e-05,-5.89153212267e-05,1.94791669058e-05,0.999999997382
1301000000,130,1301000000,world,-0.00187675751626,0.00054208014463,1.52679954885,-3.65701723683e-05,-5.06362989922e-05,1.9741334876e-05,0.999999997854
1311000000,131,1311000000,world,-0.00191058991193,0.00055360643481,1.53902672604,-3.5871764531e-05,-4.21853147914e-05,2.00035472604e-05,0.999999998267
1321000000,132,1321000000,world,-0.00194475984,0.000565218141948,1.55122990456,-3.51180940443e-05,-3.34880308679e-05,2.02658887288e-05,0.999999998617
1331000000,133,1331000000,world,-0.00197924677331,0.000576914491503,1.56340722513,-3.42123170947e-05,-2.45794801483e-05,2.05283108795e-05,0.999999998902
1341000000,134,1341000000,world,-0.00201295265966,0.000588628235701,1.57556257334,-3.28272570247e-05,-1.56442532118e-05,2.07908854774e-05,0.999999999123
1351000000,135,1351000000,world,-0.00204653218646,0.0006004020924,1.5877034879,-3.09573378326e-05,-6.80836884997e-06,2.10536909666e-05,0.999999999276
1361000000,136,1361000000,world,-0.00208043572526,0.00061226414886,1.59983730918,-2.85981401874e-05,1.81248907058e-06,2.13163874857e-05,0.999999999362
1371000000,137,1371000000,world,-0.00211463774735,0.000624208863178,1.61197111578,-2.57788144415e-05,1.01612273933e-05,2.15788470478e-05,0.999999999383
1381000000,138,1381000000,world,-0.00215112043018,0.00063347404167,1.62411173303,-2.22154178908e-05,1.79574702326e-05,2.18420635559e-05,0.999999999353
1391000000,139,1391000000,world,-0.0021906640515,0.000638942121109,1.63626574094,-1.78276990958e-05,2.5293820052e-05,2.21064875453e-05,0.999999999277
1401000000,140,1401000000,world,-0.00223008990443,0.000644905578205,1.64843948172,-1.3123665035e-05,3.26026281445e-05,2.23707572697e-05,0.999999999132
1411000000,141,1411000000,world,-0.00226919940738,0.000650795216062,1.66063906818,-8.07969201959e-06,3.99527394793e-05,2.26350996346e-05,0.999999998913
1421000000,142,1421000000,world,-0.00230778012759,0.000655891400131,1.67287039093,-2.63332108042e-06,4.73732981485e-05,2.28998129381e-05,0.999999998612
1431000000,143,1431000000,world,-0.00234609865856,0.000661654070764,1.68513912581,3.09307194443e-06,5.47878772562e-05,2.31642049893e-05,0.999999998226
1441000000,144,1441000000,world,-0.00238412325788,0.00066807867906,1.6974507411,9.0628430857e-06,6.21585263765e-05,2.34280424296e-05,0.999999997753
1451000000,145,1451000000,world,-0.00242182773372,0.000675143944092,1.70980948552,1.52585025285e-05,6.94105672256e-05,2.36914574996e-05,0.999999997194
1461000000,146,1461000000,world,-0.00245728312629,0.00068232735846,1.72221390488,2.16552439309e-05,7.68646192172e-05,2.39548598203e-05,0.999999996525
1471000000,147,1471000000,world,-0.00249230061634,0.000690015097148,1.73466077679,2.81413083404e-05,8.44478055551e-05,2.42180131829e-05,0.999999995745
1481000000,148,1481000000,world,-0.0025271072999,0.000698248428748,1.74714700995,3.46837234538e-05,9.21738876949e-05,2.44809667298e-05,0.999999994851
1491000000,149,1491000000,world,-0.00256170675995,0.000706974799178,1.75966963875,4.12920033948e-05,0.000100042970146,2.47438671958e-05,0.999999993837
1501000000,150,1501000000,world,-0.00259115919778,0.000712618955761,1.77222581662,4.83955120815e-05,0.000108513773453,2.5007902743e-05,0.999999992629
1511000000,151,1511000000,world,-0.00261347177387,0.000713703772991,1.78481281256,5.61120067296e-05,0.000117709024322,2.52733619518e-05,0.999999991179
1521000000,152,1521000000,world,-0.00263634543945,0.000715662699005,1.79742800904,6.38502114876e-05,0.000126660787688,2.55381615697e-05,0.999999989614
1531000000,153,1531000000,world,-0.00265985211301,0.000718490638527,1.81006860792,7.15204131331e-05,0.000135422073274,2.58024926192e-05,0.99999998794
1541000000,154,1541000000,world,-0.00267951869974,0.000719022583486,1.82272758305,7.93564762094e-05,0.000144597826837,2.60676759507e-05,0.999999986057
1551000000,155,1551000000,world,-0.00269719629095,0.00071849646965,1.83539491813,8.71794643699e-05,0.000153994372681,2.63331610546e-05,0.999999983996
1561000000,156,1561000000,world,-0.00271601369143,0.000719043697884,1.84806095956,9.47490576301e-05,0.000163247370062,2.65981173148e-05,0.999999981833
1571000000,157,1571000000,world,-0.00273597228822,0.000720626698107,1.86071647597,0.000102119290443,0.000172247368123,2.68623685208e-05,0.99999997959
1581000000,158,1581000000,world,-0.00275703771449,0.000723184995761,1.87335263922,0.000109279877382,0.000180901599226,2.71255617306e-05,0.999999977298
1591000000,159,1591000000,world,-0.00277486282529,0.000724624291089,1.88596100321,0.000116428789918,0.000189547753939,2.73890041244e-05,0.999999974883
1601000000,160,1601000000,world,-0.00279344365129,0.000726778404339,1.89853349201,0.000123314814741,0.000197732478052,2.76516179588e-05,0.999999972465
1611000000,161,1611000000,world,-0.00281251906564,0.000729526395025,1.91106237695,0.000129842174661,0.000205633366771,2.79135551933e-05,0.999999970038
1621000000,162,1621000000,world,-0.00283116114407,0.000732449322262,1.92354026188,0.000136022075575,0.000213357500836,2.81750743106e-05,0.999999967591
1631000000,163,1631000000,world,-0.00285095688321,0.000736119066571,1.93596006964,0.000141785109835,0.000220723485072,2.84357352637e-05,0.999999965185
1641000000,164,1641000000,world,-0.00287180920058,0.000740448044012,1.94831502522,0.000147174186492,0.000227680928079,2.86955668913e-05,0.999999962839
1651000000,165,1651000000,world,-0.00289360707964,0.000745345269442,1.96059851078,0.000152222312076,0.000234165891757,2.8954249711e-05,0.999999960578
1661000000,166,1661000000,world,-0.00291985385238,0.000754292895264,1.97280106797,0.000156534703437,0.000239755180393,2.9210877425e-05,0.999999958581
1671000000,167,1671000000,world,-0.00295012141167,0.000766899544928,1.98491057081,0.000160156083176,0.000244465473207,2.94656864541e-05,0.999999956859
1681000000,168,1681000000,world,-0.00298051057208,0.000779348283693,1.99691531628,0.000163455524306,0.000248818581861,2.9719741764e-05,0.999999955244
1691000000,169,1691000000,world,-0.00301085893611,0.00079151382964,2.00880413653,0.000166436266773,0.000252870600633,2.99730643916e-05,0.999999953729
1701000000,170,1701000000,world,-0.00304143527163,0.000804370287093,2.0205663698,0.000169012485073,0.000256615662687,3.02257668044e-05,0.999999952335
1711000000,171,1711000000,world,-0.00307186460733,0.000817154209824,2.03219183377,0.000171294482651,0.000260107125456,3.04779724324e-05,0.999999951037
1721000000,172,1721000000,world,-0.00310186982799,0.000829325464675,2.04367080308,0.000173375783019,0.000263363559619,3.07296508696e-05,0.999999949818
1731000000,173,1731000000,world,-0.00313101973449,0.000840767553398,2.0549955,0.000175280743834,0.000266420799325,3.09806534595e-05,0.999999948668
1741000000,174,1741000000,world,-0.0031582476354,0.000851251749,2.06616978594,0.000177023480977,0.000269377226169,3.12313220699e-05,0.999999947562
1751000000,175,1751000000,world,-0.00318495846864,0.000861042678923,2.07720239856,0.000178575757374,0.000272083649904,3.14813839945e-05,0.999999946545
1761000000,176,1761000000,world,-0.00321112557691,0.000870135069975,2.08810179286,0.00017992876717,0.000274610619822,3.17310135298e-05,0.999999945604
1771000000,177,1771000000,world,-0.00323672650424,0.000878532737082,2.09887613203,0.000181082569073,0.000276956470125,3.19801937342e-05,0.999999944741
1781000000,178,1781000000,world,-0.00325929212784,0.000886259098356,2.10953329462,0.00018204324127,0.000279393723876,3.22297540252e-05,0.99999994388
1791000000,179,1791000000,world,-0.00328114417264,0.00089331862521,2.12008088695,0.000182823186192,0.000281674880125,3.24791523555e-05,0.99999994309
1801000000,180,1801000000,world,-0.00330257575212,0.000899729809113,2.13052624747,0.000183432583477,0.000283748277498,3.27282235307e-05,0.999999942384
1811000000,181,1811000000,world,-0.00332359418947,0.000905514676878,2.14087583191,0.000183853776381,0.000285595409976,3.29767113196e-05,0.999999941773
1821000000,182,1821000000,world,-0.00334420554256,0.000910699112157,2.15112933993,0.000184067313853,0.000287203329491,3.32246542462e-05,0.999999941265
1831000000,183,1831000000,world,-0.00336233024032,0.000915048526714,2.16128269472,0.000184098273377,0.000288815091731,3.3472789909e-05,0.999999940787
1841000000,184,1841000000,world,-0.00338018089928,0.00091885677314,2.17133194769,0.000183925929311,0.00029021530546,3.37205998837e-05,0.999999940405
1851000000,185,1851000000,world,-0.00339673592824,0.000922009156834,2.18127331165,0.000183569824242,0.000291491149432,3.39682916536e-05,0.999999940091
1861000000,186,1861000000,world,-0.00341242628248,0.000924599091077,2.19110315659,0.000183031728399,0.000292595725104,3.42158418945e-05,0.999999939858
1871000000,187,1871000000,world,-0.00342797560766,0.000926763705823,2.20081800218,0.000182298812859,0.00029344351253,3.4463202169e-05,0.999999939735
1881000000,188,1881000000,world,-0.00344338796517,0.000928528359476,2.21041451072,0.000181365807598,0.000294020200615,3.47101394248e-05,0.999999939727
1891000000,189,1891000000,world,-0.00345806413106,0.000929841646096,2.21988948104,0.00018020740622,0.000294381446579,3.49566275072e-05,0.999999939821
1901000000,190,1901000000,world,-0.00347175325425,0.000930693603257,2.22923984332,0.000178805918282,0.000294555984921,3.52028169761e-05,0.999999940013
1911000000,191,1911000000,world,-0.00348536726608,0.000931216645318,2.23846265404,0.00017715809977,0.000294488386827,3.54486829251e-05,0.999999940317
1921000000,192,1921000000,world,-0.00349889471845,0.00093142835077,2.2475550893,0.000175287062888,0.000294129721077,3.56941992061e-05,0.999999940744
1931000000,193,1931000000,world,-0.00351231775732,0.00093134329697,2.25651498808,0.000173200255106,0.000293462506938,3.59393427406e-05,0.999999941295
1941000000,194,1941000000,world,-0.00352507473665,0.000930940585421,2.26534436429,0.00017091142971,0.000292541472506,3.61843674426e-05,0.99999994195
1951000000,195,1951000000,world,-0.00353692114699,0.000930215540359,2.27404696338,0.000168404109411,0.000291390872402,3.64294358051e-05,0.999999942702
1961000000,196,1961000000,world,-0.00354866580941,0.00092922500622,2.28262639872,0.000165651462905,0.000289925262648,3.66740486618e-05,0.999999943579
1971000000,197,1971000000,world,-0.0035602872854,0.000927974892143,2.29108614859,0.000162613098293,0.00028815498055,3.69180979824e-05,0.99999994458
1981000000,198,1981000000,world,-0.00357128756242,0.000926487969767,2.2994295612,0.00015926426923,0.000286172115088,3.71618579985e-05,0.99999994568
1991000000,199,1991000000,world,-0.00358144948418,0.000924777533167,2.30765985976,0.000155639760804,0.000284012120594,3.74055703222e-05,0.999999946857
2001000000,200,2001000000,world,-0.0035914830897,0.000922822370322,2.31578014731,0.000151778199452,0.000281499269106,3.76489314911e-05,0.999999948152
2011000000,201,2011000000,world,-0.00360136814387,0.000920627318001,2.32379341,0.000147691523355,0.000278617175346,3.78919458327e-05,0.999999949562
2021000000,202,2021000000,world,-0.00361030231903,0.000918335107942,2.33170252134,0.000143374232007,0.000275446000581,3.81350265133e-05,0.99999995106
2031000000,203,2031000000,world,-0.00361889918563,0.000915836877484,2.33951024731,0.000138799471613,0.000271937211129,3.83779893957e-05,0.999999952656
2041000000,204,2041000000,world,-0.00362734351286,0.000913099899763,2.34721924935,0.000133934614336,0.000268090282429,3.86204508337e-05,0.999999954349
2051000000,205,2051000000,world,-0.00363561756505,0.000910127581115,2.35483230036,0.000128735841915,0.000263944791982,3.88623772273e-05,0.999999956125
2061000000,206,2061000000,world,-0.00364334982386,0.000907114360087,2.36235322455,0.000123172348946,0.000259620969247,3.91041343335e-05,0.999999957948
2071000000,207,2071000000,world,-0.00365054792682,0.000904052603815,2.36978608645,0.00011732572201,0.000255033820646,3.93458082915e-05,0.999999959822
2081000000,208,2081000000,world,-0.00365755768663,0.00090075297285,2.37713480008,0.000111252554879,0.00025003654415,3.95871129281e-05,0.999999961769
2091000000,209,2091000000,world,-0.00366436405342,0.000897221907561,2.38440313388,0.000104971785819,0.000244617529267,3.98281064633e-05,0.999999963778
2101000000,210,2101000000,world,-0.00367057191056,0.000893984426853,2.39159471591,9.84156293879e-05,0.000238826663591,4.00692700155e-05,0.999999965835
2111000000,211,2111000000,world,-0.00367652896266,0.000890589152981,2.39871303899,9.15730037053e-05,0.000232672541231,4.03101920489e-05,0.999999967926
2121000000,212,2121000000,world,-0.00368226838858,0.000886947060912,2.40576146527,8.44038056893e-05,0.000226192402538,4.05505615077e-05,0.999999970034
2131000000,213,2131000000,world,-0.00368778178942,0.000883066406841,2.41274305947,7.68633677603e-05,0.000219481372472,4.07904482875e-05,0.999999972128
2141000000,214,2141000000,world,-0.00369306176385,0.000878960976568,2.41965983711,6.89997354961e-05,0.000212595266749,4.10301164219e-05,0.999999974179
2151000000,215,2151000000,world,-0.00369807948904,0.000875352824924,2.42651342857,6.08416950923e-05,0.000205325531953,4.12697418553e-05,0.999999976218
2161000000,216,2161000000,world,-0.00370284049717,0.000871742546787,2.43330540147,5.24715372657e-05,0.000197612461709,4.15090790348e-05,0.999999978237
2171000000,217,2171000000,world,-0.00370734463176,0.000867900037004,2.44003726327,4.39343647871e-05,0.000189450345491,4.17482008101e-05,0.999999980218
2181000000,218,2181000000,world,-0.00371566536986,0.000868572465157,2.44671046561,3.46785567938e-05,0.000180457648743,4.19878328048e-05,0.999999982235
2191000000,219,2191000000,world,-0.00372944352482,0.000875682928599,2.45332640244,2.44659633645e-05,0.000170546668368,4.2227866727e-05,0.999999984266
2201000000,220,2201000000,world,-0.00374232025093,0.000881861187969,2.45988641053,1.40139678421e-05,0.000160511677157,4.24672795957e-05,0.999999986118
2211000000,221,2211000000,world,-0.00375423705631,0.000887053656322,2.46639177842,3.33628543035e-06,0.000150544901622,4.27062633556e-05,0.999999987751
2221000000,222,2221000000,world,-0.00376516112933,0.000891248870045,2.47284374503,-7.38486397644e-06,0.00014050290025,4.29449610833e-05,0.99999998918
2231000000,223,2231000000,world,-0.00378122193761,0.000901082579165,2.47924350307,-1.87510924205e-05,0.00012956507549,4.31840184219e-05,0.999999990498
2241000000,224,2241000000,world,-0.00379659370193,0.000910714414932,2.48559219558,-3.00762595642e-05,0.000118357003088,4.34228091025e-05,0.999999991601
2251000000,225,2251000000,world,-0.00381055524073,0.000918933391752,2.49189054319,-4.12340575894e-05,0.000107014197687,4.36613859702e-05,0.999999992471
2261000000,226,2261000000,world,-0.00382526019473,0.000927791908975,2.49813771134,-5.25086872245e-05,9.54408016013e-05,4.38997914243e-05,0.999999993103
2271000000,227,2271000000,world,-0.00384103432728,0.000938164119765,2.50433252558,-6.40097326398e-05,8.37202484265e-05,4.41377681568e-05,0.999999993473
2281000000,228,2281000000,world,-0.00385522114016,0.000946969748064,2.51047385822,-7.54342628209e-05,7.23261435632e-05,4.43749082164e-05,0.999999993555
2291000000,229,2291000000,world,-0.00386787233659,0.000954278282132,2.51656062689,-8.66664985945e-05,6.13163431906e-05,4.46114765499e-05,0.99999999337
2301000000,230,2301000000,world,-0.00387905658444,0.000960187926735,2.52259179229,-9.75355189318e-05,5.04002386664e-05,4.48474056342e-05,0.999999992968
2311000000,231,2311000000,world,-0.00388886602988,0.000964812485058,2.52856635635,-0.000108001188927,3.95272904562e-05,4.50826083339e-05,0.99999999237
2321000000,232,2321000000,world,-0.00389997899891,0.000971443808495,2.53448336002,-0.00011837745645,2.84373770923e-05,4.53176147421e-05,0.999999991562
2331000000,233,2331000000,world,-0.00391006291241,0.000977197533671,2.5403418256,-0.000128433800589,1.74799725072e-05,4.55521550035e-05,0.999999990562
2341000000,234,2341000000,world,-0.00391891985405,0.000981817379974,2.54614050042,-0.000138180845488,6.78279249801e-06,4.57857838259e-05,0.999999989382
2351000000,235,2351000000,world,-0.00392904592244,0.000987565274699,2.5518780774,-0.000147890633904,-3.80401300557e-06,4.60187647312e-05,0.999999987998
2361000000,236,2361000000,world,-0.00393860553405,0.00099281388504,2.55755330267,-0.000157375544554,-1.39148562384e-05,4.6250966589e-05,0.99999998645
2371000000,237,2371000000,world,-0.00394707057586,0.000997121056405,2.56316497217,-0.000166413524416,-2.36654659836e-05,4.64825093226e-05,0.999999984793
2381000000,238,2381000000,world,-0.0039545353514,0.00100060145342,2.56871192958,-0.000174940926721,-3.32267204199e-05,4.67132980951e-05,0.999999983055
2391000000,239,2391000000,world,-0.00396146460051,0.00100391885558,2.57419306438,-0.000183000031616,-4.2642203685e-05,4.69434332123e-05,0.999999981244
2401000000,240,2401000000,world,-0.00396781799644,0.00100696608787,2.57960731048,-0.000190603495472,-5.18645092214e-05,4.71731328018e-05,0.999999979378
2411000000,241,2411000000,world,-0.00397345096643,0.00100947545568,2.58495364427,-0.000197779925389,-6.07838004499e-05,4.74021756398e-05,0.999999977471
2421000000,242,2421000000,world,-0.00397846451601,0.00101155251738,2.59023108267,-0.000204573212112,-6.93439859431e-05,4.76302527671e-05,0.999999975536
2431000000,243,2431000000,world,-0.00398374214974,0.00101314649286,2.59543868154,-0.000211007210398,-7.75256613187e-05,4.78576919821e-05,0.999999973588
2441000000,244,2441000000,world,-0.00398854981533,0.00101452114208,2.60057553437,-0.000217045391639,-8.52114727138e-05,4.80844500961e-05,0.999999971659
2451000000,245,2451000000,world,-0.0039929672777,0.00101577442982,2.60564097855,-0.000222597757396,-9.25992590193e-05,4.83101843198e-05,0.999999969771
2461000000,246,2461000000,world,-0.00399707556653,0.00101699565849,2.61063558976,-0.000227658129561,-9.9689944277e-05,4.85342064873e-05,0.999999967939
2471000000,247,2471000000,world,-0.00399335317864,0.00101215176344,2.61556035917,-0.000231599446499,-0.000105679647481,4.87552143474e-05,0.999999966408
2481000000,248,2481000000,world,-0.00398807694856,0.00100630767365,2.62041623179,-0.000235006446881,-0.00011120596503,4.89745752331e-05,0.999999965003
2491000000,249,2491000000,world,-0.00398334539544,0.00100116382825,2.62520411823,-0.000238093148873,-0.000116474534471,4.91923462985e-05,0.999999963663
2501000000,250,2501000000,world,-0.00397668614615,0.000995869485571,2.62992489609,-0.00024082251257,-0.000121210062288,4.94077767236e-05,0.999999962436
2511000000,251,2511000000,world,-0.00397028950886,0.000991191885266,2.63457940702,-0.000243301106945,-0.000125601310229,4.96216354082e-05,0.999999961283
2521000000,252,2521000000,world,-0.00396489792762,0.000987514909962,2.63916846053,-0.000245530066719,-0.00012981483985,4.98343215616e-05,0.99999996019
2531000000,253,2531000000,world,-0.00396055654193,0.000984873103118,2.64369287096,-0.000247506841839,-0.000133984748429,5.00457321639e-05,0.999999959142
2541000000,254,2541000000,world,-0.00395728664416,0.000983280941543,2.64815382655,-0.000249242543204,-0.000138117814002,5.02556919385e-05,0.999999958138
2551000000,255,2551000000,world,-0.00395508811846,0.000982736875472,2.65255272286,-0.000250756519926,-0.000142222051137,5.04644438252e-05,0.999999957174
2561000000,256,2561000000,world,-0.00395425543648,0.0009839760341,2.65689090503,-0.000252145901349,-0.000146312025425,5.06719457243e-05,0.999999956224
2571000000,257,2571000000,world,-0.00395446252474,0.000986261149932,2.66116966731,-0.000253369245219,-0.000150344883935,5.08779199742e-05,0.999999955306
2581000000,258,2581000000,world,-0.0039558831573,0.000989880049327,2.66539025339,-0.000254485631827,-0.00015430175529,5.10824950256e-05,0.999999954409
2591000000,259,2591000000,world,-0.00395877584211,0.00099529330971,2.66955385887,-0.000255532485979,-0.000158171500071,5.12860063975e-05,0.999999953527
2601000000,260,2601000000,world,-0.003962482582,0.00100146617211,2.67366163426,-0.00025637059288,-0.000162026506783,5.148844488e-05,0.999999952685
2611000000,261,2611000000,world,-0.00396694638117,0.00100834981573,2.67771449427,-0.000256990926098,-0.000165907279179,5.16898298761e-05,0.999999951879
2621000000,262,2621000000,world,-0.00397211428898,0.00101590020404,2.6817125517,-0.00025738473121,-0.000169812358025,5.18903271447e-05,0.999999951112
2631000000,263,2631000000,world,-0.00397846566809,0.00102449679085,2.68565572757,-0.00025759811901,-0.000173771220586,5.20901698987e-05,0.999999950367
2641000000,264,2641000000,world,-0.00398591076728,0.00103406955437,2.68954394642,-0.000257622461471,-0.000177747180185,5.22890140859e-05,0.999999949651
2651000000,265,2651000000,world,-0.00399458175127,0.00104460597055,2.69337713566,-0.000257482086818,-0.000181721425392,5.24867956025e-05,0.999999948963
2661000000,266,2661000000,world,-0.00400414100841,0.0010558881199,2.69715522583,-0.000257152208366,-0.000185583650184,5.26836006146e-05,0.999999948328
2671000000,267,2671000000,world,-0.00401404686382,0.001067573161,2.70087815036,-0.000256574312177,-0.000189323934621,5.28795180191e-05,0.999999947765
2681000000,268,2681000000,world,-0.00402426183678,0.00107963706467,2.70454584497,-0.000255737556909,-0.000193041855582,5.30745147397e-05,0.999999947258
2691000000,269,2691000000,world,-0.00403476047467,0.00109206231705,2.70815824789,-0.00025463500496,-0.000196734408541,5.32686703264e-05,0.99999994681
2701000000,270,2701000000,world,-0.00404629803719,0.00110522195561,2.71171529927,-0.000253299921507,-0.00020046659711,5.34623627796e-05,0.999999946397
2711000000,271,2711000000,world,-0.00405854844426,0.00111895092616,2.71521694227,-0.000251692697355,-0.000204165416928,5.36553722396e-05,0.999999946044
2721000000,272,2721000000,world,-0.00407096782182,0.00113297555356,2.71866312246,-0.000249794231301,-0.000207744838493,5.38473018498e-05,0.999999945773
2731000000,273,2731000000,world,-0.0040835502349,0.0011472905275,2.72205420298,-0.000247606927792,-0.000211153713625,5.40382023307e-05,0.999999945592
2741000000,274,2741000000,world,-0.00409754951512,0.00116242763509,2.725392204,-0.000245181709215,-0.000214472035256,5.42285847152e-05,0.999999945473
2751000000,275,2751000000,world,-0.0041117797047,0.00117788220063,2.72867947854,-0.000242470669517,-0.000217690576569,5.44182216702e-05,0.999999945429
2761000000,276,2761000000,world,-0.00412609809662,0.00119359264831,2.7319182895,-0.000239467154316,-0.000220816798767,5.4607082281e-05,0.999999945457
2771000000,277,2771000000,world,-0.00414051386014,0.0012095615117,2.73511081351,-0.000236166296769,-0.000223839969807,5.47953232882e-05,0.999999945559
2781000000,278,2781000000,world,-0.0041550426214,0.00122579402465,2.73825914424,-0.000232541382228,-0.000226732004578,5.49830392342e-05,0.999999945747
2791000000,279,2791000000,world,-0.00417058025141,0.00124256930662,2.74136529494,-0.000228593174945,-0.00022956198624,5.51701173569e-05,0.999999946001
2801000000,280,2801000000,world,-0.00418679109524,0.00125978198292,2.74443120267,-0.000224318462545,-0.000232264178484,5.53563893102e-05,0.999999946335
2811000000,281,2811000000,world,-0.004203857991,0.00127737360369,2.74745860094,-0.000219702836835,-0.000234795015239,5.55420696584e-05,0.999999946759
2821000000,282,2821000000,world,-0.00422173276202,0.00129533574353,2.75044845316,-0.000214780216091,-0.00023718224685,5.57272921465e-05,0.999999947254
2831000000,283,2831000000,world,-0.00423963343355,0.00131354042645,2.75340145353,-0.000209555823955,-0.000239411416326,5.59118160503e-05,0.999999947821
2841000000,284,2841000000,world,-0.00425757579113,0.00133198954493,2.75631826883,-0.000204033295234,-0.000241471743151,5.60957372822e-05,0.999999948458
2851000000,285,2851000000,world,-0.00427558220876,0.001350686023,2.75919953996,-0.000198192356902,-0.00024334547231,5.62792437656e-05,0.999999949168
2861000000,286,2861000000,world,-0.0042947199957,0.00136960002448,2.76204588237,-0.000191964719033,-0.000245121849896,5.64624470583e-05,0.999999949938
2871000000,287,2871000000,world,-0.0043143504808,0.00138875478564,2.76485788838,-0.000185353562343,-0.000246716435131,5.66449254618e-05,0.999999950783
2881000000,288,2881000000,world,-0.00433403460946,0.00140816663635,2.76763612717,-0.000178346292542,-0.000248052809394,5.6826639981e-05,0.999999951717
2891000000,289,2891000000,world,-0.0043539419608,0.00142780067109,2.7703811455,-0.000170978992582,-0.000249114543207,5.70078050067e-05,0.999999952729
2901000000,290,2901000000,world,-0.00437521353554,0.00144739428993,2.77309346836,-0.000163288080573,-0.000250083723442,5.71888239384e-05,0.999999953762
2911000000,291,2911000000,world,-0.00439653199285,0.00146725666106,2.77577360137,-0.000155320908586,-0.000250821684642,5.73692549418e-05,0.999999954836
2921000000,292,2921000000,world,-0.00441791735633,0.00148738576914,2.77842202992,-0.000147073216047,-0.000251313675286,5.7549277865e-05,0.999999955949
2931000000,293,2931000000,world,-0.00443939484311,0.0015077786201,2.78103926992,-0.000138465561631,-0.000251547157541,5.77289073416e-05,0.999999957109
2941000000,294,2941000000,world,-0.00446119237833,0.0015283226282,2.78362618593,-0.000129448393926,-0.000251543857063,5.7907901064e-05,0.999999958308
2951000000,295,2951000000,world,-0.00448423063879,0.00154853506495,2.78618377229,-0.000119961868668,-0.000251397856459,5.80866363852e-05,0.999999959517
2961000000,296,2961000000,world,-0.00450736904555,0.00156902666367,2.78871298505,-0.000110081274964,-0.00025096003053,5.8264796776e-05,0.999999960753
2971000000,297,2971000000,world,-0.00453062776255,0.00158978577692,2.79121474353,-9.9923430607e-05,-0.000250231878331,5.84424550442e-05,0.999999961992
2981000000,298,2981000000,world,-0.00455456080461,0.00161029964508,2.79368993108,-8.94719825718e-05,-0.000249284199476,5.8619849225e-05,0.999999963208
2991000000,299,2991000000,world,-0.00457926366327,0.00163048605357,2.79613939692,-7.87321713785e-05,-0.000248109072158,5.8797133752e-05,0.999999964393
3001000000,300,3001000000,world,-0.00460408566364,0.00165096328897,2.7985639576,-6.77062260315e-05,-0.000246628885721,5.89741304303e-05,0.999999965556
3011000000,301,3011000000,world,-0.00462889111337,0.00166937086893,2.80096439678,-5.60495247744e-05,-0.000244838238258,5.91510382893e-05,0.999999966707
3021000000,302,3021000000,world,-0.00465301540416,0.00167522145497,2.8033414742,-4.26785489786e-05,-0.000242684812419,5.93302236151e-05,0.999999967881
3031000000,303,3031000000,world,-0.00467738030096,0.00168225675099,2.80569590777,-2.90463868089e-05,-0.000240290237031,5.95085934769e-05,0.999999968938
3041000000,304,3041000000,world,-0.00470201681385,0.0016905620867,2.80802839575,-1.53386599724e-05,-0.000237603979053,5.96862906157e-05,0.999999969873
3051000000,305,3051000000,world,-0.00472695100135,0.00170016851553,2.81033950033,-1.69151498786e-06,-0.000234625380005,5.98632630568e-05,0.999999970682
3061000000,306,3061000000,world,-0.00475076835453,0.00170118601885,2.81262933012,1.28754480796e-05,-0.000231189367918,6.00417955416e-05,0.99999997139
3071000000,307,3071000000,world,-0.00477501139467,0.00170405731151,2.81489788236,2.72504974396e-05,-0.000227459093845,6.021963151e-05,0.999999971947
3081000000,308,3081000000,world,-0.0047997063791,0.00170879942473,2.81714515564,4.15354620426e-05,-0.000223472768088,6.039662943e-05,0.999999972343
3091000000,309,3091000000,world,-0.00482487120616,0.00171537392688,2.81937114858,5.57130359617e-05,-0.000219271931851,6.05725146574e-05,0.999999972573
3101000000,310,3101000000,world,-0.00485051603498,0.00172370264483,2.82157585988,6.97828456109e-05,-0.000214918872275,6.0747340435e-05,0.999999972625
3111000000,311,3111000000,world,-0.00487664666521,0.00173367372592,2.82375928828,8.36271064707e-05,-0.000210386510103,6.0921202587e-05,0.999999972516
3121000000,312,3121000000,world,-0.00490326485525,0.00174515093333,2.82592143262,9.70646652503e-05,-0.00020560918374,6.10941068151e-05,0.999999972285
3131000000,313,3131000000,world,-0.0049298108036,0.00175622491917,2.82806229156,0.000110247013596,-0.000200509952805,6.12665749252e-05,0.999999971944
3141000000,314,3141000000,world,-0.00495560133924,0.00176460079788,2.8301818635,0.000123397188357,-0.000195010299764,6.14393281003e-05,0.999999971485
3151000000,315,3151000000,world,-0.00498097545248,0.00177212587248,2.83228025834,0.000136413834097,-0.000189187257967,6.16119257366e-05,0.999999970902
3161000000,316,3161000000,world,-0.00500601696215,0.00177887486157,2.83435840913,0.000149312919463,-0.000183111065309,6.17839932786e-05,0.999999970179
3171000000,317,3171000000,world,-0.00503175767778,0.00178707973615,2.83641757861,0.000161843387332,-0.000176966636847,6.19548136428e-05,0.999999969326
3181000000,318,3181000000,world,-0.00505819480015,0.00179662560192,2.83845898188,0.000173966823743,-0.000170807565041,6.21245219756e-05,0.99999996835
3191000000,319,3191000000,world,-0.00508402822859,0.00180629685822,2.84048378718,0.000185609733615,-0.000164375259785,6.22938582687e-05,0.999999967325
3201000000,320,3201000000,world,-0.00510976728298,0.00181639107867,2.84249311739,0.000196669457157,-0.000157693543439,6.24625821063e-05,0.999999966276
3211000000,321,3211000000,world,-0.00513628715817,0.00182751393385,2.84448805206,0.000207061628724,-0.000150846460667,6.26304042165e-05,0.999999965224
3221000000,322,3221000000,world,-0.00516337797939,0.00183947182821,2.84646962901,0.000216866685048,-0.000143846444761,6.27975163503e-05,0.999999964167
3231000000,323,3231000000,world,-0.00518954942881,0.00185169156332,2.848438846,0.000226208783451,-0.000136613695387,6.29643990683e-05,0.999999963101
3241000000,324,3241000000,world,-0.00521652969971,0.00186455444233,2.85039666169,0.000235025833432,-0.000129405197732,6.31300260597e-05,0.999999962016
3251000000,325,3251000000,world,-0.00524428990408,0.00187792739478,2.85234299599,0.000243326724621,-0.000122320517416,6.3294552485e-05,0.999999960912
3261000000,326,3261000000,world,-0.00527205870635,0.00189181624787,2.85427374999,0.000250997567432,-0.00011517388986,6.34584994352e-05,0.999999959854
3271000000,327,3271000000,world,-0.00529949706798,0.00190615268641,2.85618401444,0.00025798422492,-0.000107858606952,6.36220247971e-05,0.999999958881
3281000000,328,3281000000,world,-0.00532770465758,0.00192060996635,2.85806908398,0.000264323999748,-0.000100476399565,6.37847222944e-05,0.999999957984
3291000000,329,3291000000,world,-0.00535664106976,0.00193508128506,2.85992444909,0.000270065220729,-9.30407329873e-05,6.39467563878e-05,0.99999995716
3301000000,330,3301000000,world,-0.00538854639635,0.00195217460167,2.8617457883,0.000275000635311,-8.58634747397e-05,6.41067469347e-05,0.999999956446
3311000000,331,3311000000,world,-0.00542614737487,0.00197508696912,2.86352895946,0.000278806839473,-7.92838876913e-05,6.4262936e-05,0.999999955926
3321000000,332,3321000000,world,-0.00546384713532,0.00199718965652,2.86526998692,0.000282190901335,-7.27711730684e-05,6.44184134874e-05,0.999999955461
3331000000,333,3331000000,world,-0.00550153874145,0.00201835206005,2.86696558518,0.000285159290285,-6.62811278953e-05,6.4573415235e-05,0.999999955061
3341000000,334,3341000000,world,-0.00553914154497,0.00203847765134,2.86861650972,0.000287704728071,-5.96743675499e-05,6.47280681936e-05,0.999999954738
3351000000,335,3351000000,world,-0.00557659250432,0.00205750059055,2.87022521361,0.000289856165408,-5.2902359173e-05,6.48824421018e-05,0.999999954488
3361000000,336,3361000000,world,-0.00561549089346,0.00207676594647,2.87179406348,0.000291508159782,-4.61108288708e-05,6.50359376145e-05,0.999999954334
3371000000,337,3371000000,world,-0.00565423490155,0.00209493683988,2.87332533467,0.000292839543346,-3.91541228111e-05,6.51893718816e-05,0.999999954231
3381000000,338,3381000000,world,-0.00569259846387,0.0021118407375,2.87482121636,0.00029388895703,-3.2054585041e-05,6.53425052437e-05,0.999999954166
3391000000,339,3391000000,world,-0.00573060669233,0.00212728195063,2.87628381423,0.000294666884701,-2.48686558094e-05,6.54952950009e-05,0.999999954132
3401000000,340,3401000000,world,-0.00576824273357,0.00214129588962,2.87771515375,0.000295175360483,-1.76584252586e-05,6.56479245892e-05,0.999999954125
3411000000,341,3411000000,world,-0.00580545691418,0.00215412041204,2.87911718316,0.00029540144384,-1.02655028892e-05,6.58005789738e-05,0.999999954151
3421000000,342,3421000000,world,-0.00584112473628,0.00216458201317,2.88049177535,0.000295484945701,-2.49520312934e-06,6.59537738436e-05,0.999999954166
3431000000,343,3431000000,world,-0.00587633283798,0.00217388205372,2.88184073285,0.000295316196381,5.56886885873e-06,6.61070960465e-05,0.999999954194
3441000000,344,3441000000,world,-0.00591123352911,0.00218221816349,2.88316578859,0.000294886434871,1.38991779552e-05,6.62606168338e-05,0.999999954229
3451000000,345,3451000000,world,-0.00594584764249,0.00218964583053,2.88446856299,0.000294192817319,2.2421435522e-05,6.64140515294e-05,0.999999954269
3461000000,346,3461000000,world,-0.00597961357946,0.00219577405977,2.88574991258,0.000293246326608,3.11283928866e-05,6.6567389747e-05,0.999999954303
3471000000,347,3471000000,world,-0.00601246812603,0.00220059231838,2.88701012713,0.000292028264661,3.99073603886e-05,6.67207359374e-05,0.999999954338
3481000000,348,3481000000,world,-0.00604516402214,0.00220470903147,2.8882494728,0.000290488166781,4.875670476e-05,6.68740042253e-05,0.999999954384
3491000000,349,3491000000,world,-0.00607722309511,0.00220797437219,2.88946820483,0.000288665177489,5.78743182411e-05,6.70273612338e-05,0.999999954415
3501000000,350,3501000000,world,-0.006108050396,0.00221018903539,2.89066656844,0.000286590742425,6.73569316851e-05,6.71810520113e-05,0.999999954408
3511000000,351,3511000000,world,-0.00613885997062,0.00221186484762,2.89184479985,0.000284220326042,7.70745296661e-05,6.73347669731e-05,0.999999954372
3521000000,352,3521000000,world,-0.00616966174333,0.0022130343771,2.89300312569,0.000281527048969,8.69438108288e-05,6.74883794494e-05,0.999999954314
3531000000,353,3531000000,world,-0.00620045597442,0.00221372331441,2.89414178245,0.000278473280678,9.68793063745e-05,6.76415073073e-05,0.999999954246
3541000000,354,3541000000,world,-0.0062312333868,0.00221395156709,2.89526119334,0.000275016197558,0.000106765238588,6.77941521811e-05,0.999999954186
3551000000,355,3551000000,world,-0.00624933899837,0.00221643416845,2.89636187786,0.000270870863602,0.000117839278922,6.79502907585e-05,0.999999954063
3561000000,356,3561000000,world,-0.00626679222077,0.00221861641502,2.89744433838,0.000266376446357,0.000129059610783,6.81064222021e-05,0.999999953874
3571000000,357,3571000000,world,-0.00628512946437,0.00222017634004,2.89850905735,0.000261595366929,0.000140294931717,6.82620812843e-05,0.999999953613
3581000000,358,3581000000,world,-0.00629793367932,0.00222362636843,2.89955649771,0.000256293038965,0.000152204766739,6.84193384786e-05,0.999999953233
3591000000,359,3591000000,world,-0.00631047945889,0.00222690887019,2.90058710495,0.000250658066422,0.000164116336573,6.85765814674e-05,0.999999952767
3601000000,360,3601000000,world,-0.00632446245441,0.00222935460348,2.90160130736,0.000244727178268,0.000175694355233,6.8732899802e-05,0.999999952258
3611000000,361,3611000000,world,-0.00633986811936,0.00223095564872,2.90259951644,0.000238461843918,0.000186798774067,6.88881727145e-05,0.999999951748
3621000000,362,3621000000,world,-0.00635289106161,0.00223408695959,2.90358212724,0.000231600933244,0.00019766370856,6.90439773053e-05,0.999999951261
3631000000,363,3631000000,world,-0.00636650967972,0.00223683248843,2.90454951975,0.000224464174131,0.00020814374866,6.91993904659e-05,0.999999950752
3641000000,364,3641000000,world,-0.00638161958698,0.0022385844051,2.90550205917,0.000217184841786,0.000218214855495,6.93539984261e-05,0.999999950202
3651000000,365,3651000000,world,-0.00639812043696,0.00223935793128,2.90644009642,0.000209798300678,0.000227870264459,6.9507891004e-05,0.999999949614
3661000000,366,3661000000,world,-0.00641588828557,0.00223917956702,2.90736396871,0.000202288179866,0.000237060892104,6.96612313172e-05,0.999999949014
3671000000,367,3671000000,world,-0.00643302858021,0.00224073882727,2.90827393158,0.000194323213992,0.000245872086643,6.98149930496e-05,0.999999948456
3681000000,368,3681000000,world,-0.00645125476794,0.00224126314027,2.90916995414,0.000186147776144,0.000254031122708,6.99676440014e-05,0.999999947961
3691000000,369,3691000000,world,-0.00647042720296,0.00224077928148,2.91005193971,0.000177728695291,0.000261444888815,7.01193290141e-05,0.999999947571
3701000000,370,3701000000,world,-0.00649040394968,0.00223932989927,2.91091979532,0.00016916203359,0.000268204487661,7.02703213407e-05,0.999999947256
3711000000,371,3711000000,world,-0.00651104222567,0.00223696740909,2.91177343164,0.000160556040559,0.000274404342286,7.04205426444e-05,0.999999946982
3721000000,372,3721000000,world,-0.00653211022785,0.00223458743343,2.91261276307,0.000151850597519,0.000280069995002,7.05703749094e-05,0.999999946761
3731000000,373,3731000000,world,-0.00655336144381,0.00223326892516,2.91343773379,0.000142946432527,0.000285210921786,7.07204480781e-05,0.99999994661
3741000000,374,3741000000,world,-0.00657488083144,0.00223103885566,2.91424869281,0.000133974023193,0.000289764403366,7.08698304506e-05,0.999999946533
3751000000,375,3751000000,world,-0.00659676531523,0.00222865219978,2.91504628344,0.000124809237188,0.000293679343324,7.10184773177e-05,0.999999946566
3761000000,376,3761000000,world,-0.00661952045796,0.0022281816733,2.91583113184,0.00011519159065,0.000296873488688,7.11673287309e-05,0.999999946766
3771000000,377,3771000000,world,-0.00664214096415,0.00222673210661,2.91660383755,0.00010547929706,0.000299492970163,7.13154283948e-05,0.999999947046
3781000000,378,3781000000,world,-0.00666452655036,0.00222434343714,2.91736497811,9.58352890289e-05,0.000301584954029,7.14628016021e-05,0.999999947378
3791000000,379,3791000000,world,-0.00668766219951,0.00222248269203,2.91811510955,8.61552573696e-05,0.00030303404948,7.16099671561e-05,0.99999994781
3801000000,380,3801000000,world,-0.00671103259333,0.00222062781465,2.91885476489,7.65294660801e-05,0.000303899999674,7.17568315061e-05,0.999999948319
3811000000,381,3811000000,world,-0.00673382399184,0.00221785109559,2.91958445614,6.69898615116e-05,0.000304268859995,7.19031392165e-05,0.999999948881
3821000000,382,3821000000,world,-0.00675597302026,0.00221420559906,2.92030467602,5.74779267302e-05,0.000304150789663,7.20485324751e-05,0.999999949499
3831000000,383,3831000000,world,-0.00677743124206,0.00220975319755,2.92101589806,4.79408634159e-05,0.000303568373764,7.21929292423e-05,0.999999950168
3841000000,384,3841000000,world,-0.00679816430774,0.00220456269335,2.92171857729,3.83682961533e-05,0.000302585143369,7.23365941697e-05,0.999999950869
3861000000,386,3861000000,world,-0.00683736615163,0.00219227520583,2.92310003963,1.96486954e-05,0.00029936419703,7.26220585155e-05,0.999999952361
3871000000,387,3871000000,world,-0.00685581196593,0.0021853295396,2.92377964694,1.05822460428e-05,0.000297065477456,7.27638256299e-05,0.999999953173
3881000000,388,3881000000,world,-0.00687348601571,0.00217794566654,2.9244523611,1.66790751979e-06,0.000294320986121,7.29052280723e-05,0.999999954029
3891000000,389,3891000000,world,-0.00689405265958,0.00215819915794,2.92511853411,-5.94978720909e-06,0.000290773596224,7.3041374873e-05,0.99999995504
3901000000,390,3901000000,world,-0.00691425792979,0.00213375632797,2.92577814244,-1.31367084071e-05,0.000286815535313,7.31750180099e-05,0.999999956105
3911000000,391,3911000000,world,-0.00693343192679,0.00210985709438,2.92643089261,-2.05183886224e-05,0.000282615966488,7.33083571107e-05,0.999999957167
3921000000,392,3921000000,world,-0.00695157485266,0.00208703233406,2.92707649656,-2.8091348697e-05,0.000278199138499,7.34418812318e-05,0.999999958211
3931000000,393,3931000000,world,-0.00696869280415,0.00206539048709,2.92771470761,-3.58180602297e-05,0.000273427262965,7.3575483632e-05,0.999999959271
3941000000,394,3941000000,world,-0.00698480579241,0.00204499382862,2.9283455284,-4.37179851368e-05,0.000268299669659,7.37090577341e-05,0.999999960335
3951000000,395,3951000000,world,-0.00699920651746,0.00202922956847,2.92896907455,-5.21680131195e-05,0.000262906884488,7.38440698086e-05,0.999999961353
3961000000,396,3961000000,world,-0.0070123246152,0.00201671537301,2.92958545869,-6.11265922944e-05,0.000257256289578,7.39799319187e-05,0.999999962305
3971000000,397,3971000000,world,-0.0070246168913,0.00200507575837,2.9301947893,-7.04229579168e-05,0.000251345248083,7.41154328165e-05,0.999999963187
3981000000,398,3981000000,world,-0.00703613409733,0.00199423592878,2.93079717017,-8.01168448081e-05,0.000245256695255,7.42505738713e-05,0.999999963959
