%time,field.header.seq,field.header.stamp,field.header.frame_id,field.point.x,field.point.y,field.point.z
511000000,0,511000000,world,-2.40877468784e-05,-3.57535871117e-06,0.625381922025
521000000,1,521000000,world,-3.61732206466e-05,-1.5937123477e-06,0.625746723652
531000000,2,531000000,world,-4.87628244162e-05,1.28740860506e-06,0.626289234884
541000000,3,541000000,world,-6.16536802418e-05,3.93122937868e-06,0.627044343015
551000000,4,551000000,world,-7.46265421284e-05,4.98330808527e-06,0.628046478903
561000000,5,561000000,world,-8.79528484501e-05,6.8597926028e-06,0.629329184875
571000000,6,571000000,world,-0.000101591307924,9.50218071662e-06,0.630925114257
581000000,7,581000000,world,-0.000115511982304,1.28482802943e-05,0.632866033558
591000000,8,591000000,world,-0.000128247203233,1.54149837442e-05,0.635182827291
601000000,9,601000000,world,-0.000139906629884,1.69520912271e-05,0.63790550405
611000000,10,611000000,world,-0.000151994389433,1.92069896717e-05,0.641063204856
621000000,11,621000000,world,-0.000164530408978,2.21422991841e-05,0.644684214221
631000000,12,631000000,world,-0.000175197761249,2.36705244673e-05,0.648795971807
641000000,13,641000000,world,-0.000185904469678,2.54178610751e-05,0.653425083796
651000000,14,651000000,world,-0.00019728198457,2.78844319672e-05,0.658594555219
661000000,15,661000000,world,-0.000209351275828,3.10356561056e-05,0.664315452069
671000000,16,671000000,world,-0.000222124089426,3.48296531376e-05,0.670595713199
681000000,17,681000000,world,-0.000233783362126,3.761108195e-05,0.677442986446
691000000,18,691000000,world,-0.000245814272851,4.0651356623e-05,0.684864636604
701000000,19,701000000,world,-0.000256559949274,4.2279346123e-05,0.69286775737
711000000,20,711000000,world,-0.000268295572332,4.46407378924e-05,0.701459178136
721000000,21,721000000,world,-0.00028103503406,4.77122927436e-05,0.710645475327
731000000,22,731000000,world,-0.000294453090365,5.10599044223e-05,0.720429225069
741000000,23,741000000,world,-0.000308404532841,5.44835771377e-05,0.730792521758
751000000,24,751000000,world,-0.000323369191823,5.85658833139e-05,0.741711576888
761000000,25,761000000,world,-0.000339321867004,6.32679429311e-05,0.753163707486
771000000,26,771000000,world,-0.000356232341452,6.85468977974e-05,0.765127279426
781000000,27,781000000,world,-0.000374065492177,7.43573656356e-05,0.777581653713
791000000,28,791000000,world,-0.000392785330841,8.06529992313e-05,0.790507136128
801000000,29,801000000,world,-0.000412216432361,8.72040654519e-05,0.803884929785
811000000,30,811000000,world,-0.000431924667023,9.34404433778e-05,0.817694876979
821000000,31,821000000,world,-0.000452222063505,9.98222463185e-05,0.831901341876
831000000,32,831000000,world,-0.000472452946591,0.000105551992856,0.846463354263
841000000,33,841000000,world,-0.000493477939592,0.000111712439177,0.861342107726
851000000,34,851000000,world,-0.000515209380409,0.000118205501893,0.8765008573
861000000,35,861000000,world,-0.00053717859411,0.000124434975736,0.891904796651
871000000,36,871000000,world,-0.000559876860345,0.000131064314077,0.907520942914
881000000,37,881000000,world,-0.000583273792917,0.000138071710595,0.923318030787
891000000,38,891000000,world,-0.000607338128184,0.000145432758538,0.939266412255
901000000,39,901000000,world,-0.000632038044938,0.000153121743046,0.955337963089
911000000,40,911000000,world,-0.000657091655296,0.000160783863506,0.971505995446
921000000,41,921000000,world,-0.000682489265899,0.000168420502625,0.987745175654
931000000,42,931000000,world,-0.000708316647686,0.000176132487005,1.00403134887
941000000,43,941000000,world,-0.000734487991528,0.000183813075952,1.02034117761
951000000,44,951000000,world,-0.000761204442882,0.000191780455841,1.03665239634
961000000,45,961000000,world,-0.00078844301663,0.000200017913426,1.05294384798
971000000,46,971000000,world,-0.000816180357323,0.00020850752552,1.06919542222
981000000,47,981000000,world,-0.000844392891895,0.000217230295921,1.08538799779
991000000,48,991000000,world,-0.000873057457233,0.000226167298069,1.10150338827
1001000000,49,1001000000,world,-0.000901954992326,0.000235043206335,1.11752429128
1011000000,50,1011000000,world,-0.00093114490201,0.000243946892171,1.13343424045
1021000000,51,1021000000,world,-0.000960509198102,0.000252778043241,1.14921756076
1031000000,52,1031000000,world,-0.00099012692839,0.000261632444236,1.16485932611
1041000000,53,1041000000,world,-0.00102014518077,0.000270681980515,1.18034531968
1051000000,54,1051000000,world,-0.00105054934099,0.000279916890099,1.19566287154
1061000000,55,1061000000,world,-0.00108132565064,0.000289326287876,1.21080465346
1071000000,56,1071000000,world,-0.0011122025869,0.000298738422602,1.22576522526
1081000000,57,1081000000,world,-0.00114342672669,0.000308305228504,1.24053937724
1091000000,58,1091000000,world,-0.00117500100948,0.000318026732816,1.25512211999
1101000000,59,1101000000,world,-0.00120691308764,0.000327893744628,1.26950867457
1111000000,60,1111000000,world,-0.00123907665903,0.000337881868743,1.28369446314
1121000000,61,1121000000,world,-0.00127127013159,0.000347871018417,1.29767510002
1131000000,62,1131000000,world,-0.00130378352149,0.000357980422812,1.31144680991
1141000000,63,1141000000,world,-0.00133660866195,0.000368211109502,1.32501613766
1151000000,64,1151000000,world,-0.00136922532757,0.000378424975548,1.33839954611
1161000000,65,1161000000,world,-0.0014019556685,0.000388687849227,1.35161343746
1171000000,66,1171000000,world,-0.00143485325807,0.000399044012558,1.36467372843
1181000000,67,1181000000,world,-0.00146770446678,0.000409458267791,1.37759585745
1191000000,68,1191000000,world,-0.00150091773335,0.000419990831005,1.390394792
1201000000,69,1201000000,world,-0.00153448620629,0.000430638563871,1.4030850371
1211000000,70,1211000000,world,-0.00156839910686,0.000441398193852,1.41568064372
1221000000,71,1221000000,world,-0.00160184954999,0.000452206849922,1.42819521801
1231000000,72,1231000000,world,-0.00163557495226,0.000463116469758,1.44064192995
1241000000,73,1241000000,world,-0.00166965633232,0.000474130960892,1.4530335236
1251000000,74,1251000000,world,-0.00170408108676,0.000485247446369,1.46538232664
1261000000,75,1261000000,world,-0.00173883136185,0.000496462810905,1.47770026029
1271000000,76,1271000000,world,-0.00177375757008,0.000507768667306,1.48999871025
1281000000,77,1281000000,world,-0.00180785034495,0.000519120558785,1.5022829687
1291000000,78,1291000000,world,-0.00184227165274,0.000530563603066,1.5145507901
1301000000,79,1301000000,world,-0.00187675751626,0.00054208014463,1.52679954885
1311000000,80,1311000000,world,-0.00191058991193,0.00055360643481,1.53902672604
1321000000,81,1321000000,world,-0.00194475984,0.000565218141948,1.55122990456
1331000000,82,1331000000,world,-0.00197924677331,0.000576914491503,1.56340722513
1341000000,83,1341000000,world,-0.00201295265966,0.000588628235701,1.57556257334
1351000000,84,1351000000,world,-0.00204653218646,0.0006004020924,1.5877034879
1361000000,85,1361000000,world,-0.00208043572526,0.00061226414886,1.59983730918
1371000000,86,1371000000,world,-0.00211463774735,0.000624208863178,1.61197111578
1381000000,87,1381000000,world,-0.00215112043018,0.00063347404167,1.62411173303
1391000000,88,1391000000,world,-0.0021906640515,0.000638942121109,1.63626574094
1401000000,89,1401000000,world,-0.00223008990443,0.000644905578205,1.64843948172
1411000000,90,1411000000,world,-0.00226919940738,0.000650795216062,1.66063906818
1421000000,91,1421000000,world,-0.00230778012759,0.000655891400131,1.67287039093
1431000000,92,1431000000,world,-0.00234609865856,0.000661654070764,1.68513912581
1441000000,93,1441000000,world,-0.00238412325788,0.00066807867906,1.6974507411
1451000000,94,1451000000,world,-0.00242182773372,0.000675143944092,1.70980948552
1461000000,95,1461000000,world,-0.00245728312629,0.00068232735846,1.72221390488
1471000000,96,1471000000,world,-0.00249230061634,0.000690015097148,1.73466077679
1481000000,97,1481000000,world,-0.0025271072999,0.000698248428748,1.74714700995
1491000000,98,1491000000,world,-0.00256170675995,0.000706974799178,1.75966963875
1501000000,99,1501000000,world,-0.00259115919778,0.000712618955761,1.77222581662
1511000000,100,1511000000,world,-0.00261347177387,0.000713703772991,1.78481281256
1521000000,101,1521000000,world,-0.00263634543945,0.000715662699005,1.79742800904
1531000000,102,1531000000,world,-0.00265985211301,0.000718490638527,1.81006860792
1541000000,103,1541000000,world,-0.00267951869974,0.000719022583486,1.82272758305
1551000000,104,1551000000,world,-0.00269719629095,0.00071849646965,1.83539491813
1561000000,105,1561000000,world,-0.00271601369143,0.000719043697884,1.84806095956
1571000000,106,1571000000,world,-0.00273597228822,0.000720626698107,1.86071647597
1581000000,107,1581000000,world,-0.00275703771449,0.000723184995761,1.87335263922
1591000000,108,1591000000,world,-0.00277486282529,0.000724624291089,1.88596100321
1601000000,109,1601000000,world,-0.00279344365129,0.000726778404339,1.89853349201
1611000000,110,1611000000,world,-0.00281251906564,0.000729526395025,1.91106237695
1621000000,111,1621000000,world,-0.00283116114407,0.000732449322262,1.92354026188
1631000000,112,1631000000,world,-0.00285095688321,0.000736119066571,1.93596006964
1641000000,113,1641000000,world,-0.00287180920058,0.000740448044012,1.94831502522
1651000000,114,1651000000,world,-0.00289360707964,0.000745345269442,1.96059851078
1661000000,115,1661000000,world,-0.00291985385238,0.000754292895264,1.97280106797
1671000000,116,1671000000,world,-0.00295012141167,0.000766899544928,1.98491057081
1681000000,117,1681000000,world,-0.00298051057208,0.000779348283693,1.99691531628
1691000000,118,1691000000,world,-0.00301085893611,0.00079151382964,2.00880413653
1701000000,119,1701000000,world,-0.00304143527163,0.000804370287093,2.0205663698
1711000000,120,1711000000,world,-0.00307186460733,0.000817154209824,2.03219183377
1721000000,121,1721000000,world,-0.00310186982799,0.000829325464675,2.04367080308
1731000000,122,1731000000,world,-0.00313101973449,0.000840767553398,2.0549955
1741000000,123,1741000000,world,-0.0031582476354,0.000851251749,2.06616978594
1751000000,124,1751000000,world,-0.00318495846864,0.000861042678923,2.07720239856
1761000000,125,1761000000,world,-0.00321112557691,0.000870135069975,2.08810179286
1771000000,126,1771000000,world,-0.00323672650424,0.000878532737082,2.09887613203
1781000000,127,1781000000,world,-0.00325929212784,0.000886259098356,2.10953329462
1791000000,128,1791000000,world,-0.00328114417264,0.00089331862521,2.12008088695
1801000000,129,1801000000,world,-0.00330257575212,0.000899729809113,2.13052624747
1811000000,130,1811000000,world,-0.00332359418947,0.000905514676878,2.14087583191
1821000000,131,1821000000,world,-0.00334420554256,0.000910699112157,2.15112933993
1831000000,132,1831000000,world,-0.00336233024032,0.000915048526714,2.16128269472
1841000000,133,1841000000,world,-0.00338018089928,0.00091885677314,2.17133194769
1851000000,134,1851000000,world,-0.00339673592824,0.000922009156834,2.18127331165
1861000000,135,1861000000,world,-0.00341242628248,0.000924599091077,2.19110315659
1871000000,136,1871000000,world,-0.00342797560766,0.000926763705823,2.20081800218
1881000000,137,1881000000,world,-0.00344338796517,0.000928528359476,2.21041451072
1891000000,138,1891000000,world,-0.00345806413106,0.000929841646096,2.21988948104
1901000000,139,1901000000,world,-0.00347175325425,0.000930693603257,2.22923984332
1911000000,140,1911000000,world,-0.00348536726608,0.000931216645318,2.23846265404
1921000000,141,1921000000,world,-0.00349889471845,0.00093142835077,2.2475550893
1931000000,142,1931000000,world,-0.00351231775732,0.00093134329697,2.25651498808
1941000000,143,1941000000,world,-0.00352507473665,0.000930940585421,2.26534436429
1951000000,144,1951000000,world,-0.00353692114699,0.000930215540359,2.27404696338
1961000000,145,1961000000,world,-0.00354866580941,0.00092922500622,2.28262639872
1971000000,146,1971000000,world,-0.0035602872854,0.000927974892143,2.29108614859
1981000000,147,1981000000,world,-0.00357128756242,0.000926487969767,2.2994295612
1991000000,148,1991000000,world,-0.00358144948418,0.000924777533167,2.30765985976
2001000000,149,2001000000,world,-0.0035914830897,0.000922822370322,2.31578014731
2011000000,150,2011000000,world,-0.00360136814387,0.000920627318001,2.32379341
2021000000,151,2021000000,world,-0.00361030231903,0.000918335107942,2.33170252134
2031000000,152,2031000000,world,-0.00361889918563,0.000915836877484,2.33951024731
2041000000,153,2041000000,world,-0.00362734351286,0.000913099899763,2.34721924935
2051000000,154,2051000000,world,-0.00363561756505,0.000910127581115,2.35483230036
2061000000,155,2061000000,world,-0.00364334982386,0.000907114360087,2.36235322455
2071000000,156,2071000000,world,-0.00365054792682,0.000904052603815,2.36978608645
2081000000,157,2081000000,world,-0.00365755768663,0.00090075297285,2.37713480008
2091000000,158,2091000000,world,-0.00366436405342,0.000897221907561,2.38440313388
2101000000,159,2101000000,world,-0.00367057191056,0.000893984426853,2.39159471591
2111000000,160,2111000000,world,-0.00367652896266,0.000890589152981,2.39871303899
2121000000,161,2121000000,world,-0.00368226838858,0.000886947060912,2.40576146527
2131000000,162,2131000000,world,-0.00368778178942,0.000883066406841,2.41274305947
2141000000,163,2141000000,world,-0.00369306176385,0.000878960976568,2.41965983711
2151000000,164,2151000000,world,-0.00369807948904,0.000875352824924,2.42651342857
2161000000,165,2161000000,world,-0.00370284049717,0.000871742546787,2.43330540147
2171000000,166,2171000000,world,-0.00370734463176,0.000867900037004,2.44003726327
2181000000,167,2181000000,world,-0.00371566536986,0.000868572465157,2.44671046561
2191000000,168,2191000000,world,-0.00372944352482,0.000875682928599,2.45332640244
2201000000,169,2201000000,world,-0.00374232025093,0.000881861187969,2.45988641053
2211000000,170,2211000000,world,-0.00375423705631,0.000887053656322,2.46639177842
2221000000,171,2221000000,world,-0.00376516112933,0.000891248870045,2.47284374503
2231000000,172,2231000000,world,-0.00378122193761,0.000901082579165,2.47924350307
2241000000,173,2241000000,world,-0.00379659370193,0.000910714414932,2.48559219558
2251000000,174,2251000000,world,-0.00381055524073,0.000918933391752,2.49189054319
2261000000,175,2261000000,world,-0.00382526019473,0.000927791908975,2.49813771134
2271000000,176,2271000000,world,-0.00384103432728,0.000938164119765,2.50433252558
2281000000,177,2281000000,world,-0.00385522114016,0.000946969748064,2.51047385822
2291000000,178,2291000000,world,-0.00386787233659,0.000954278282132,2.51656062689
2301000000,179,2301000000,world,-0.00387905658444,0.000960187926735,2.52259179229
2311000000,180,2311000000,world,-0.00388886602988,0.000964812485058,2.52856635635
2321000000,181,2321000000,world,-0.00389997899891,0.000971443808495,2.53448336002
2331000000,182,2331000000,world,-0.00391006291241,0.000977197533671,2.5403418256
2341000000,183,2341000000,world,-0.00391891985405,0.000981817379974,2.54614050042
2351000000,184,2351000000,world,-0.00392904592244,0.000987565274699,2.5518780774
2361000000,185,2361000000,world,-0.00393860553405,0.00099281388504,2.55755330267
2371000000,186,2371000000,world,-0.00394707057586,0.000997121056405,2.56316497217
2381000000,187,2381000000,world,-0.0039545353514,0.00100060145342,2.56871192958
2391000000,188,2391000000,world,-0.00396146460051,0.00100391885558,2.57419306438
2401000000,189,2401000000,world,-0.00396781799644,0.00100696608787,2.57960731048
2411000000,190,2411000000,world,-0.00397345096643,0.00100947545568,2.58495364427
2421000000,191,2421000000,world,-0.00397846451601,0.00101155251738,2.59023108267
2431000000,192,2431000000,world,-0.00398374214974,0.00101314649286,2.59543868154
2441000000,193,2441000000,world,-0.00398854981533,0.00101452114208,2.60057553437
2451000000,194,2451000000,world,-0.0039929672777,0.00101577442982,2.60564097855
2461000000,195,2461000000,world,-0.00399707556653,0.00101699565849,2.61063558976
2471000000,196,2471000000,world,-0.00399335317864,0.00101215176344,2.61556035917
2481000000,197,2481000000,world,-0.00398807694856,0.00100630767365,2.62041623179
2491000000,198,2491000000,world,-0.00398334539544,0.00100116382825,2.62520411823
2501000000,199,2501000000,world,-0.00397668614615,0.000995869485571,2.62992489609
2511000000,200,2511000000,world,-0.00397028950886,0.000991191885266,2.63457940702
2521000000,201,2521000000,world,-0.00396489792762,0.000987514909962,2.63916846053
2531000000,202,2531000000,world,-0.00396055654193,0.000984873103118,2.64369287096
2541000000,203,2541000000,world,-0.00395728664416,0.000983280941543,2.64815382655
2551000000,204,2551000000,world,-0.00395508811846,0.000982736875472,2.65255272286
2561000000,205,2561000000,world,-0.00395425543648,0.0009839760341,2.65689090503
2571000000,206,2571000000,world,-0.00395446252474,0.000986261149932,2.66116966731
2581000000,207,2581000000,world,-0.0039558831573,0.000989880049327,2.66539025339
2591000000,208,2591000000,world,-0.00395877584211,0.00099529330971,2.66955385887
2601000000,209,2601000000,world,-0.003962482582,0.00100146617211,2.67366163426
2611000000,210,2611000000,world,-0.00396694638117,0.00100834981573,2.67771449427
2621000000,211,2621000000,world,-0.00397211428898,0.00101590020404,2.6817125517
2631000000,212,2631000000,world,-0.00397846566809,0.00102449679085,2.68565572757
2641000000,213,2641000000,world,-0.00398591076728,0.00103406955437,2.68954394642
2651000000,214,2651000000,world,-0.00399458175127,0.00104460597055,2.69337713566
2661000000,215,2661000000,world,-0.00400414100841,0.0010558881199,2.69715522583
2671000000,216,2671000000,world,-0.00401404686382,0.001067573161,2.70087815036
2681000000,217,2681000000,world,-0.00402426183678,0.00107963706467,2.70454584497
2691000000,218,2691000000,world,-0.00403476047467,0.00109206231705,2.70815824789
2701000000,219,2701000000,world,-0.00404629803719,0.00110522195561,2.71171529927
2711000000,220,2711000000,world,-0.00405854844426,0.00111895092616,2.71521694227
2721000000,221,2721000000,world,-0.00407096782182,0.00113297555356,2.71866312246
2731000000,222,2731000000,world,-0.0040835502349,0.0011472905275,2.72205420298
2741000000,223,2741000000,world,-0.00409754951512,0.00116242763509,2.725392204
2751000000,224,2751000000,world,-0.0041117797047,0.00117788220063,2.72867947854
2761000000,225,2761000000,world,-0.00412609809662,0.00119359264831,2.7319182895
2771000000,226,2771000000,world,-0.00414051386014,0.0012095615117,2.73511081351
2781000000,227,2781000000,world,-0.0041550426214,0.00122579402465,2.73825914424
2791000000,228,2791000000,world,-0.00417058025141,0.00124256930662,2.74136529494
2801000000,229,2801000000,world,-0.00418679109524,0.00125978198292,2.74443120267
2811000000,230,2811000000,world,-0.004203857991,0.00127737360369,2.74745860094
2821000000,231,2821000000,world,-0.00422173276202,0.00129533574353,2.75044845316
2831000000,232,2831000000,world,-0.00423963343355,0.00131354042645,2.75340145353
2841000000,233,2841000000,world,-0.00425757579113,0.00133198954493,2.75631826883
2851000000,234,2851000000,world,-0.00427558220876,0.001350686023,2.75919953996
2861000000,235,2861000000,world,-0.0042947199957,0.00136960002448,2.76204588237
2871000000,236,2871000000,world,-0.0043143504808,0.00138875478564,2.76485788838
2881000000,237,2881000000,world,-0.00433403460946,0.00140816663635,2.76763612717
2891000000,238,2891000000,world,-0.0043539419608,0.00142780067109,2.7703811455
2901000000,239,2901000000,world,-0.00437521353554,0.00144739428993,2.77309346836
2911000000,240,2911000000,world,-0.00439653199285,0.00146725666106,2.77577360137
2921000000,241,2921000000,world,-0.00441791735633,0.00148738576914,2.77842202992
2931000000,242,2931000000,world,-0.00443939484311,0.0015077786201,2.78103926992
2941000000,243,2941000000,world,-0.00446119237833,0.0015283226282,2.78362618593
2951000000,244,2951000000,world,-0.00448423063879,0.00154853506495,2.78618377229
2961000000,245,2961000000,world,-0.00450736904555,0.00156902666367,2.78871298505
2971000000,246,2971000000,world,-0.00453062776255,0.00158978577692,2.79121474353
2981000000,247,2981000000,world,-0.00455456080461,0.00161029964508,2.79368993108
2991000000,248,2991000000,world,-0.00457926366327,0.00163048605357,2.79613939692
3001000000,249,3001000000,world,-0.00460408566364,0.00165096328897,2.7985639576
3011000000,250,3011000000,world,-0.00462889111337,0.00166937086893,2.80096439678
3021000000,251,3021000000,world,-0.00465301540416,0.00167522145497,2.8033414742
3031000000,252,3031000000,world,-0.00467738030096,0.00168225675099,2.80569590777
3041000000,253,3041000000,world,-0.00470201681385,0.0016905620867,2.80802839575
3051000000,254,3051000000,world,-0.00472695100135,0.00170016851553,2.81033950033
3061000000,255,3061000000,world,-0.00475076835453,0.00170118601885,2.81262933012
3071000000,256,3071000000,world,-0.00477501139467,0.00170405731151,2.81489788236
3081000000,257,3081000000,world,-0.0047997063791,0.00170879942473,2.81714515564
3091000000,258,3091000000,world,-0.00482487120616,0.00171537392688,2.81937114858
3101000000,259,3101000000,world,-0.00485051603498,0.00172370264483,2.82157585988
3111000000,260,3111000000,world,-0.00487664666521,0.00173367372592,2.82375928828
3121000000,261,3121000000,world,-0.00490326485525,0.00174515093333,2.82592143262
3131000000,262,3131000000,world,-0.0049298108036,0.00175622491917,2.82806229156
3141000000,263,3141000000,world,-0.00495560133924,0.00176460079788,2.8301818635
3151000000,264,3151000000,world,-0.00498097545248,0.00177212587248,2.83228025834
3161000000,265,3161000000,world,-0.00500601696215,0.00177887486157,2.83435840913
3171000000,266,3171000000,world,-0.00503175767778,0.00178707973615,2.83641757861
3181000000,267,3181000000,world,-0.00505819480015,0.00179662560192,2.83845898188
3191000000,268,3191000000,world,-0.00508402822859,0.00180629685822,2.84048378718
3201000000,269,3201000000,world,-0.00510976728298,0.00181639107867,2.84249311739
3211000000,270,3211000000,world,-0.00513628715817,0.00182751393385,2.84448805206
3221000000,271,3221000000,world,-0.00516337797939,0.00183947182821,2.84646962901
3231000000,272,3231000000,world,-0.00518954942881,0.00185169156332,2.848438846
3241000000,273,3241000000,world,-0.00521652969971,0.00186455444233,2.85039666169
3251000000,274,3251000000,world,-0.00524428990408,0.00187792739478,2.85234299599
3261000000,275,3261000000,world,-0.00527205870635,0.00189181624787,2.85427374999
3271000000,276,3271000000,world,-0.00529949706798,0.00190615268641,2.85618401444
3281000000,277,3281000000,world,-0.00532770465758,0.00192060996635,2.85806908398
3291000000,278,3291000000,world,-0.00535664106976,0.00193508128506,2.85992444909
3301000000,279,3301000000,world,-0.00538854639635,0.00195217460167,2.8617457883
3311000000,280,3311000000,world,-0.00542614737487,0.00197508696912,2.86352895946
3321000000,281,3321000000,world,-0.00546384713532,0.00199718965652,2.86526998692
3331000000,282,3331000000,world,-0.00550153874145,0.00201835206005,2.86696558518
3341000000,283,3341000000,world,-0.00553914154497,0.00203847765134,2.86861650972
3351000000,284,3351000000,world,-0.00557659250432,0.00205750059055,2.87022521361
3361000000,285,3361000000,world,-0.00561549089346,0.00207676594647,2.87179406348
3371000000,286,3371000000,world,-0.00565423490155,0.00209493683988,2.87332533467
3381000000,287,3381000000,world,-0.00569259846387,0.0021118407375,2.87482121636
3391000000,288,3391000000,world,-0.00573060669233,0.00212728195063,2.87628381423
3401000000,289,3401000000,world,-0.00576824273357,0.00214129588962,2.87771515375
3411000000,290,3411000000,world,-0.00580545691418,0.00215412041204,2.87911718316
3421000000,291,3421000000,world,-0.00584112473628,0.00216458201317,2.88049177535
3431000000,292,3431000000,world,-0.00587633283798,0.00217388205372,2.88184073285
3441000000,293,3441000000,world,-0.00591123352911,0.00218221816349,2.88316578859
3451000000,294,3451000000,world,-0.00594584764249,0.00218964583053,2.88446856299
3461000000,295,3461000000,world,-0.00597961357946,0.00219577405977,2.88574991258
3471000000,296,3471000000,world,-0.00601246812603,0.00220059231838,2.88701012713
3481000000,297,3481000000,world,-0.00604516402214,0.00220470903147,2.8882494728
3491000000,298,3491000000,world,-0.00607722309511,0.00220797437219,2.88946820483
3501000000,299,3501000000,world,-0.006108050396,0.00221018903539,2.89066656844
3511000000,300,3511000000,world,-0.00613885997062,0.00221186484762,2.89184479985
3521000000,301,3521000000,world,-0.00616966174333,0.0022130343771,2.89300312569
3531000000,302,3531000000,world,-0.00620045597442,0.00221372331441,2.89414178245
3541000000,303,3541000000,world,-0.0062312333868,0.00221395156709,2.89526119334
3551000000,304,3551000000,world,-0.00624933899837,0.00221643416845,2.89636187786
3561000000,305,3561000000,world,-0.00626679222077,0.00221861641502,2.89744433838
3571000000,306,3571000000,world,-0.00628512946437,0.00222017634004,2.89850905735
3581000000,307,3581000000,world,-0.00629793367932,0.00222362636843,2.89955649771
3591000000,308,3591000000,world,-0.00631047945889,0.00222690887019,2.90058710495
3601000000,309,3601000000,world,-0.00632446245441,0.00222935460348,2.90160130736
3611000000,310,3611000000,world,-0.00633986811936,0.00223095564872,2.90259951644
3621000000,311,3621000000,world,-0.00635289106161,0.00223408695959,2.90358212724
3631000000,312,3631000000,world,-0.00636650967972,0.00223683248843,2.90454951975
3641000000,313,3641000000,world,-0.00638161958698,0.0022385844051,2.90550205917
3651000000,314,3651000000,world,-0.00639812043696,0.00223935793128,2.90644009642
3661000000,315,3661000000,world,-0.00641588828557,0.00223917956702,2.90736396871
3671000000,316,3671000000,world,-0.00643302858021,0.00224073882727,2.90827393158
3681000000,317,3681000000,world,-0.00645125476794,0.00224126314027,2.90916995414
3691000000,318,3691000000,world,-0.00647042720296,0.00224077928148,2.91005193971
3701000000,319,3701000000,world,-0.00649040394968,0.00223932989927,2.91091979532
3711000000,320,3711000000,world,-0.00651104222567,0.00223696740909,2.91177343164
3721000000,321,3721000000,world,-0.00653211022785,0.00223458743343,2.91261276307
3731000000,322,3731000000,world,-0.00655336144381,0.00223326892516,2.91343773379
3741000000,323,3741000000,world,-0.00657488083144,0.00223103885566,2.91424869281
3751000000,324,3751000000,world,-0.00659676531523,0.00222865219978,2.91504628344
3761000000,325,3761000000,world,-0.00661952045796,0.0022281816733,2.91583113184
3771000000,326,3771000000,world,-0.00664214096415,0.00222673210661,2.91660383755
3781000000,327,3781000000,world,-0.00666452655036,0.00222434343714,2.91736497811
3791000000,328,3791000000,world,-0.00668766219951,0.00222248269203,2.91811510955
3801000000,329,3801000000,world,-0.00671103259333,0.00222062781465,2.91885476489
3811000000,330,3811000000,world,-0.00673382399184,0.00221785109559,2.91958445614
3821000000,331,3821000000,world,-0.00675597302026,0.00221420559906,2.92030467602
3831000000,332,3831000000,world,-0.00677743124206,0.00220975319755,2.92101589806
3841000000,333,3841000000,world,-0.00679816430774,0.00220456269335,2.92171857729
3861000000,335,3861000000,world,-0.00683736615163,0.00219227520583,2.92310003963
3871000000,336,3871000000,world,-0.00685581196593,0.0021853295396,2.92377964694
3881000000,337,3881000000,world,-0.00687348601571,0.00217794566654,2.9244523611
3891000000,338,3891000000,world,-0.00689405265958,0.00215819915794,2.92511853411
3901000000,339,3901000000,world,-0.00691425792979,0.00213375632797,2.92577814244
3911000000,340,3911000000,world,-0.00693343192679,0.00210985709438,2.92643089261
3921000000,341,3921000000,world,-0.00695157485266,0.00208703233406,2.92707649656
3931000000,342,3931000000,world,-0.00696869280415,0.00206539048709,2.92771470761
3941000000,343,3941000000,world,-0.00698480579241,0.00204499382862,2.9283455284
3951000000,344,3951000000,world,-0.00699920651746,0.00202922956847,2.92896907455
3961000000,345,3961000000,world,-0.0070123246152,0.00201671537301,2.92958545869
3971000000,346,3971000000,world,-0.0070246168913,0.00200507575837,2.9301947893
3981000000,347,3981000000,world,-0.00703613409733,0.00199423592878,2.93079717017
3991000000,348,3991000000,world,-0.0070528592657,0.00199717726094,2.93139270185
4001000000,349,4001000000,world,-0.00706918551267,0.00200141833701,2.9319814786
4011000000,350,4011000000,world,-0.00708442379015,0.00200529576361,2.93256359247
4021000000,351,4021000000,world,-0.00709858377972,0.00200868948236,2.93313913205
4031000000,352,4031000000,world,-0.00711307299344,0.00201438620939,2.93370818226
4041000000,353,4041000000,world,-0.00712960716043,0.00202582674834,2.93427082422
4051000000,354,4051000000,world,-0.00714488661665,0.00203606829103,2.93482694901
4061000000,355,4061000000,world,-0.00715893659825,0.00204506692515,2.93537543004
4071000000,356,4071000000,world,-0.00717372727116,0.00205567876927,2.93591484806
4081000000,357,4081000000,world,-0.00718914559288,0.0020677090173,2.93644384049
4091000000,358,4091000000,world,-0.00720323754328,0.00207826197004,2.93696109975
4101000000,359,4101000000,world,-0.00721808552659,0.00208995606532,2.93746536948
4111000000,360,4111000000,world,-0.0072320919044,0.00210079205729,2.9379554441
4121000000,361,4121000000,world,-0.00724478695978,0.00211020021757,2.93843016595
4131000000,362,4131000000,world,-0.00725624158229,0.00211829506274,2.93888856515
4141000000,363,4141000000,world,-0.00726693663428,0.00212548308342,2.93933187708
4151000000,364,4151000000,world,-0.00727809721833,0.00213267295817,2.93976294036
4161000000,365,4161000000,world,-0.00728814224569,0.00213891440037,2.94018452616
4171000000,366,4171000000,world,-0.00729714996768,0.00214435338619,2.94059930044
4181000000,367,4181000000,world,-0.00730527413708,0.00214913696774,2.94100982814
4191000000,368,4191000000,world,-0.00731374129398,0.00215328916273,2.9414185765
4201000000,369,4201000000,world,-0.00732141983556,0.0021570747024,2.94182791919
4211000000,370,4211000000,world,-0.0073283173882,0.00216063737338,2.94223973379
4221000000,371,4221000000,world,-0.00733358273854,0.0021632700652,2.94265346475
4231000000,372,4231000000,world,-0.00733019445852,0.00215868044758,2.94306773983
4241000000,373,4241000000,world,-0.00732680416477,0.00215471786766,2.94348123167
4251000000,374,4251000000,world,-0.00732355712901,0.00215154197032,2.94389267049
4261000000,375,4261000000,world,-0.00731982785788,0.00214963545587,2.94430083667
4271000000,376,4271000000,world,-0.00731514713229,0.0021495271635,2.94470455916
4281000000,377,4281000000,world,-0.00731099469919,0.002150404015,2.94510271441
4291000000,378,4291000000,world,-0.0073074205972,0.00215230047019,2.94549422297
4301000000,379,4301000000,world,-0.00730461392278,0.00215556206319,2.94587804802
4311000000,380,4311000000,world,-0.00730270918051,0.00216112296088,2.9462531935
4321000000,381,4321000000,world,-0.00730139669213,0.00216762290991,2.94661870448
4331000000,382,4331000000,world,-0.00730066268356,0.00217503812113,2.94697364945
4341000000,383,4341000000,world,-0.00730145852109,0.00218449618401,2.94731703201
4351000000,384,4351000000,world,-0.0073028372201,0.00219487435263,2.94764785242
4361000000,385,4361000000,world,-0.00730465025084,0.00220600650983,2.94796514981
4371000000,386,4371000000,world,-0.00730686017635,0.00221786247672,2.94826800137
4381000000,387,4381000000,world,-0.00730993463718,0.00223078197886,2.94855552055
4391000000,388,4391000000,world,-0.00731404780021,0.00224488992772,2.94882685611
4401000000,389,4401000000,world,-0.00731839913726,0.00225959652335,2.94908119115
4411000000,390,4411000000,world,-0.00732296125187,0.00227487909236,2.94931774066
4421000000,391,4421000000,world,-0.00732771631066,0.00229072028366,2.94953575074
4431000000,392,4431000000,world,-0.00733387865001,0.00230767109698,2.94973449668
4441000000,393,4441000000,world,-0.00734026778967,0.00232518428705,2.94991328362
4451000000,394,4451000000,world,-0.0073467290654,0.00234318276899,2.95007157342
4461000000,395,4461000000,world,-0.00735341393049,0.00236170630066,2.95020981644
4471000000,396,4471000000,world,-0.00736152099302,0.00238111710962,2.95032887204
4481000000,397,4481000000,world,-0.00736961679902,0.00240097047676,2.95042956894
4491000000,398,4491000000,world,-0.00737842850761,0.00242134890891,2.95051270277
4501000000,399,4501000000,world,-0.00738826212005,0.00244228483088,2.95057903841
4511000000,400,4511000000,world,-0.00739800308089,0.0024636382609,2.95062931156
4521000000,401,4521000000,world,-0.0074076615007,0.00248540611288,2.95066422894
4531000000,402,4531000000,world,-0.00741725969684,0.00250758669388,2.95068458354
4541000000,403,4541000000,world,-0.00742682816267,0.00253018021536,2.95069198594
4551000000,404,4551000000,world,-0.00743640258334,0.00255318716136,2.95068835948
4561000000,405,4561000000,world,-0.00745339519293,0.00257147958994,2.95067555498
4571000000,406,4571000000,world,-0.00747482952602,0.00258715569445,2.95065535193
4581000000,407,4581000000,world,-0.00749559356939,0.00260379115109,2.95062946216
4591000000,408,4591000000,world,-0.00751696194358,0.00262067966964,2.95059953072
4601000000,409,4601000000,world,-0.00754476707516,0.00263209405913,2.9505671428
4611000000,410,4611000000,world,-0.00757138263543,0.00264497041009,2.95053381783
4621000000,411,4621000000,world,-0.00759679973007,0.00265934773588,2.95050102039
4631000000,412,4631000000,world,-0.0076221819647,0.0026730628282,2.95047015794
4641000000,413,4641000000,world,-0.00764805339129,0.00268521358052,2.95044258334
4651000000,414,4651000000,world,-0.00767274392375,0.0026991121508,2.95041955875
4661000000,415,4661000000,world,-0.00769638836344,0.00271118094245,2.95040196733
4671000000,416,4671000000,world,-0.00771906502212,0.00272361958919,2.95039048718
4681000000,417,4681000000,world,-0.00774087534492,0.00273793746246,2.95038576915
4691000000,418,4691000000,world,-0.0077619499991,0.00275406039436,2.95038843923
4701000000,419,4701000000,world,-0.00778213167446,0.00277026482599,2.95039909948
4711000000,420,4711000000,world,-0.00780167236606,0.0027868565747,2.95041832782
4721000000,421,4721000000,world,-0.00782090503797,0.00280509104269,2.95044667947
4731000000,422,4731000000,world,-0.00783995362358,0.00282484254307,2.95048451199
4741000000,423,4741000000,world,-0.00785764142846,0.00284400884847,2.9505312095
4751000000,424,4751000000,world,-0.00787476654962,0.00286350458642,2.95058586193
4761000000,425,4761000000,world,-0.00789215753264,0.00288430714261,2.95064759532
4771000000,426,4771000000,world,-0.00790991126339,0.00290629558426,2.95071557092
4781000000,427,4781000000,world,-0.00792810843566,0.00292934264046,2.95078898318
4791000000,428,4791000000,world,-0.00794681544636,0.00295331859125,2.95086705847
4801000000,429,4801000000,world,-0.00796569090543,0.00297777522586,2.95094905404
4811000000,430,4811000000,world,-0.00798203225279,0.00300033702121,2.95103425766
4821000000,431,4821000000,world,-0.0079977911469,0.00302239228284,2.95112198276
4831000000,432,4831000000,world,-0.00801454158171,0.00304516223251,2.95121157013
4841000000,433,4841000000,world,-0.00803232297915,0.00306856512675,2.95130238745
4851000000,434,4851000000,world,-0.00805115348947,0.00309251350857,2.95139391492
4861000000,435,4861000000,world,-0.00806833228235,0.00311607061798,2.95148603072
4871000000,436,4871000000,world,-0.00808605438017,0.00313983651869,2.95157871502
4881000000,437,4881000000,world,-0.00810501989639,0.00316394886355,2.95167194961
4891000000,438,4891000000,world,-0.00812521497185,0.00318832940137,2.95176571732
4901000000,439,4901000000,world,-0.00814660949587,0.00321290270453,2.95186000162
4911000000,440,4911000000,world,-0.00816827245661,0.0032372256543,2.95195478699
4921000000,441,4921000000,world,-0.00818907296201,0.00326077658024,2.95205005851
4931000000,442,4931000000,world,-0.00821110433558,0.00328438822162,2.95214580067
4941000000,443,4941000000,world,-0.00823432649603,0.0033080045642,2.95224199946
4951000000,444,4951000000,world,-0.00825868976857,0.00333156994236,2.95233864142
4961000000,445,4961000000,world,-0.00828413435244,0.00335503246597,2.95243569645
4971000000,446,4971000000,world,-0.00830804725357,0.00337784168696,2.95253287469
4981000000,447,4981000000,world,-0.0083324383284,0.00340036317319,2.95262969681
4991000000,448,4991000000,world,-0.0083579175883,0.00342268836239,2.95272569818
5001000000,449,5001000000,world,-0.0083814306584,0.00344472592914,2.95282043383
5011000000,450,5011000000,world,-0.00840577074127,0.00346649249633,2.95291343063
5021000000,451,5021000000,world,-0.00843000589883,0.00348801050614,2.95300399856
5031000000,452,5031000000,world,-0.00845358550245,0.00350926954458,2.95309139645
5041000000,453,5041000000,world,-0.00847838197997,0.00353016298731,2.95317491164
5051000000,454,5051000000,world,-0.00850434515224,0.00355066527538,2.95325386035
5061000000,455,5061000000,world,-0.00853141139195,0.00357075297431,2.95332758583
5071000000,456,5071000000,world,-0.00855923053487,0.00359044158662,2.95339545751
5081000000,457,5081000000,world,-0.00858649001241,0.00361035946199,2.95345686986
5091000000,458,5091000000,world,-0.00861473058788,0.00362976066453,2.95351124049
5101000000,459,5101000000,world,-0.00864388402658,0.00364862512563,2.95355801036
5111000000,460,5111000000,world,-0.00868280179259,0.00367085674975,2.95359664332
5121000000,461,5121000000,world,-0.00872290566428,0.00369271380505,2.95362662333
5131000000,462,5131000000,world,-0.00876301542112,0.00371370541142,2.9536476822
5141000000,463,5141000000,world,-0.00880348442846,0.0037339356088,2.95366079973
5151000000,464,5151000000,world,-0.00884557695485,0.00375376510247,2.95366732669
5161000000,465,5161000000,world,-0.00888722872864,0.00377264604901,2.95366856166
5171000000,466,5171000000,world,-0.00892837186171,0.0037905816506,2.95366575311
5181000000,467,5181000000,world,-0.00896859914862,0.00380721329151,2.95366010113
5191000000,468,5191000000,world,-0.00900811676265,0.00382279882479,2.95365275972
5201000000,469,5201000000,world,-0.00904707754263,0.00383753064347,2.95364483826
5211000000,470,5211000000,world,-0.0090854855314,0.00385143914405,2.95363740312
5221000000,471,5221000000,world,-0.00912335064491,0.0038645555743,2.95363147944
5231000000,472,5231000000,world,-0.00916069026242,0.00387691214776,2.95362805265
5241000000,473,5241000000,world,-0.0091964672391,0.00388800231866,2.9536280697
5251000000,474,5251000000,world,-0.00923099705316,0.00389807819042,2.95363215337
5261000000,475,5261000000,world,-0.00926388810683,0.00390704826185,2.95363974515
5271000000,476,5271000000,world,-0.00929655984925,0.00391547418506,2.95365002694
5281000000,477,5281000000,world,-0.00932904806867,0.00392338874098,2.95366221274
5291000000,478,5291000000,world,-0.00936137625755,0.00393081887,2.95367554772
5301000000,479,5301000000,world,-0.0093935580196,0.00393778772378,2.95368930688
5311000000,480,5311000000,world,-0.00941678168089,0.00394583816434,2.95370279305
5321000000,481,5321000000,world,-0.00943466514292,0.00395436291227,2.95371533722
5331000000,482,5331000000,world,-0.0094506881998,0.00396301181049,2.95372653205
5341000000,483,5341000000,world,-0.00946166719652,0.0039726302681,2.95373726341
5351000000,484,5351000000,world,-0.00947412162482,0.00398152197306,2.95374880653
5361000000,485,5361000000,world,-0.00948809984452,0.00398967529813,2.9537623869
5371000000,486,5371000000,world,-0.00950359102271,0.00399709018113,2.95377918263
5381000000,487,5381000000,world,-0.0095195895567,0.00400419363215,2.95380032607
5391000000,488,5391000000,world,-0.00953329384854,0.00401218258829,2.95382690519
5401000000,489,5401000000,world,-0.00954856101851,0.00401935693735,2.95385996734
5411000000,490,5411000000,world,-0.00956529446402,0.00402572691826,2.95390051863
5421000000,491,5421000000,world,-0.00958337105667,0.00403131157317,2.95394952625
5431000000,492,5431000000,world,-0.00960264971172,0.00403613691786,2.95400791986
5441000000,493,5441000000,world,-0.00962095581485,0.00404195128217,2.95407659262
5451000000,494,5451000000,world,-0.00964017346227,0.00404706040715,2.95415609097
5461000000,495,5461000000,world,-0.00966018126394,0.00405207549026,2.95424523762
5471000000,496,5471000000,world,-0.00968072168655,0.00405785209135,2.95434234055
5481000000,497,5481000000,world,-0.00970187610795,0.0040627867395,2.95444577486
5491000000,498,5491000000,world,-0.00972350478786,0.00406690346581,2.9545539811
5501000000,499,5501000000,world,-0.00974547260357,0.0040702356795,2.95466546211
5511000000,500,5511000000,world,-0.00977486266103,0.00406825808817,2.9547787839
5521000000,501,5521000000,world,-0.00980566762822,0.00406394696057,2.95489256361
5531000000,502,5531000000,world,-0.00983627891844,0.00405888850484,2.95500557406
5541000000,503,5541000000,world,-0.0098670694851,0.00405252272928,2.95511703309
5551000000,504,5551000000,world,-0.00989688486074,0.00404620737219,2.95522628541
5561000000,505,5561000000,world,-0.00992563150022,0.00404000566346,2.95533270199
5571000000,506,5571000000,world,-0.00995313513433,0.00403398699809,2.9554356786
5581000000,507,5581000000,world,-0.0099785078363,0.00402836829464,2.95553463438
5591000000,508,5591000000,world,-0.0100027581817,0.00402294230647,2.95562901261
5601000000,509,5601000000,world,-0.0100258936021,0.00401771960061,2.9557182779
5611000000,510,5611000000,world,-0.0100472565821,0.00401311680067,2.95580191565
5621000000,511,5621000000,world,-0.0100669283773,0.00400909531953,2.95587943197
5631000000,512,5631000000,world,-0.0100856416415,0.00400521389911,2.95595035281
5641000000,513,5641000000,world,-0.0101034380965,0.00400145642268,2.95601422247
5651000000,514,5651000000,world,-0.0101199345486,0.0039982284054,2.95607076977
5661000000,515,5661000000,world,-0.0101349990597,0.00399568670331,2.95612040471
5671000000,516,5671000000,world,-0.0101493277642,0.00399316926619,2.9561636854
5681000000,517,5681000000,world,-0.0101629585381,0.00399066483014,2.95620114787
5691000000,518,5691000000,world,-0.010175925323,0.00398816614405,2.95623330728
5701000000,519,5701000000,world,-0.0101879871544,0.00398605973492,2.95626065853
5711000000,520,5711000000,world,-0.0101989661983,0.00398481890598,2.95628367723
5721000000,521,5721000000,world,-0.0102094053838,0.00398350202349,2.95630282094
5731000000,522,5731000000,world,-0.010219328837,0.00398210751178,2.95631858536
5741000000,523,5741000000,world,-0.0102287555759,0.00398064483715,2.95633186676
5751000000,524,5751000000,world,-0.0102376963881,0.0039791306999,2.95634371209
5761000000,525,5761000000,world,-0.0102461611153,0.00397758390848,2.95635512839
5771000000,526,5771000000,world,-0.0102566534848,0.00398625780967,2.9563670837
5781000000,527,5781000000,world,-0.0102671431779,0.00399765427308,2.95638050782
5791000000,528,5791000000,world,-0.01027968597,0.0040164381418,2.9563962952
5801000000,529,5801000000,world,-0.0102920523828,0.00403581947211,2.95641530512
5811000000,530,5811000000,world,-0.0103035146871,0.00405358590915,2.9564383641
5821000000,531,5821000000,world,-0.0103140547454,0.00406971530924,2.9564662667
5831000000,532,5831000000,world,-0.0103256206077,0.00408799229353,2.9564997764
5841000000,533,5841000000,world,-0.0103366340749,0.00410541613354,2.95653962708
5851000000,534,5851000000,world,-0.0103465976169,0.00412107781564,2.95658646088
5861000000,535,5861000000,world,-0.0103577701365,0.0041368606303,2.95664064039
5871000000,536,5871000000,world,-0.0103680489752,0.0041511851268,2.9567024511
5881000000,537,5881000000,world,-0.0103772003221,0.00416397562246,2.95677216776
5891000000,538,5891000000,world,-0.0103863392653,0.00417589761456,2.95685005472
5901000000,539,5901000000,world,-0.0103950636279,0.00418690311215,2.95693636559
5911000000,540,5911000000,world,-0.0104026695271,0.00419680025874,2.95703134403
5921000000,541,5921000000,world,-0.0104092067835,0.00420574947888,2.95713522427
5931000000,542,5931000000,world,-0.0104147338029,0.00421391099351,2.95724811517
5941000000,543,5941000000,world,-0.0104195274321,0.0042213453779,2.9573689062
5951000000,544,5951000000,world,-0.0104252892198,0.00422747009258,2.95749582495
5961000000,545,5961000000,world,-0.0104301177244,0.00423331424962,2.95762715982
5971000000,546,5971000000,world,-0.0104340616042,0.0042390188426,2.95776126891
5981000000,547,5981000000,world,-0.0104315857436,0.00424088599583,2.95789657675
5991000000,548,5991000000,world,-0.010425738184,0.0042393499429,2.9580315709
6001000000,549,6001000000,world,-0.0104197584988,0.00423849943987,2.95816479705
6011000000,550,6011000000,world,-0.0104137598242,0.00423846563127,2.95829481338
6021000000,551,6021000000,world,-0.0104060564489,0.00423836548321,2.95842004771
6031000000,552,6031000000,world,-0.0103984060602,0.00423920038985,2.9585389445
6041000000,553,6041000000,world,-0.0103910707995,0.00424113504765,2.95865001049
6051000000,554,6051000000,world,-0.0103840923767,0.00424419733839,2.95875181212
6061000000,555,6061000000,world,-0.0103774964713,0.00424839525835,2.95884297299
6071000000,556,6071000000,world,-0.0103715703613,0.00425399960919,2.9589221715
6081000000,557,6081000000,world,-0.0103664257249,0.00426110192902,2.95898813878
6091000000,558,6091000000,world,-0.0103616276345,0.00426923666998,2.95903965671
6101000000,559,6101000000,world,-0.0103571617604,0.00427836205889,2.95907555551
6111000000,560,6111000000,world,-0.0103536434978,0.00428913763808,2.95909471164
6121000000,561,6121000000,world,-0.010350482809,0.00430089129785,2.95909604685
6131000000,562,6131000000,world,-0.0103475384935,0.00431344166737,2.9590785255
6141000000,563,6141000000,world,-0.0103447892989,0.00432674002349,2.9590412658
6151000000,564,6151000000,world,-0.0103422173264,0.0043407468458,2.95898427428
6161000000,565,6161000000,world,-0.0103398765709,0.00435544216183,2.95890810081
6171000000,566,6171000000,world,-0.0103389210433,0.00437118090926,2.95881330607
6181000000,567,6181000000,world,-0.0103436076998,0.00438306476146,2.95870043165
6191000000,568,6191000000,world,-0.0103581032063,0.00438773741907,2.95856999668
6201000000,569,6201000000,world,-0.0103716506041,0.00439368232164,2.95842249502
6211000000,570,6211000000,world,-0.0103841485982,0.00440095019118,2.95825840569
6221000000,571,6221000000,world,-0.010395550048,0.00440955790875,2.9580781888
6231000000,572,6231000000,world,-0.0104058503784,0.00441949198428,2.9578822866
6241000000,573,6241000000,world,-0.010424349252,0.00442218866568,2.95767112507
6251000000,574,6251000000,world,-0.0104412763775,0.00442663758839,2.9574456546
6261000000,575,6261000000,world,-0.0104607432662,0.00442752661855,2.95720897923
6271000000,576,6271000000,world,-0.010479439439,0.00442915345719,2.95696461918
6281000000,577,6281000000,world,-0.0104963506873,0.00443287233296,2.95671596351
6291000000,578,6291000000,world,-0.0105121074426,0.00443777115016,2.95646627405
6301000000,579,6301000000,world,-0.0105283728566,0.00444131753816,2.95621868958
6311000000,580,6311000000,world,-0.0105430302946,0.00444697133669,2.95597623077
6321000000,581,6321000000,world,-0.0105562183408,0.00445463106187,2.95574180432
6331000000,582,6331000000,world,-0.0105680844629,0.00446416537089,2.9555180775
6341000000,583,6341000000,world,-0.0105788034125,0.00447442124201,2.95530665129
6351000000,584,6351000000,world,-0.010588560056,0.0044840199933,2.9551086391
6361000000,585,6361000000,world,-0.0105974889385,0.0044952448889,2.95492510955
6371000000,586,6371000000,world,-0.0106057537879,0.00450795908343,2.95475709015
6381000000,587,6381000000,world,-0.0106135123096,0.00452201596436,2.95460556859
6391000000,588,6391000000,world,-0.0106203339204,0.00453549199677,2.95447149453
6401000000,589,6401000000,world,-0.0106269719177,0.00455011285923,2.95435578022
6411000000,590,6411000000,world,-0.0106335565761,0.00456574349283,2.95425916676
6421000000,591,6421000000,world,-0.0106402068705,0.00458225033408,2.95418181965
6431000000,592,6431000000,world,-0.0106464818879,0.00459910108426,2.95412376475
6441000000,593,6441000000,world,-0.0106518100863,0.00461568160226,2.95408502695
6451000000,594,6451000000,world,-0.0106575961034,0.00463284879804,2.95406562919
6461000000,595,6461000000,world,-0.0106621042541,0.00465021119216,2.95406559526
6471000000,596,6471000000,world,-0.0106668829125,0.00466789962168,2.95408494611
6481000000,597,6481000000,world,-0.0106724668984,0.00468589308774,2.95412370239
6491000000,598,6491000000,world,-0.0106778462014,0.00470874277639,2.95418188617
6501000000,599,6501000000,world,-0.0106826266021,0.00473823556154,2.95425951773
6511000000,600,6511000000,world,-0.0106884798881,0.004767054927,2.95435661268
6521000000,601,6521000000,world,-0.0106954285651,0.00479505557924,2.95447318879
6531000000,602,6531000000,world,-0.0107034217851,0.00482266074282,2.95460881797
6541000000,603,6541000000,world,-0.0107122933232,0.00485129496368,2.9547606669
6551000000,604,6551000000,world,-0.0107222496338,0.00487873054635,2.95492521697
6561000000,605,6561000000,world,-0.0107332622379,0.00490492985965,2.95509909426
6571000000,606,6571000000,world,-0.0107453142311,0.00492985397809,2.95527906259
6581000000,607,6581000000,world,-0.0107585098262,0.00495329415075,2.95546201751
6591000000,608,6591000000,world,-0.0107726289358,0.00497554242393,2.95564498131
6601000000,609,6601000000,world,-0.0107876228691,0.00499663860966,2.95582509709
6611000000,610,6611000000,world,-0.0108034440616,0.00501662884531,2.95599974705
6621000000,611,6621000000,world,-0.0108200822069,0.00503466624939,2.95616733674
6631000000,612,6631000000,world,-0.0108374574487,0.0050516563145,2.95632674114
6641000000,613,6641000000,world,-0.0108555239654,0.00506776297901,2.95647688108
6651000000,614,6651000000,world,-0.0108742394853,0.00508304453326,2.9566167202
6661000000,615,6661000000,world,-0.0108933606869,0.00509651574416,2.9567452629
6671000000,616,6671000000,world,-0.0109130423024,0.00510921142198,2.95686155381
6681000000,617,6681000000,world,-0.0109332725401,0.00512130079138,2.95696467518
6691000000,618,6691000000,world,-0.010953752347,0.0051321429767,2.95705374546
6701000000,619,6701000000,world,-0.0109745627058,0.00514194868576,2.95712791823
6711000000,620,6711000000,world,-0.0109958630743,0.00515132637457,2.95718638079
6721000000,621,6721000000,world,-0.0110176277509,0.00516030353647,2.95722835243
6731000000,622,6731000000,world,-0.0110398308548,0.00516889851609,2.95725316136
6741000000,623,6741000000,world,-0.0110618900204,0.00517601855017,2.95726097826
6751000000,624,6751000000,world,-0.0110842324799,0.00518256491994,2.95725244321
6761000000,625,6761000000,world,-0.0111069847196,0.00518882746396,2.95722817669
6771000000,626,6771000000,world,-0.011130128922,0.00519480470502,2.95718877494
6781000000,627,6781000000,world,-0.011153300344,0.00520002364782,2.95713481078
6791000000,628,6791000000,world,-0.0111762173383,0.00520390644707,2.95706683459
6801000000,629,6801000000,world,-0.0111995168203,0.00520756450295,2.95698537602
6811000000,630,6811000000,world,-0.0112231792124,0.00521098804069,2.95689094367
6821000000,631,6821000000,world,-0.0112471794771,0.0052141606121,2.95678402631
6831000000,632,6831000000,world,-0.0112618294114,0.00521253106488,2.95666509281
6841000000,633,6841000000,world,-0.011273310994,0.00520898219362,2.95653459456
6851000000,634,6851000000,world,-0.0112859674191,0.0052055367685,2.95639332244
6861000000,635,6861000000,world,-0.011298561274,0.00520176446599,2.95624357043
6871000000,636,6871000000,world,-0.0113053786953,0.00519569965549,2.95608794967
6881000000,637,6881000000,world,-0.0113139143378,0.00518988546529,2.95592897675
6891000000,638,6891000000,world,-0.0113241793416,0.00518430582783,2.95576907008
6901000000,639,6901000000,world,-0.0113361366695,0.00517892762712,2.95561055657
6911000000,640,6911000000,world,-0.0113475381923,0.00517279605057,2.95545567381
6921000000,641,6921000000,world,-0.0113574102349,0.00516549134602,2.95530657417
6931000000,642,6931000000,world,-0.0113690462697,0.00515837420951,2.955164998
6941000000,643,6941000000,world,-0.0113823519556,0.00515139922003,2.95503081446
6951000000,644,6951000000,world,-0.0113958442262,0.00514460428461,2.95490330265
6961000000,645,6961000000,world,-0.0114095039168,0.00513792345263,2.95478177023
6971000000,646,6971000000,world,-0.0114246089481,0.00513120208539,2.95466555246
6981000000,647,6981000000,world,-0.0114398938633,0.00512613818016,2.95455401167
6991000000,648,6991000000,world,-0.011456425814,0.005120809243,2.95444653338
7001000000,649,7001000000,world,-0.0114740686928,0.00511514666912,2.95434252838
7011000000,650,7011000000,world,-0.0114926817613,0.005109091407,2.95424143076
7021000000,651,7021000000,world,-0.0115121243036,0.00510259303098,2.95414269698
7031000000,652,7031000000,world,-0.0115357100176,0.00509545372242,2.95404580586
7041000000,653,7041000000,world,-0.0115674978792,0.00508709251881,2.95395025701
7051000000,654,7051000000,world,-0.0115990037571,0.00507809303069,2.95385556653
7061000000,655,7061000000,world,-0.01163273976,0.00506810572928,2.95376152586
7071000000,656,7071000000,world,-0.0116683282394,0.00505716570867,2.9536686874
7081000000,657,7081000000,world,-0.0117028285839,0.00504578982485,2.95357771707
7091000000,658,7091000000,world,-0.0117361257142,0.00503398114161,2.95348925561
7101000000,659,7101000000,world,-0.0117681470985,0.0050217427503,2.95340391875
7111000000,660,7111000000,world,-0.0117973136184,0.00500919236576,2.95332229781
7121000000,661,7121000000,world,-0.0118237470029,0.0049963266908,2.95324496152
7131000000,662,7131000000,world,-0.0118490702026,0.00498303659782,2.95317246634
7141000000,663,7141000000,world,-0.0118719776253,0.00496967579232,2.95310541657
7151000000,664,7151000000,world,-0.0118930770232,0.004956111734,2.95304442438
7161000000,665,7161000000,world,-0.0119133691379,0.00494211129337,2.95299007845
7171000000,666,7171000000,world,-0.0119325857512,0.00492841223119,2.95294294233
7181000000,667,7181000000,world,-0.0119449495385,0.00492774805415,2.95290356864
7191000000,668,7191000000,world,-0.0119570804645,0.00492581367337,2.95287246935
7201000000,669,7201000000,world,-0.0119690763159,0.00492252091111,2.95285014851
7211000000,670,7211000000,world,-0.0119808538937,0.00491783058034,2.95283708822
7221000000,671,7221000000,world,-0.011989846296,0.00492206582701,2.95283375468
7231000000,672,7231000000,world,-0.011999015102,0.00492430293244,2.95284059027
7241000000,673,7241000000,world,-0.0120083909226,0.00492451116198,2.95285802362
7251000000,674,7251000000,world,-0.0120179814183,0.00492271482327,2.95288642685
7261000000,675,7261000000,world,-0.0120277769028,0.00491898078258,2.95292574413
7271000000,676,7271000000,world,-0.0120371009396,0.00491830949529,2.95297568129
7281000000,677,7281000000,world,-0.0120463406245,0.00491768678229,2.95303595236
7291000000,678,7291000000,world,-0.0120558016942,0.0049155989934,2.95310628309
7301000000,679,7301000000,world,-0.0120658270147,0.00491644697959,2.95318641023
7311000000,680,7311000000,world,-0.0120759091615,0.00491518119816,2.95327608026
7321000000,681,7321000000,world,-0.0120859961123,0.00491191105693,2.95337505012
7331000000,682,7331000000,world,-0.0120960368975,0.00490677594059,2.95348304628
7341000000,683,7341000000,world,-0.0121059830444,0.00489994153579,2.95359950754
7351000000,684,7351000000,world,-0.0121157861559,0.0048915864956,2.95372376322
7361000000,685,7361000000,world,-0.0121254021761,0.00488189142088,2.95385516864
7371000000,686,7371000000,world,-0.0121357158938,0.00487366210588,2.95399310441
7381000000,687,7381000000,world,-0.0121460977546,0.00486538687528,2.95413697563
7391000000,688,7391000000,world,-0.0121560975419,0.00485604844802,2.95428621107
7401000000,689,7401000000,world,-0.0121656810926,0.00484578879745,2.95444026194
7411000000,690,7411000000,world,-0.0121748229747,0.00483475535135,2.95459860117
7421000000,691,7421000000,world,-0.0121845614453,0.00482449984514,2.95476072134
7431000000,692,7431000000,world,-0.0121947921525,0.00481534802169,2.95492581496
7441000000,693,7441000000,world,-0.0122044003496,0.00480564512048,2.95509239654
7451000000,694,7451000000,world,-0.0122133707006,0.00479549325639,2.95525894632
7461000000,695,7461000000,world,-0.0122216977997,0.00478499637831,2.9554240053
7471000000,696,7471000000,world,-0.0122317942913,0.00477597001604,2.95558617285
7481000000,697,7481000000,world,-0.0122417057138,0.00476711641637,2.95574410379
7491000000,698,7491000000,world,-0.0122523061654,0.00475839564556,2.95589650715
7501000000,699,7501000000,world,-0.0122652734337,0.00475040793055,2.9560421439
7511000000,700,7511000000,world,-0.0122771388107,0.00474232314243,2.95617982211
7521000000,701,7521000000,world,-0.0122878945552,0.0047342083831,2.95630839883
7531000000,702,7531000000,world,-0.012297554523,0.00472613175522,2.9564268266
7541000000,703,7541000000,world,-0.012307347117,0.00471762888796,2.95653457538
7551000000,704,7551000000,world,-0.0123165489074,0.00470910725854,2.95663139386
7561000000,705,7561000000,world,-0.0123246698281,0.00470087414891,2.95671704333
7571000000,706,7571000000,world,-0.0123285182876,0.00468886816009,2.95679129659
7581000000,707,7581000000,world,-0.0123284276369,0.00467349671634,2.95685393364
7591000000,708,7591000000,world,-0.0123278432732,0.00465911861876,2.95690474125
7601000000,709,7601000000,world,-0.0123268744043,0.0046458286214,2.95694351622
7611000000,710,7611000000,world,-0.0123247176503,0.00473324865841,2.95696999351
7621000000,711,7621000000,world,-0.0123218177213,0.00488061916652,2.95698400465
7631000000,712,7631000000,world,-0.012318864176,0.00501838022785,2.95698541918
7641000000,713,7641000000,world,-0.0123159124025,0.00514557430492,2.95697406866
7651000000,714,7651000000,world,-0.0123130070692,0.00526170157128,2.95694972778
7661000000,715,7661000000,world,-0.0123189676743,0.00560571900555,2.95691158814
7671000000,716,7671000000,world,-0.0123245011963,0.00592418674502,2.95685922559
7681000000,717,7681000000,world,-0.0123295543084,0.00621558086488,2.95679202831
7691000000,718,7691000000,world,-0.0123340981918,0.00647935102426,2.95670940944
7701000000,719,7701000000,world,-0.0123399199939,0.00679399970545,2.95661069103
7711000000,720,7711000000,world,-0.0123492002529,0.00725543004122,2.9564951609
7721000000,721,7721000000,world,-0.0123576026576,0.00767520552582,2.95636258644
7731000000,722,7731000000,world,-0.0123651126505,0.00805309275542,2.95621281698
7741000000,723,7741000000,world,-0.012375286381,0.00863051478359,2.95604705912
7751000000,724,7751000000,world,-0.0123843962244,0.00915375392728,2.9558679531
7761000000,725,7761000000,world,-0.0123924611797,0.00962297612682,2.95567762107
7771000000,726,7771000000,world,-0.0123995260787,0.0100395399858,2.9554781054
7781000000,727,7781000000,world,-0.0124056485,0.0104056686113,2.95527135658
7791000000,728,7791000000,world,-0.012413188089,0.0109366838787,2.95505883565
7801000000,729,7801000000,world,-0.0124197942608,0.0114104652147,2.95484281576
7811000000,730,7811000000,world,-0.0124255353348,0.0118288178227,2.95462502778
7821000000,731,7821000000,world,-0.0124309626432,0.0122575081595,2.95440706585
7831000000,732,7831000000,world,-0.0124363506715,0.0127251383619,2.95419055308
7841000000,733,7841000000,world,-0.0124410505994,0.0131367149706,2.95397722237
7851000000,734,7851000000,world,-0.0124451449406,0.0134948678495,2.95376857809
7861000000,735,7861000000,world,-0.0124487128974,0.0138026935661,2.95356618238
7871000000,736,7871000000,world,-0.0124522290666,0.0141519144802,2.95337159615
7881000000,737,7881000000,world,-0.0124553595339,0.0144524539488,2.95318636378
7891000000,738,7891000000,world,-0.0124581805567,0.0147072597563,2.95301196414
7901000000,739,7901000000,world,-0.0124607652784,0.0149194508411,2.95284980455
7911000000,740,7911000000,world,-0.0124631959627,0.0151080556119,2.95270127739
7921000000,741,7921000000,world,-0.0124655506791,0.0152880161596,2.95256768615
7931000000,742,7931000000,world,-0.0124675495956,0.0154187580548,2.95244990449
7941000000,743,7941000000,world,-0.0124693281546,0.0155059168642,2.95234826375
7951000000,744,7951000000,world,-0.0124712052434,0.0155625759984,2.95226289965
