%time,field.header.seq,field.header.stamp,field.header.frame_id,field.twist.linear.x,field.twist.linear.y,field.twist.linear.z,field.twist.angular.x,field.twist.angular.y,field.twist.angular.z
229000000,22,229000000,,0.00833381921441,-0.0324017215475,-0.0298259281034,0.0,0.0,0.0
240000000,23,240000000,,0.0260006802388,-0.0139967277971,0.0381784977077,0.0,0.0,0.0
251000000,24,251000000,,-0.00802447559334,-0.0046992411949,0.0214407993151,0.0,0.0,0.0
261000000,25,261000000,,-0.00361329474854,-0.00178891058689,-0.0364457035487,0.0,0.0,0.0
271000000,26,271000000,,-0.0224957869005,0.0145624022471,-0.00817700144272,0.0,0.0,0.0
281000000,27,281000000,,0.0209421013916,-0.0174102830941,-0.0469785977966,0.0,0.0,0.0
291000000,28,291000000,,0.0309890196538,0.00577046743397,-0.0447994410639,0.0,0.0,0.0
301000000,29,301000000,,-0.00951159403445,0.0147165695212,-0.00279168396298,0.0,0.0,0.0
311000000,30,311000000,,-0.0061213270179,-0.0387992430704,0.0189701067288,0.0,0.0,0.0
321000000,31,321000000,,-0.0032664512153,-0.0243192797684,-0.0263522015868,0.0,0.0,0.0
331000000,32,331000000,,-0.0127535244652,-0.0223789718524,-0.000598478059912,0.0,0.0,0.0
341000000,33,341000000,,-0.022038410986,-0.00508831068313,0.00461328511763,0.0,0.0,0.0
351000000,34,351000000,,0.000574713341937,-0.0177032040982,-0.0241560505206,0.0,0.0,0.0
360000000,35,360000000,,-0.0440037957477,-0.0109554588153,0.0168792041569,0.0,0.0,0.0
371000000,36,371000000,,0.0257159557245,-0.0332805846789,-0.0179801072968,0.0,0.0,0.0
381000000,37,381000000,,0.0181929116114,-0.00331589117661,0.00442831306786,0.0,0.0,0.0
391000000,38,391000000,,-0.0288021922,0.043869836188,-0.0119430359063,0.0,0.0,0.0
401000000,39,401000000,,-0.0187445420162,-0.00693764893965,0.0477249103865,0.0,0.0,0.0
411000000,40,411000000,,0.0186329674981,0.00711757047795,-0.00296155609095,0.0,0.0,0.0
421000000,41,421000000,,0.027588216298,-0.00574891938074,0.0428609910358,0.0,0.0,0.0
431000000,42,431000000,,-0.019612778841,0.00166822447252,-0.0441420288627,0.0,0.0,0.0
441000000,43,441000000,,0.0045036830386,-0.0195680175132,-0.0106913103004,0.0,0.0,0.0
451000000,44,451000000,,-0.0182699737108,0.0255901540491,0.0374131465928,0.0,0.0,0.0
461000000,45,461000000,,-0.000325574694632,-0.0237832811422,-0.00101291559081,0.0,0.0,0.0
471000000,46,471000000,,-0.0176332426161,0.0146991387229,0.00817767267791,0.0,0.0,0.0
481000000,47,481000000,,0.0152144015192,-0.00795059401194,0.00604479908635,0.0,0.0,0.0
491000000,48,491000000,,0.0117499161423,0.00632263738364,-0.018293322519,0.0,0.0,0.0
501000000,49,501000000,,0.0227092626389,0.0425041416653,-0.00949339947056,0.0,0.0,0.0
511000000,50,511000000,,0.0104200485967,-0.00486703970138,-0.00217445355251,0.0,0.0,0.0
521000000,51,521000000,,-0.00714645082161,0.0168293116885,0.0162039946467,0.0,0.0,0.0
531000000,52,531000000,,0.00638290566284,-0.0198967640896,0.0371539060245,0.0,0.0,0.0
541000000,53,541000000,,-0.0357146315684,-0.000280472199756,0.0372336513901,0.0,0.0,0.0
552000000,54,552000000,,-0.0057272753075,0.0153547639034,0.0944217676452,0.0,0.0,0.0
562000000,55,562000000,,-0.0292522867833,-0.0181469339894,0.0798378868196,0.0,0.0,0.0
571000000,56,571000000,,-0.0205274924923,-0.0193669985369,0.127615210954,0.0,0.0,0.0
581000000,57,581000000,,-0.00710603557672,-0.0124283036673,0.164296222759,0.0,0.0,0.0
591000000,58,591000000,,-0.0278244452026,-0.00452890236053,0.198074550518,0.0,0.0,0.0
602000000,59,602000000,,0.00781233530044,-0.00298403126532,0.234386413561,0.0,0.0,0.0
611000000,60,611000000,,-0.00558279918025,0.00480379269847,0.263727624289,0.0,0.0,0.0
621000000,61,621000000,,-0.02244245373,0.0231076162345,0.298514075884,0.0,0.0,0.0
631000000,62,631000000,,-0.005398227078,-0.0155326266009,0.355659286039,0.0,0.0,0.0
640000000,63,640000000,,0.0186738699758,0.00417381220608,0.382405008452,0.0,0.0,0.0
651000000,64,651000000,,-0.0192984489169,0.00502253682353,0.458276349714,0.0,0.0,0.0
665000000,65,665000000,,-0.0270726144597,-0.00161025299207,0.530846443219,0.0,0.0,0.0
672000000,66,672000000,,-0.0279679932686,-0.0177874860997,0.569946126259,0.0,0.0,0.0
684000000,67,684000000,,0.0157549451201,-0.00148705997357,0.600438382616,0.0,0.0,0.0
691000000,68,691000000,,0.00266125903206,0.00229072283711,0.694553262932,0.0,0.0,0.0
701000000,69,701000000,,0.0215534936696,0.0154024690501,0.774515964449,0.0,0.0,0.0
711000000,70,711000000,,0.0532210408067,-0.00322771218978,0.814497217274,0.0,0.0,0.0
721000000,71,721000000,,0.0229902483827,-0.00263916502379,0.893913462078,0.0,0.0,0.0
731000000,72,731000000,,-0.0129481674919,0.0110938901393,0.925192667496,0.0,0.0,0.0
751000000,74,751000000,,-0.00978451453791,0.00272217596121,1.00555544346,0.0,0.0,0.0
765000000,75,765000000,,-0.0276471553374,-0.00806036690219,1.08184652751,0.0,0.0,0.0
787000000,77,787000000,,0.00242823176696,-0.0298766662811,1.21772498124,0.0,0.0,0.0
794000000,78,794000000,,-0.000325746834887,-0.0225047904571,1.22424411203,0.0,0.0,0.0
802000000,79,802000000,,-0.00749985902077,0.0292745031963,1.2925815546,0.0,0.0,0.0
811000000,80,811000000,,-0.00420717153846,-0.00327819131474,1.3082383186,0.0,0.0,0.0
823000000,81,823000000,,-0.0137886865442,0.0262165130769,1.3641612121,0.0,0.0,0.0
831000000,82,831000000,,0.00354329947528,-0.0010376230871,1.38938087083,0.0,0.0,0.0
842000000,83,842000000,,0.016393888108,0.0186642727571,1.43339819189,0.0,0.0,0.0
852000000,84,852000000,,0.011716140963,0.0165434758962,1.47492740801,0.0,0.0,0.0
863000000,85,863000000,,-0.00561551470044,0.0416132054931,1.52659467805,0.0,0.0,0.0
871000000,86,871000000,,0.00880349220471,-0.0314099897161,1.54268118325,0.0,0.0,0.0
880000000,87,880000000,,-0.0029427741463,0.0142961520915,1.5609047788,0.0,0.0,0.0
891000000,88,891000000,,0.0325909490342,0.0210624170196,1.53200291256,0.0,0.0,0.0
901000000,89,901000000,,0.0162062652287,-0.0168525512402,1.63490831229,0.0,0.0,0.0
911000000,90,911000000,,-0.0378393682611,0.00201777387539,1.61228655194,0.0,0.0,0.0
921000000,91,921000000,,-0.0156178951048,0.0364324609996,1.61861951725,0.0,0.0,0.0
931000000,92,931000000,,0.0105249007866,0.0124663086181,1.6315198389,0.0,0.0,0.0
944000000,93,944000000,,-0.0363331465364,0.0199212818319,1.647536842,0.0,0.0,0.0
951000000,94,951000000,,0.00605601258407,0.0120449706033,1.59371191214,0.0,0.0,0.0
963000000,95,963000000,,-0.0113906668827,-0.0161186402852,1.63834093268,0.0,0.0,0.0
971000000,96,971000000,,-0.00102391944778,0.0194319595356,1.61562233272,0.0,0.0,0.0
982000000,97,982000000,,0.00952396606296,0.0360738154677,1.58711663395,0.0,0.0,0.0
991000000,98,991000000,,-0.0101519697436,-0.0236054139282,1.66283468522,0.0,0.0,0.0
1002000000,99,1002000000,,-0.0281507190897,0.0320369751994,1.60401182565,0.0,0.0,0.0
1011000000,100,1011000000,,-0.010835195516,-0.0191379683081,1.6225981195,0.0,0.0,0.0
1022000000,101,1022000000,,0.0367874344089,-0.0181004933943,1.58003158379,0.0,0.0,0.0
1032000000,102,1032000000,,0.00985658230621,0.0164870815247,1.59194581613,0.0,0.0,0.0
1041000000,103,1041000000,,-0.0162821428502,0.0008163314348,1.57909252491,0.0,0.0,0.0
1051000000,104,1051000000,,0.036830663889,0.0122808021793,1.54222643369,0.0,0.0,0.0
1061000000,105,1061000000,,0.0173177498429,-0.0154485786988,1.50942699772,0.0,0.0,0.0
1072000000,106,1072000000,,-0.0238136200199,0.0045505407238,1.52025760176,0.0,0.0,0.0
1083000000,107,1083000000,,-0.00730524668043,-0.0238710327622,1.48050539092,0.0,0.0,0.0
1102000000,108,1102000000,,-0.00873844508492,0.010377751699,1.45299443969,0.0,0.0,0.0
1102000000,109,1102000000,,0.0153319642677,0.00253566386608,1.46702818459,0.0,0.0,0.0
1111000000,110,1111000000,,0.015890055653,-0.0189602214821,1.42597879176,0.0,0.0,0.0
1123000000,111,1123000000,,0.0119883953041,0.0118561873842,1.42192953612,0.0,0.0,0.0
1134000000,112,1134000000,,0.00728713221219,-0.00403907360778,1.40416739713,0.0,0.0,0.0
1142000000,113,1142000000,,-0.0034227024846,0.0250829946845,1.39666839231,0.0,0.0,0.0
1151000000,114,1151000000,,0.000380514551731,-0.0131471541781,1.3278912881,0.0,0.0,0.0
1161000000,115,1161000000,,-0.0205551568357,0.00119295964006,1.38160504175,0.0,0.0,0.0
1171000000,116,1171000000,,0.0202560747941,0.00628946830995,1.27297726712,0.0,0.0,0.0
1181000000,117,1181000000,,-0.00547480459619,-0.0311579460217,1.30095787877,0.0,0.0,0.0
1191000000,118,1191000000,,0.0232852594013,-0.0182348286097,1.30618566344,0.0,0.0,0.0
1201000000,119,1201000000,,0.00614646442873,0.0233244795402,1.27256636961,0.0,0.0,0.0
1213000000,120,1213000000,,-0.00222670721118,-0.00885403768115,1.28238243529,0.0,0.0,0.0
1231000000,121,1231000000,,0.00604631583112,0.0190737960594,1.25088982082,0.0,0.0,0.0
1231000000,122,1231000000,,-0.00469535354249,0.0321198651685,1.24898344293,0.0,0.0,0.0
1251000000,123,1251000000,,-0.00276022613847,0.0246685489112,1.2314524047,0.0,0.0,0.0
1262000000,124,1262000000,,-0.0401178634802,0.0233618146943,1.26160924804,0.0,0.0,0.0
1262000000,125,1262000000,,-0.00500324956176,0.00428737593663,1.21653825046,0.0,0.0,0.0
1271000000,126,1271000000,,0.000193677046201,-0.0231861546254,1.23777369125,0.0,0.0,0.0
1282000000,127,1282000000,,0.00255877523039,0.0100437008714,1.20474913007,0.0,0.0,0.0
1292000000,128,1292000000,,0.0131546442005,-0.0211383452265,1.24865843508,0.0,0.0,0.0
1302000000,129,1302000000,,-0.00540858568371,0.0113287982272,1.26090267302,0.0,0.0,0.0
1311000000,130,1311000000,,0.000601832206399,0.0304847177101,1.24251726506,0.0,0.0,0.0
1323000000,131,1323000000,,0.0243437327716,0.00625915105825,1.19755994478,0.0,0.0,0.0
1331000000,132,1331000000,,0.0412588838945,0.0332918317923,1.16495343937,0.0,0.0,0.0
1341000000,133,1341000000,,0.00827033742125,-0.010655893805,1.19879949864,0.0,0.0,0.0
1352000000,134,1352000000,,0.0259878358225,-0.0255785926106,1.21259784378,0.0,0.0,0.0
1367000000,135,1367000000,,0.00267246568159,-0.0156713226854,1.19199225636,0.0,0.0,0.0
1371000000,136,1371000000,,0.00499744036272,0.0132701272644,1.25151266705,0.0,0.0,0.0
1381000000,137,1381000000,,-0.0258245009499,-0.0167151819892,1.212066293,0.0,0.0,0.0
1391000000,138,1391000000,,-0.0334388517889,-0.0146125093963,1.19890262487,0.0,0.0,0.0
1401000000,139,1401000000,,0.0248968904168,0.00658231052422,1.25394282612,0.0,0.0,0.0
1412000000,140,1412000000,,-0.00423547474445,0.0231083528528,1.25908512477,0.0,0.0,0.0
1421000000,141,1421000000,,-0.00952436111302,0.0327937188759,1.23947881425,0.0,0.0,0.0
1431000000,142,1431000000,,-0.0125952187037,-0.0200113621327,1.2013334276,0.0,0.0,0.0
1441000000,143,1441000000,,0.00061874338447,-0.0191306597582,1.23576642132,0.0,0.0,0.0
1451000000,144,1451000000,,-0.0174615764374,0.00672411840024,1.22287343939,0.0,0.0,0.0
1461000000,145,1461000000,,-0.0184937248972,0.0225049259956,1.22064026239,0.0,0.0,0.0
1471000000,146,1471000000,,-0.00534280339876,-0.0129145652004,1.21429743617,0.0,0.0,0.0
1481000000,147,1481000000,,-0.00380816063454,0.0100189936384,1.25071970848,0.0,0.0,0.0
1491000000,148,1491000000,,-0.0116450717915,0.00742134227303,1.25332831145,0.0,0.0,0.0
1502000000,149,1502000000,,-0.00654515326942,0.0213677909705,1.25714512452,0.0,0.0,0.0
1514000000,150,1514000000,,0.0236508507526,0.011506811647,1.26530788667,0.0,0.0,0.0
1524000000,151,1524000000,,-0.0101613949701,0.0331648838142,1.24124179326,0.0,0.0,0.0
1531000000,152,1531000000,,0.0024788740445,-0.0105044896897,1.26108826684,0.0,0.0,0.0
1542000000,153,1542000000,,-0.0506630133896,0.0137581229199,1.28864324148,0.0,0.0,0.0
1549000000,154,1549000000,,-0.00182277661379,-0.0178854879891,1.27967305134,0.0,0.0,0.0
1562000000,155,1562000000,,-0.028840042933,-0.0195144296168,1.2513095436,0.0,0.0,0.0
1572000000,156,1572000000,,-0.00348113568622,-0.00342306645281,1.27316297181,0.0,0.0,0.0
1581000000,157,1581000000,,-0.00662821078409,-0.0101032677207,1.26835232895,0.0,0.0,0.0
1592000000,158,1592000000,,-0.00380497777511,0.0199493776169,1.25905550839,0.0,0.0,0.0
1601000000,159,1601000000,,0.000448024425709,-0.0119187121379,1.25058306525,0.0,0.0,0.0
1611000000,160,1611000000,,-0.0182154138353,0.00991929022667,1.24748321548,0.0,0.0,0.0
1621000000,161,1621000000,,-0.027327863589,-0.0348418778504,1.22106557332,0.0,0.0,0.0
1631000000,162,1631000000,,0.0329964154005,0.00709943734245,1.25446456217,0.0,0.0,0.0
1641000000,163,1641000000,,0.00804495644328,-0.0336458058928,1.22476873917,0.0,0.0,0.0
1654000000,164,1654000000,,0.0234468928458,0.0373377161517,1.24348786575,0.0,0.0,0.0
1662000000,165,1662000000,,0.00294448159271,-0.00538561955894,1.2266422123,0.0,0.0,0.0
1676000000,166,1676000000,,-0.0111641065543,0.0290515137606,1.16788259338,0.0,0.0,0.0
1689000000,167,1689000000,,-0.0215707100253,-0.000475458407017,1.17687373502,0.0,0.0,0.0
1692000000,168,1692000000,,-0.0309935728615,-0.0298413507805,1.14112870828,0.0,0.0,0.0
1701000000,169,1701000000,,0.0219943991348,-0.00133923906757,1.19314898365,0.0,0.0,0.0
1712000000,170,1712000000,,-0.0130930758814,-0.0349953362298,1.1728544307,0.0,0.0,0.0
1722000000,171,1722000000,,-0.0353347166791,-0.0124902396369,1.14319550485,0.0,0.0,0.0
1733000000,172,1733000000,,0.0494783174114,-0.0330338799963,1.16991730537,0.0,0.0,0.0
1742000000,173,1742000000,,-0.00668505031853,0.0180133355266,1.14502870826,0.0,0.0,0.0
1753000000,174,1753000000,,0.00380825848144,-0.00701924584916,1.10693486388,0.0,0.0,0.0
1765000000,175,1765000000,,-0.0364889604064,0.00720741802346,1.09244180874,0.0,0.0,0.0
1772000000,176,1772000000,,0.0139978343326,-0.011046960776,1.12014946402,0.0,0.0,0.0
1782000000,177,1782000000,,0.0169814803457,0.0147496158052,1.09859632261,0.0,0.0,0.0
1793000000,178,1793000000,,-0.0180169309462,0.025113725333,1.07276548697,0.0,0.0,0.0
1803000000,179,1803000000,,-0.00819411216855,0.0200742364285,1.04728730138,0.0,0.0,0.0
1812000000,180,1812000000,,-0.0114675846478,-0.00651518679928,1.02585594293,0.0,0.0,0.0
1821000000,181,1821000000,,0.00657300209222,0.0218670622467,1.02913879688,0.0,0.0,0.0
1832000000,182,1832000000,,0.0278629656102,0.0267823123911,1.03223012849,0.0,0.0,0.0
1842000000,183,1842000000,,0.000331815410286,0.00414577195802,1.03913212724,0.0,0.0,0.0
1851000000,184,1851000000,,-0.00479853911653,0.00178829079766,1.0142795375,0.0,0.0,0.0
1861000000,185,1861000000,,0.00393323970694,-0.0392654259495,1.00401080795,0.0,0.0,0.0
1872000000,186,1872000000,,-0.0105800134568,0.0153095881307,0.967582615943,0.0,0.0,0.0
1882000000,187,1882000000,,0.014787750154,0.0115224081063,0.942061822512,0.0,0.0,0.0
1892000000,188,1892000000,,0.0137903093944,-0.0382907508365,0.93656354349,0.0,0.0,0.0
1902000000,189,1902000000,,-0.0183469022674,0.00983188304122,0.951876904792,0.0,0.0,0.0
1912000000,190,1912000000,,-0.00244778903463,-0.0111331825602,0.93381618206,0.0,0.0,0.0
1922000000,191,1922000000,,-0.00376748566589,0.0135289175635,0.914617288845,0.0,0.0,0.0
1931000000,192,1931000000,,0.0111864055382,-0.0221028317818,0.917284215947,0.0,0.0,0.0
1942000000,193,1942000000,,-0.0409477510411,-0.00513132510629,0.916522833291,0.0,0.0,0.0
1951000000,194,1951000000,,-0.00437972649308,-0.00840516153063,0.880218083377,0.0,0.0,0.0
1959000000,195,1959000000,,-0.0227405083562,0.0239468601462,0.879018865007,0.0,0.0,0.0
1971000000,196,1971000000,,0.0126409600171,-0.0099952389131,0.868422323713,0.0,0.0,0.0
1981000000,197,1981000000,,-0.00254977897237,-0.00728776778921,0.839603347358,0.0,0.0,0.0
1991000000,198,1991000000,,0.00194873020776,-0.00958663016338,0.784490004515,0.0,0.0,0.0
2001000000,199,2001000000,,-0.00641577335829,0.041599305016,0.865198306967,0.0,0.0,0.0
2012000000,200,2012000000,,0.0107979378459,-0.0138023453593,0.803484052367,0.0,0.0,0.0
2021000000,201,2021000000,,0.0041673066926,-0.00496693146813,0.778037433936,0.0,0.0,0.0
2032000000,202,2032000000,,-0.00477114505185,-0.0302010398171,0.815527459755,0.0,0.0,0.0
2039000000,203,2039000000,,-0.0172456215981,-0.0073019154655,0.751901028748,0.0,0.0,0.0
2052000000,204,2052000000,,-0.014103196525,-0.0119393057193,0.743445484438,0.0,0.0,0.0
2061000000,205,2061000000,,0.0171386043443,0.00164596976535,0.752375777614,0.0,0.0,0.0
2072000000,206,2072000000,,0.00720769096172,0.00798787783632,0.741458959841,0.0,0.0,0.0
2082000000,207,2082000000,,-0.0111487651803,-0.0093482083301,0.723290536168,0.0,0.0,0.0
2092000000,208,2092000000,,0.00349557097769,0.0318622649197,0.698672274662,0.0,0.0,0.0
2102000000,209,2102000000,,-0.00656987237277,-0.0156053772557,0.733059380553,0.0,0.0,0.0
2112000000,210,2112000000,,0.0368568196317,0.0387283533864,0.712125762835,0.0,0.0,0.0
2120000000,211,2120000000,,-0.0174118869724,-0.00922502055477,0.716383478594,0.0,0.0,0.0
2131000000,212,2131000000,,0.0376711956153,-0.0425962077967,0.700901084172,0.0,0.0,0.0
2141000000,213,2141000000,,0.0444531160082,-0.00388786089802,0.687412323375,0.0,0.0,0.0
2151000000,214,2151000000,,0.00424459467444,-0.00240775783913,0.710928012523,0.0,0.0,0.0
2161000000,215,2161000000,,-0.00912816922173,0.0295216648391,0.683179007794,0.0,0.0,0.0
2171000000,216,2171000000,,-0.0281281403138,0.0114165025565,0.676820167388,0.0,0.0,0.0
2181000000,217,2181000000,,-0.000834118494589,-0.034726791133,0.676680100765,0.0,0.0,0.0
2191000000,218,2191000000,,-0.00375938590598,0.0239213711096,0.665733357922,0.0,0.0,0.0
2201000000,219,2201000000,,-0.0293922450784,0.0018817443492,0.655732590779,0.0,0.0,0.0
2211000000,220,2211000000,,-0.00695275052989,0.0016908164756,0.662212969081,0.0,0.0,0.0
2222000000,221,2222000000,,-0.032871611539,-0.0209083452981,0.648672116369,0.0,0.0,0.0
2232000000,222,2232000000,,-0.0112154552488,0.000718130071457,0.655952180538,0.0,0.0,0.0
2242000000,223,2242000000,,0.032136961239,-0.00294461863996,0.636964518028,0.0,0.0,0.0
2252000000,224,2252000000,,0.00199992866642,0.000291114157866,0.655011086791,0.0,0.0,0.0
2262000000,225,2262000000,,-0.0140200016526,-0.00938945586525,0.591645648089,0.0,0.0,0.0
2271000000,226,2271000000,,-0.0103736668445,0.0135808665818,0.606575495235,0.0,0.0,0.0
2280000000,227,2280000000,,-0.0121925930209,0.0163730547225,0.628487849555,0.0,0.0,0.0
2291000000,228,2291000000,,0.0113473832401,0.0356694763859,0.631561876764,0.0,0.0,0.0
2301000000,229,2301000000,,0.0217226085491,0.0238531349526,0.612697707397,0.0,0.0,0.0
2311000000,230,2311000000,,-0.00840404554522,-0.006116009147,0.566969934209,0.0,0.0,0.0
2320000000,231,2320000000,,0.0126643025234,-0.00814193527077,0.597379407366,0.0,0.0,0.0
2331000000,232,2331000000,,-0.0100842264164,0.0186526209653,0.592640788162,0.0,0.0,0.0
2341000000,233,2341000000,,0.0284229293078,-0.0200575755623,0.632471869667,0.0,0.0,0.0
2352000000,234,2352000000,,-0.0283302017583,0.0126365284631,0.581354782436,0.0,0.0,0.0
2364000000,235,2364000000,,-0.0313575769734,0.0163087987304,0.591046054033,0.0,0.0,0.0
2372000000,236,2372000000,,0.0100246060398,0.00239793331476,0.534780807863,0.0,0.0,0.0
2381000000,237,2381000000,,0.00698959340015,0.00525428500605,0.565706844904,0.0,0.0,0.0
2391000000,238,2391000000,,0.0303498588709,0.00693505905387,0.550566515656,0.0,0.0,0.0
2402000000,239,2402000000,,-0.00306898028962,0.00523090678932,0.502851320016,0.0,0.0,0.0
2411000000,240,2411000000,,-0.0413188905309,0.020859604436,0.521931752587,0.0,0.0,0.0
2422000000,241,2422000000,,-0.016002136794,-0.00390789871911,0.523141981973,0.0,0.0,0.0
2431000000,242,2431000000,,0.00227829325447,-0.00658017558427,0.529845584327,0.0,0.0,0.0
2441000000,243,2441000000,,0.00993287411076,-0.0177452125597,0.548309565414,0.0,0.0,0.0
2451000000,244,2451000000,,0.0161669924378,0.0150196387345,0.526684200074,0.0,0.0,0.0
2462000000,245,2462000000,,0.00830810577254,0.00288462615221,0.487732018047,0.0,0.0,0.0
2471000000,246,2471000000,,0.0153153087647,0.00282763833095,0.500836203738,0.0,0.0,0.0
2481000000,247,2481000000,,0.00485303174326,-0.0192834326627,0.485219289906,0.0,0.0,0.0
2491000000,248,2491000000,,-0.0321285298086,-0.014676951081,0.473871187333,0.0,0.0,0.0
2501000000,249,2501000000,,-0.0112381118282,-0.00672290269202,0.439529101141,0.0,0.0,0.0
2511000000,250,2511000000,,-0.000133945774866,0.00494816459785,0.467420594804,0.0,0.0,0.0
2520000000,251,2520000000,,-0.00881517273337,0.0267699903917,0.459066005843,0.0,0.0,0.0
2532000000,252,2532000000,,0.0609357213404,0.00381723750618,0.479412098716,0.0,0.0,0.0
2541000000,253,2541000000,,0.0043041384643,0.0232239054695,0.440303101944,0.0,0.0,0.0
2551000000,254,2551000000,,0.0221366287792,-0.00702221116875,0.470881786495,0.0,0.0,0.0
2560000000,255,2560000000,,0.00200251995171,-0.0275089817407,0.44224800808,0.0,0.0,0.0
2571000000,256,2571000000,,-0.0259433233547,0.000846944570579,0.447632568231,0.0,0.0,0.0
2581000000,257,2581000000,,-0.00781692231957,0.00988216999215,0.454876777945,0.0,0.0,0.0
2592000000,258,2592000000,,0.0195908131222,0.00143896767425,0.446809998823,0.0,0.0,0.0
2600000000,259,2600000000,,0.0137649934027,-0.00299632045269,0.421626572031,0.0,0.0,0.0
2611000000,260,2611000000,,-0.0322281783465,0.0231731250161,0.417456141441,0.0,0.0,0.0
2622000000,261,2622000000,,-0.000634298599144,0.049793301518,0.403665166861,0.0,0.0,0.0
2631000000,262,2631000000,,-0.00549940659911,-0.0188530070596,0.393053406719,0.0,0.0,0.0
2641000000,263,2641000000,,-0.0141742054007,-0.0121173504144,0.366270978955,0.0,0.0,0.0
2652000000,264,2652000000,,-0.0226574938023,0.0160559003015,0.377776610751,0.0,0.0,0.0
2665000000,265,2665000000,,0.00833455037422,0.0310454457052,0.401362444713,0.0,0.0,0.0
2671000000,266,2671000000,,0.00377441206322,0.00520894730446,0.367493628586,0.0,0.0,0.0
2683000000,267,2683000000,,-0.010794845353,-0.00889685843464,0.381577904854,0.0,0.0,0.0
2691000000,268,2691000000,,0.0250565343491,-0.00202095468726,0.361400660811,0.0,0.0,0.0
2701000000,269,2701000000,,0.00811696592599,-0.00457337200225,0.39266377105,0.0,0.0,0.0
2711000000,270,2711000000,,-0.0158572312214,0.00897621967282,0.398485041714,0.0,0.0,0.0
2721000000,271,2721000000,,0.00948399053543,-0.00590722221258,0.32751860539,0.0,0.0,0.0
2731000000,272,2731000000,,-0.0184162663759,-0.0303460122371,0.320976475022,0.0,0.0,0.0
2740000000,273,2740000000,,-0.00409816376773,0.00261092000792,0.329035630932,0.0,0.0,0.0
2751000000,274,2751000000,,-0.015110690446,-0.0337612855679,0.365562822497,0.0,0.0,0.0
2761000000,275,2761000000,,0.0164256961731,0.0192095075538,0.325550646538,0.0,0.0,0.0
2771000000,276,2771000000,,-0.00880615983137,0.0217922713444,0.316743543343,0.0,0.0,0.0
2781000000,277,2781000000,,0.0406752215236,0.01089744707,0.289497276733,0.0,0.0,0.0
2792000000,278,2792000000,,0.0265505796156,0.0147427633715,0.319692647121,0.0,0.0,0.0
2801000000,279,2801000000,,0.000318542147547,0.0222491190993,0.352555033961,0.0,0.0,0.0
2811000000,280,2811000000,,0.00194030551965,-0.0221653605488,0.289559865252,0.0,0.0,0.0
2821000000,281,2821000000,,0.0171672263161,0.00421004376148,0.302289705898,0.0,0.0,0.0
2831000000,282,2831000000,,-0.0279726782884,-0.0371711540476,0.300303081555,0.0,0.0,0.0
2840000000,283,2840000000,,-0.00799482759598,-0.0151666236769,0.309835339158,0.0,0.0,0.0
2851000000,284,2851000000,,0.0180711321194,-0.0154927925481,0.258805159769,0.0,0.0,0.0
2861000000,285,2861000000,,-0.00882213998991,-0.00429420167984,0.28980131145,0.0,0.0,0.0
2872000000,286,2872000000,,-0.0125451702854,-0.00594616097879,0.304090362103,0.0,0.0,0.0
2882000000,287,2882000000,,-0.0151264491796,0.00995480245402,0.310385394662,0.0,0.0,0.0
2891000000,288,2891000000,,-0.00118660513916,0.0136224384056,0.267060451425,0.0,0.0,0.0
2901000000,289,2901000000,,0.00843157847775,0.023994073176,0.273800124978,0.0,0.0,0.0
2911000000,290,2911000000,,-0.0235117093885,-0.00498396293084,0.268770000373,0.0,0.0,0.0
2921000000,291,2921000000,,-0.00212360124569,-0.00246208012065,0.276179801674,0.0,0.0,0.0
2931000000,292,2931000000,,-0.00832994869323,-0.00220219066731,0.275105627578,0.0,0.0,0.0
2941000000,293,2941000000,,0.0443478399233,0.042817123547,0.28257250777,0.0,0.0,0.0
2952000000,294,2952000000,,-0.0197523253292,-0.0415719246865,0.265155200772,0.0,0.0,0.0
2961000000,295,2961000000,,-0.0181523523635,0.0106026537621,0.264200395714,0.0,0.0,0.0
2971000000,296,2971000000,,-0.00126795423664,0.00846947051815,0.249285036741,0.0,0.0,0.0
2981000000,297,2981000000,,0.00459241785118,0.0240700657332,0.258279602657,0.0,0.0,0.0
2991000000,298,2991000000,,-0.0304160289037,0.0361165611612,0.233376154938,0.0,0.0,0.0
3002000000,299,3002000000,,0.0461962054551,0.00298820717104,0.301655875931,0.0,0.0,0.0
3013000000,300,3013000000,,-0.00605511217287,-0.00918230018772,0.213397324527,0.0,0.0,0.0
3022000000,301,3022000000,,-0.00109857445622,0.00495492992518,0.263785860243,0.0,0.0,0.0
3032000000,302,3032000000,,0.0187335738623,-0.00171347843758,0.201496914251,0.0,0.0,0.0
3042000000,303,3042000000,,0.00349530582623,-0.00795305799322,0.22876746563,0.0,0.0,0.0
3052000000,304,3052000000,,-0.0225862671848,0.0198798075388,0.247384812283,0.0,0.0,0.0
3061000000,305,3061000000,,0.02607910412,-0.0248699594237,0.22502059189,0.0,0.0,0.0
3072000000,306,3072000000,,-0.0247333675653,0.011467553544,0.238648961463,0.0,0.0,0.0
3085000000,307,3085000000,,-0.00937233672809,0.0364295282146,0.194273903041,0.0,0.0,0.0
3104000000,309,3104000000,,-0.009555945555,0.00772760721074,0.203411621201,0.0,0.0,0.0
3117000000,310,3117000000,,0.0158962340105,0.0300052703359,0.217734387128,0.0,0.0,0.0
3127000000,311,3127000000,,0.0163244400411,-0.00737698633216,0.234786750316,0.0,0.0,0.0
3138000000,312,3138000000,,-0.0189492010405,-0.0148332587526,0.216184179015,0.0,0.0,0.0
3142000000,313,3142000000,,-0.00463612696997,0.00666092274953,0.203195568695,0.0,0.0,0.0
3151000000,314,3151000000,,0.00701523868552,0.0223046004339,0.187035076454,0.0,0.0,0.0
3160000000,315,3160000000,,-0.002190855087,-0.0115531610649,0.233100709,0.0,0.0,0.0
3171000000,316,3171000000,,-0.0053337122284,0.0184977160912,0.22509877298,0.0,0.0,0.0
3181000000,317,3181000000,,0.0034665868558,0.0102812735318,0.187476406359,0.0,0.0,0.0
3191000000,318,3191000000,,-0.00566926231361,0.0568400451684,0.230619857096,0.0,0.0,0.0
3201000000,319,3201000000,,-0.0340501858891,0.0287556104954,0.199407931753,0.0,0.0,0.0
3211000000,320,3211000000,,0.035013794781,0.00466559365234,0.212021976756,0.0,0.0,0.0
3222000000,321,3222000000,,0.00365535096973,0.00471727879079,0.172606412466,0.0,0.0,0.0
3231000000,322,3231000000,,-0.01468154251,0.00838440274815,0.216192813019,0.0,0.0,0.0
3241000000,323,3241000000,,0.00175449654593,-0.0153880965783,0.180992343784,0.0,0.0,0.0
3251000000,324,3251000000,,-0.0286482310095,0.0196109608486,0.231607640505,0.0,0.0,0.0
3261000000,325,3261000000,,-0.00637980470668,0.00753146277717,0.186495355913,0.0,0.0,0.0
3271000000,326,3271000000,,-0.0116477722464,-0.0263433129917,0.176129451356,0.0,0.0,0.0
3280000000,327,3280000000,,-0.00340222326645,-0.025098614675,0.183494329688,0.0,0.0,0.0
3291000000,328,3291000000,,-0.0152559685154,-0.0136483433248,0.169958789553,0.0,0.0,0.0
3301000000,329,3301000000,,-0.0249608588811,-0.0114763141614,0.147848350515,0.0,0.0,0.0
3312000000,330,3312000000,,-0.0487903106892,-0.00142335435851,0.197262746632,0.0,0.0,0.0
3322000000,331,3322000000,,-0.0425820575961,0.00208673638261,0.124753707892,0.0,0.0,0.0
3332000000,332,3332000000,,0.0278039882412,-0.00663319777218,0.223330080062,0.0,0.0,0.0
3341000000,333,3341000000,,-0.0312406820863,-0.00878780536827,0.175643426342,0.0,0.0,0.0
3351000000,334,3351000000,,-0.0101690387694,0.0177442344827,0.146020912147,0.0,0.0,0.0
3362000000,335,3362000000,,-0.00507942716345,-0.0180652289446,0.197797626457,0.0,0.0,0.0
3371000000,336,3371000000,,-0.00162520058942,0.051040916488,0.118291925984,0.0,0.0,0.0
3381000000,337,3381000000,,-0.00625501662722,0.0134390082722,0.193078067869,0.0,0.0,0.0
3391000000,338,3391000000,,-0.000828270755576,-0.0042460293063,0.144888314846,0.0,0.0,0.0
3403000000,339,3403000000,,-0.0229666832964,-0.0034558496075,0.125653998125,0.0,0.0,0.0
3411000000,340,3411000000,,0.0112722011513,0.0158406686708,0.174287485019,0.0,0.0,0.0
3424000000,341,3424000000,,0.0331997310605,-0.000810302327867,0.142994021174,0.0,0.0,0.0
3433000000,342,3433000000,,-0.0137011563078,0.0258740209633,0.133032701626,0.0,0.0,0.0
3441000000,343,3441000000,,0.00783952436368,0.00831791011856,0.144271514597,0.0,0.0,0.0
3452000000,344,3452000000,,-0.0293202366736,0.0124008511046,0.169485485198,0.0,0.0,0.0
3461000000,345,3461000000,,-0.0152338693138,0.0110367439142,0.122127000183,0.0,0.0,0.0
3472000000,346,3472000000,,0.000284254890772,0.00939880596767,0.108077142323,0.0,0.0,0.0
3482000000,347,3482000000,,0.0291779823241,-0.0147590894842,0.110852493653,0.0,0.0,0.0
3491000000,348,3491000000,,0.0145186882302,-0.00742649254021,0.122794556863,0.0,0.0,0.0
3502000000,349,3502000000,,0.00961194873081,-0.00802894362885,0.147858501854,0.0,0.0,0.0
3512000000,350,3512000000,,0.0154394950732,0.0268679853261,0.112224818067,0.0,0.0,0.0
3523000000,351,3523000000,,0.0197597299905,0.00586048693891,0.0938938587746,0.0,0.0,0.0
3531000000,352,3531000000,,-0.0248821343541,-0.0197490096278,0.0956758300893,0.0,0.0,0.0
3541000000,353,3541000000,,0.018748112982,0.0325770812275,0.0969869232751,0.0,0.0,0.0
3551000000,354,3551000000,,0.00525114631898,0.0262363049683,0.102277764857,0.0,0.0,0.0
3561000000,355,3561000000,,0.00260133084268,0.00728403900366,0.0937344801421,0.0,0.0,0.0
3571000000,356,3571000000,,0.00161002622308,0.0227824627104,0.110121017147,0.0,0.0,0.0
3584000000,357,3584000000,,0.0232120197427,-0.0237147313688,0.0923573561587,0.0,0.0,0.0
3592000000,358,3592000000,,-0.0284179476771,0.00174959895037,0.113299398526,0.0,0.0,0.0
3601000000,359,3601000000,,0.0183942625086,0.00324126015965,0.10146860216,0.0,0.0,0.0
3611000000,360,3611000000,,0.0311732977037,0.013257881732,0.104664232463,0.0,0.0,0.0
3622000000,361,3622000000,,0.0270360876377,-0.00464608913205,0.0637737132359,0.0,0.0,0.0
3632000000,362,3632000000,,0.0010899764239,-0.00252880060262,0.0719709914204,0.0,0.0,0.0
3647000000,363,3647000000,,0.0133996904025,-0.00215006594127,0.0819565829297,0.0,0.0,0.0
3652000000,364,3652000000,,-0.0239016911133,0.0132363735989,0.0862348821561,0.0,0.0,0.0
3662000000,365,3662000000,,-0.0102632545829,0.0116188140562,0.113714340637,0.0,0.0,0.0
3676000000,366,3676000000,,-0.0135302354551,0.0312920395495,0.126837198968,0.0,0.0,0.0
3682000000,367,3682000000,,-0.032896526919,0.0219450000804,0.0952502924664,0.0,0.0,0.0
3710000000,369,3710000000,,-0.0213294401534,0.0170469480762,0.105973677233,0.0,0.0,0.0
3710000000,370,3710000000,,-0.0150996675956,0.0158031558577,0.114383575836,0.0,0.0,0.0
3722000000,371,3722000000,,0.00417573809784,0.00397177780691,0.0989443310934,0.0,0.0,0.0
3737000000,372,3737000000,,0.0112452164109,0.0104241568528,0.117293894855,0.0,0.0,0.0
3741000000,373,3741000000,,0.010580990779,-0.0206776393374,0.0793840929164,0.0,0.0,0.0
3751000000,374,3751000000,,-0.0145662139746,-0.000272646390207,0.0735381378736,0.0,0.0,0.0
3762000000,375,3762000000,,-0.00511397897391,-0.00967525080747,0.110837093788,0.0,0.0,0.0
3782000000,376,3782000000,,0.00596671173624,-0.004088991902,0.0692242973914,0.0,0.0,0.0
3782000000,377,3782000000,,0.00327036508044,-0.0128149120392,0.0871493713371,0.0,0.0,0.0
3791000000,378,3791000000,,-0.0473305840933,-0.00271189912024,0.0679217667606,0.0,0.0,0.0
3805000000,379,3805000000,,0.021285221237,-0.0119445635247,0.102886763079,0.0,0.0,0.0
3827000000,380,3827000000,,0.0158615424053,0.0146585105975,0.0729481393949,0.0,0.0,0.0
3827000000,381,3827000000,,-0.0131965266413,-0.00490091516907,0.0802892072623,0.0,0.0,0.0
3850000000,382,3850000000,,-0.0129939458489,-0.00400153987151,0.0411695539036,0.0,0.0,0.0
3850000000,383,3850000000,,0.0110117249133,-0.0221885544287,0.0832816599051,0.0,0.0,0.0
3880000000,385,3880000000,,-0.0106001263817,0.0510371888427,0.08841388562,0.0,0.0,0.0
3884000000,386,3884000000,,-0.00553222728467,-2.26835073768e-05,0.0553692396455,0.0,0.0,0.0
3891000000,387,3891000000,,0.0100874060427,-0.000600616305785,0.0612744928063,0.0,0.0,0.0
3901000000,388,3901000000,,-0.0157484081157,0.0269752925201,0.0743412805163,0.0,0.0,0.0
3912000000,389,3912000000,,-0.0140984304608,0.0215163972881,0.0723121465435,0.0,0.0,0.0
3923000000,390,3923000000,,-0.00227886679221,-0.00652383787956,0.0264904647952,0.0,0.0,0.0
3931000000,391,3931000000,,-0.0115021921131,0.0282935269887,0.0759949974544,0.0,0.0,0.0
3941000000,392,3941000000,,0.0101807201891,-0.0162500262634,0.0475035716348,0.0,0.0,0.0
3951000000,393,3951000000,,0.0095198678043,-0.00508160979704,0.0403854460224,0.0,0.0,0.0
3961000000,394,3961000000,,0.00499825408443,0.0164253374817,0.0738783579985,0.0,0.0,0.0
3971000000,395,3971000000,,-0.0355351627806,-0.00699616211657,0.0630280349221,0.0,0.0,0.0
3981000000,396,3981000000,,0.00600086105075,0.0248067089276,0.06365564842,0.0,0.0,0.0
3991000000,397,3991000000,,-0.0154422293547,0.00714671902606,0.0841618615215,0.0,0.0,0.0
4001000000,398,4001000000,,0.0272302482255,0.0224810437097,0.0922699308342,0.0,0.0,0.0
4012000000,399,4012000000,,0.0334768226053,-0.0389289712326,0.0427832818083,0.0,0.0,0.0
4021000000,400,4021000000,,-0.00223371467339,-0.00436014889941,0.0996200742036,0.0,0.0,0.0
4031000000,401,4031000000,,-0.00221937755888,0.0189038987888,0.0862386495346,0.0,0.0,0.0
4042000000,402,4042000000,,-0.00962874074219,0.0247709336275,0.0599738660166,0.0,0.0,0.0
4052000000,403,4052000000,,0.00101589636513,0.018729787782,0.0519753893237,0.0,0.0,0.0
4061000000,404,4061000000,,0.00168641312857,-0.028599850676,0.00517932591066,0.0,0.0,0.0
4071000000,405,4071000000,,-0.00668708177989,0.0118468537189,0.0870578109901,0.0,0.0,0.0
4081000000,406,4081000000,,-0.0173047510139,0.0156488020225,0.0529931078111,0.0,0.0,0.0
4091000000,407,4091000000,,-0.00764470425541,0.00227234966962,0.00364622250499,0.0,0.0,0.0
4101000000,408,4101000000,,-0.0129322022084,-0.000429371635241,0.0933897667709,0.0,0.0,0.0
4111000000,409,4111000000,,-0.019053781459,0.025797976751,0.0839044284468,0.0,0.0,0.0
4121000000,410,4121000000,,0.0177807610764,0.0395424424478,0.0298900144052,0.0,0.0,0.0
4132000000,411,4132000000,,0.0057177930712,0.00433391726431,0.00466565822464,0.0,0.0,0.0
4141000000,412,4141000000,,-0.034007346945,-0.000264680199496,0.0415520904455,0.0,0.0,0.0
4151000000,413,4151000000,,0.0226923765312,0.0166566784383,0.0616271456547,0.0,0.0,0.0
4161000000,414,4161000000,,-0.00936367817116,-0.027047545076,0.0348929032854,0.0,0.0,0.0
4171000000,415,4171000000,,-0.0175445320094,-0.0138370118494,0.0664629601747,0.0,0.0,0.0
4181000000,416,4181000000,,-0.00663430458785,0.00136493793142,0.0606479091366,0.0,0.0,0.0
4191000000,417,4191000000,,0.0400577038425,0.0177464681804,0.0278804825869,0.0,0.0,0.0
4201000000,418,4201000000,,-0.0107458478243,-0.00806080444432,0.0798330306294,0.0,0.0,0.0
4211000000,419,4211000000,,0.0429386704628,-0.0138809080025,0.0346262271127,0.0,0.0,0.0
4222000000,420,4222000000,,-0.00871428691404,-0.00623936669396,0.0610154854294,0.0,0.0,0.0
4231000000,421,4231000000,,-0.00155487244468,0.00386567249077,0.0393326843103,0.0,0.0,0.0
4241000000,422,4241000000,,-0.023057247163,0.0485965223958,0.0823384694034,0.0,0.0,0.0
4251000000,423,4251000000,,-0.00515665104632,-0.00336182377635,0.0307632656037,0.0,0.0,0.0
4262000000,424,4262000000,,-0.00738107019251,0.0170517549914,0.0158179925578,0.0,0.0,0.0
4272000000,425,4272000000,,-0.00127836374182,0.0130285834305,0.0393372827537,0.0,0.0,0.0
4281000000,426,4281000000,,0.0129633727389,-0.0343429492374,0.0509389141135,0.0,0.0,0.0
4292000000,427,4292000000,,0.00608559180574,-0.0148780390943,0.0501352827158,0.0,0.0,0.0
4301000000,428,4301000000,,-0.0090008224418,0.00141489191032,0.0346033712745,0.0,0.0,0.0
4312000000,429,4312000000,,0.0456734155757,-0.00719679028485,0.0267102278631,0.0,0.0,0.0
4322000000,430,4322000000,,-0.0015296870253,-0.0137719153256,0.0211589805999,0.0,0.0,0.0
4330000000,431,4330000000,,0.015062445148,0.00404486506358,0.0506045403823,0.0,0.0,0.0
4341000000,432,4341000000,,-0.00142194338081,0.0100683718432,0.0172142100785,0.0,0.0,0.0
4356000000,433,4356000000,,0.0224602079716,-0.000252283355291,0.0253177740113,0.0,0.0,0.0
4361000000,434,4361000000,,0.0288614109815,-0.0129700446394,0.0556863173223,0.0,0.0,0.0
4371000000,435,4371000000,,0.00374759861258,-0.00314387241341,0.0503072771321,0.0,0.0,0.0
4382000000,436,4382000000,,-0.00235292533604,-0.019226949932,0.022270211231,0.0,0.0,0.0
4392000000,437,4392000000,,0.000580573170864,0.00561769758639,0.0305148033906,0.0,0.0,0.0
4402000000,438,4402000000,,-0.00900910112788,0.0145903378028,0.0249172604581,0.0,0.0,0.0
4411000000,439,4411000000,,-0.0188963524367,0.0125007528964,0.0229599751903,0.0,0.0,0.0
4421000000,440,4421000000,,-0.0069453634808,0.0310842843865,0.0511327241136,0.0,0.0,0.0
4431000000,441,4431000000,,0.0175890169343,0.0158181289589,-0.0198595866798,0.0,0.0,0.0
4442000000,442,4442000000,,-0.0267918735767,-0.0098165359384,0.0421033682134,0.0,0.0,0.0
4452000000,443,4452000000,,-0.012614839481,0.000535655311957,0.0226595803359,0.0,0.0,0.0
4461000000,444,4461000000,,-0.030028160284,-0.0228377947081,-0.0140230698338,0.0,0.0,0.0
4471000000,445,4471000000,,0.00922199462224,-0.0192693673155,0.0369998251086,0.0,0.0,0.0
4481000000,446,4481000000,,-0.0287112536205,-0.0463799787064,-0.00999139418785,0.0,0.0,0.0
4491000000,447,4491000000,,0.00358337987887,0.0101135218439,0.00107063875145,0.0,0.0,0.0
4502000000,448,4502000000,,-0.00355520944729,-0.00618143689281,0.0154305924722,0.0,0.0,0.0
4511000000,449,4511000000,,-0.000351248580158,0.03117812266,-0.000190717290766,0.0,0.0,0.0
4522000000,450,4522000000,,-0.0281314786649,-0.0112882907293,0.0373322987761,0.0,0.0,0.0
4532000000,451,4532000000,,-0.0132914465834,0.0164215109629,0.0280533853472,0.0,0.0,0.0
4541000000,452,4541000000,,-0.00191366895344,-0.00683416578838,0.0097341764766,0.0,0.0,0.0
4554000000,453,4554000000,,0.0084192653741,-0.0126272338216,-0.0186396517331,0.0,0.0,0.0
4566000000,454,4566000000,,0.0215601986489,0.0192538485833,0.0462726517233,0.0,0.0,0.0
4577000000,455,4577000000,,-0.0122071215241,0.0329501686403,-0.0276650190162,0.0,0.0,0.0
4582000000,456,4582000000,,-0.0172167727471,-0.0225283930973,0.0146887042057,0.0,0.0,0.0
4591000000,457,4591000000,,0.0378290122584,0.0357046554521,-0.0114406390567,0.0,0.0,0.0
4602000000,458,4602000000,,-0.00528904712878,-0.0466582607775,0.0104086007148,0.0,0.0,0.0
4611000000,459,4611000000,,-0.0340397994992,0.0210707218087,-0.0492655222308,0.0,0.0,0.0
4623000000,460,4623000000,,0.0318140665087,-0.0141229481484,0.0258222396621,0.0,0.0,0.0
4632000000,461,4632000000,,0.00578341934894,0.00625978222778,-0.00151342204603,0.0,0.0,0.0
4643000000,462,4643000000,,0.0248773197101,-0.0136172311989,-0.00744080928647,0.0,0.0,0.0
4653000000,463,4653000000,,-0.0297879944424,0.0273884599171,0.00083190917727,0.0,0.0,0.0
4663000000,464,4663000000,,0.0205239247731,0.0303149465182,-0.0432119963004,0.0,0.0,0.0
4671000000,465,4671000000,,0.0131813770572,0.0224380778441,0.0656819841539,0.0,0.0,0.0
4681000000,466,4681000000,,-0.0501399891993,-0.0106449137148,-0.00823437593124,0.0,0.0,0.0
4692000000,467,4692000000,,-0.0211971262637,0.0228552054321,0.00954168387428,0.0,0.0,0.0
4701000000,468,4701000000,,-0.0171541087237,0.0203984816471,0.0284314299968,0.0,0.0,0.0
4711000000,469,4711000000,,-0.0373800901803,0.0134945820018,-0.0112752844373,0.0,0.0,0.0
4722000000,470,4722000000,,0.0145451992279,0.0128039755312,0.022213221878,0.0,0.0,0.0
4731000000,471,4731000000,,0.0198662707554,-0.0237898854168,0.0084623859091,0.0,0.0,0.0
4741000000,472,4741000000,,0.0160201905949,-0.0199613884879,0.00940761997853,0.0,0.0,0.0
4751000000,473,4751000000,,-0.0099378069614,0.0542004386294,-0.0085199625473,0.0,0.0,0.0
4761000000,474,4761000000,,0.0325946261634,-0.00855527761436,0.00300011767487,0.0,0.0,0.0
4773000000,475,4773000000,,0.000592351628021,0.0183467450751,-0.0145000448616,0.0,0.0,0.0
4788000000,476,4788000000,,0.00551692826348,-0.012205404484,0.00476846362899,0.0,0.0,0.0
4800000000,477,4800000000,,0.00767255768529,0.00763836559883,0.0265495347542,0.0,0.0,0.0
4802000000,478,4802000000,,0.024152041055,0.0412806710162,0.0765022662825,0.0,0.0,0.0
4812000000,479,4812000000,,-0.0304610436223,-0.00444435057193,-0.0161729780434,0.0,0.0,0.0
4821000000,480,4821000000,,0.0301657254524,0.0237904537217,-0.00702204558395,0.0,0.0,0.0
4831000000,481,4831000000,,-0.0181156143802,-0.0359503301166,0.0171187367396,0.0,0.0,0.0
4841000000,482,4841000000,,0.0368575120152,0.0222805453383,0.0755971559791,0.0,0.0,0.0
4851000000,483,4851000000,,0.0171811898424,-0.0157097906585,0.0388494088071,0.0,0.0,0.0
4862000000,484,4862000000,,-0.0281906097889,0.0232119687826,-0.00398431883392,0.0,0.0,0.0
4872000000,485,4872000000,,-0.00257389351864,-0.0139341097408,-0.0267511316207,0.0,0.0,0.0
4883000000,486,4883000000,,-0.0170655462094,0.00995218367691,-0.015155157193,0.0,0.0,0.0
4891000000,487,4891000000,,-0.00962564847013,0.0253235909826,0.00913779530853,0.0,0.0,0.0
4902000000,488,4902000000,,0.0191895546761,0.00156402264627,0.0313394167951,0.0,0.0,0.0
4914000000,489,4914000000,,0.00247197178578,0.0100650868443,-0.0212651550779,0.0,0.0,0.0
4922000000,490,4922000000,,-0.000767329927062,0.0180631197259,0.0224310861263,0.0,0.0,0.0
4941000000,491,4941000000,,-0.000309477797688,0.0224350128836,0.0313983291638,0.0,0.0,0.0
4941000000,492,4941000000,,-0.0192789127904,-0.00256079302865,0.0318205935884,0.0,0.0,0.0
4954000000,493,4954000000,,0.0349589362417,0.000391343523122,-0.0151045949902,0.0,0.0,0.0
4962000000,494,4962000000,,0.0294393687177,0.00583463529885,0.00565717954858,0.0,0.0,0.0
4971000000,495,4971000000,,-0.0185893126377,-0.0246274202731,0.0199900444315,0.0,0.0,0.0
4981000000,496,4981000000,,-0.0386318393843,0.0287376081351,-0.0100780549003,0.0,0.0,0.0
4991000000,497,4991000000,,0.017853109591,-0.0161419184914,0.02580584267,0.0,0.0,0.0
5000000000,498,5000000000,,0.0163566762838,0.0424886673947,0.0151080516793,0.0,0.0,0.0
5011000000,499,5011000000,,-0.0246231476307,-0.00773614525583,0.0110374114424,0.0,0.0,0.0
5021000000,500,5021000000,,-0.0037648497143,0.024423239241,0.0335363160458,0.0,0.0,0.0
5032000000,501,5032000000,,0.01040701918,-0.0173125695241,-0.0237975590727,0.0,0.0,0.0
5041000000,502,5041000000,,0.0373026414353,-0.0160536320794,0.0209083014852,0.0,0.0,0.0
5051000000,503,5051000000,,0.0170846463436,0.0197422938936,-0.019361583696,0.0,0.0,0.0
5061000000,504,5061000000,,0.0179411170101,-0.0212969810432,-0.00903079077553,0.0,0.0,0.0
5071000000,505,5071000000,,-0.00606040665975,-0.0122389572005,0.0404802461969,0.0,0.0,0.0
5080000000,506,5080000000,,-0.00607249554284,-0.028548223995,0.0329458750427,0.0,0.0,0.0
5091000000,507,5091000000,,0.0256760844778,-0.0454155756202,-0.00527498093032,0.0,0.0,0.0
5101000000,508,5101000000,,0.0182956877358,0.0111122724919,0.0266270428854,0.0,0.0,0.0
5111000000,509,5111000000,,-0.00828192013367,-0.00680535189268,0.0109074903839,0.0,0.0,0.0
5122000000,510,5122000000,,-0.0056189318905,-0.00789086691597,0.00429429392403,0.0,0.0,0.0
5131000000,511,5131000000,,-0.0300378884331,0.00396748484798,0.0150107508069,0.0,0.0,0.0
5141000000,512,5141000000,,-0.0129591503913,0.00838035150361,-0.00909737231178,0.0,0.0,0.0
5151000000,513,5151000000,,-0.00714965359699,-0.00797091464761,0.0281729951754,0.0,0.0,0.0
5162000000,514,5162000000,,-0.0256035535434,-0.0118820822122,0.0209330160734,0.0,0.0,0.0
5171000000,515,5171000000,,-0.0272598014703,0.0192092253267,0.0282871630525,0.0,0.0,0.0
5181000000,516,5181000000,,0.042144063583,-0.00871119579401,0.00731829178803,0.0,0.0,0.0
5192000000,517,5192000000,,0.0121158043381,-0.00816730450255,0.0162449518684,0.0,0.0,0.0
5202000000,518,5202000000,,-0.0091797085696,-0.00935467581925,-0.0128878864573,0.0,0.0,0.0
5211000000,519,5211000000,,0.00632510713361,0.010061285787,-0.0149249065722,0.0,0.0,0.0
5222000000,520,5222000000,,0.0132339441889,-0.0351021216576,-0.0220057368003,0.0,0.0,0.0
5232000000,521,5232000000,,-0.00904598755806,-0.016060144152,-0.0229830673308,0.0,0.0,0.0
5241000000,522,5241000000,,0.0153954707824,-0.0306099624755,-0.0262526919903,0.0,0.0,0.0
5251000000,523,5251000000,,-0.0135335876152,0.0408670590901,0.00396327258758,0.0,0.0,0.0
5261000000,524,5261000000,,0.013349817345,-0.0127518935027,0.0130631954864,0.0,0.0,0.0
5272000000,525,5272000000,,-0.00362319812215,-0.00894097925451,-0.0230807045759,0.0,0.0,0.0
5281000000,526,5281000000,,-0.00642267060815,0.00252684335639,-0.00504202494155,0.0,0.0,0.0
5291000000,527,5291000000,,0.0248504402517,-0.0122458890789,-0.0144092727832,0.0,0.0,0.0
5302000000,528,5302000000,,0.00458486241194,0.0760888829594,0.00449320444769,0.0,0.0,0.0
5311000000,529,5311000000,,-0.0108956281431,0.00282053944486,0.00157673491323,0.0,0.0,0.0
5322000000,530,5322000000,,-0.0275992736383,0.011762304025,-0.0254502031228,0.0,0.0,0.0
5331000000,531,5331000000,,-0.0119558517073,0.00272361952793,-0.000329083352542,0.0,0.0,0.0
5341000000,532,5341000000,,-0.00269598229618,-0.0210580052181,-0.0354842329932,0.0,0.0,0.0
5351000000,533,5351000000,,0.00952147578677,-0.0106669595633,-0.0373654856415,0.0,0.0,0.0
5362000000,534,5362000000,,-0.0189861643996,-0.0108677465372,-0.00926435138911,0.0,0.0,0.0
5372000000,535,5372000000,,0.0112574212597,-0.0139246986441,-0.015551582564,0.0,0.0,0.0
5383000000,536,5383000000,,-0.000606843897603,0.0177586548338,-0.00672825737185,0.0,0.0,0.0
5392000000,537,5392000000,,0.0130300172741,-0.00708651041756,0.0189670268942,0.0,0.0,0.0
5400000000,538,5400000000,,-0.00197595314116,-0.0174520249072,-0.016100749416,0.0,0.0,0.0
5411000000,539,5411000000,,-0.0158361276135,-0.0092611306821,0.0323904306684,0.0,0.0,0.0
5421000000,540,5421000000,,-0.0219252418654,0.0167135943125,-0.0099370312452,0.0,0.0,0.0
5432000000,541,5432000000,,-0.00229022433397,0.00749387593253,0.0134581978353,0.0,0.0,0.0
5440000000,542,5440000000,,-0.00202275288448,-0.0181320383859,0.0230178902309,0.0,0.0,0.0
5451000000,543,5451000000,,-0.0158247786833,-0.0161702683267,-6.04392075182e-05,0.0,0.0,0.0
5462000000,544,5462000000,,-0.000678040692709,0.0054490357512,0.0237037903123,0.0,0.0,0.0
5471000000,545,5471000000,,0.0215714713944,0.034494840065,-0.0168638196059,0.0,0.0,0.0
5482000000,546,5482000000,,-0.0485277569634,-0.00183664406201,0.0335006317276,0.0,0.0,0.0
5492000000,547,5492000000,,-0.0088802069305,-0.0107624651156,0.0290133071992,0.0,0.0,0.0
5501000000,548,5501000000,,-0.000659121370938,0.00941818118777,-0.0117805311421,0.0,0.0,0.0
5511000000,549,5511000000,,0.0263602052298,0.0392499502745,-0.00710135409215,0.0,0.0,0.0
5521000000,550,5521000000,,-0.0187032371093,0.0012384895089,-0.0288880505639,0.0,0.0,0.0
5531000000,551,5531000000,,0.0176276619944,-0.0176180662737,0.0131153947558,0.0,0.0,0.0
5542000000,552,5542000000,,-0.0351739713919,0.0158203838289,0.021512993419,0.0,0.0,0.0
5552000000,553,5552000000,,0.0114190404163,-0.0286731715514,0.00487424549608,0.0,0.0,0.0
5562000000,554,5562000000,,-0.0120201200359,-0.0171957352058,0.00436328011045,0.0,0.0,0.0
5571000000,555,5571000000,,0.00837451732981,0.0229501731947,0.00771134899772,0.0,0.0,0.0
5581000000,556,5581000000,,-0.0168681720046,-0.0230337482974,0.0272218630809,0.0,0.0,0.0
5591000000,557,5591000000,,-0.00305288380484,0.0190825276315,0.0108823135403,0.0,0.0,0.0
5602000000,558,5602000000,,-0.00520925880926,0.00149535908061,-0.0170229368978,0.0,0.0,0.0
5609000000,559,5609000000,,-0.0376744875691,-0.0116034885831,0.0183601783569,0.0,0.0,0.0
5621000000,560,5621000000,,0.00382424186481,-0.0151370337698,0.00904752753115,0.0,0.0,0.0
5632000000,561,5632000000,,-0.00508829149401,-0.013181582504,0.0231874567387,0.0,0.0,0.0
5641000000,562,5641000000,,-0.01534779355,-0.00153072391269,-0.00917325003428,0.0,0.0,0.0
5651000000,563,5651000000,,0.0338295813978,-0.0200590081981,-0.00218619354459,0.0,0.0,0.0
5662000000,564,5662000000,,-0.00236362682768,0.0230482146199,0.026506075002,0.0,0.0,0.0
5672000000,565,5672000000,,0.000816826203919,0.0133228109774,0.0165267662217,0.0,0.0,0.0
5681000000,566,5681000000,,-0.0234181525897,0.00687898147444,0.0262117606619,0.0,0.0,0.0
5691000000,567,5691000000,,0.0192932763591,0.0425121443751,-0.0146968732028,0.0,0.0,0.0
5702000000,568,5702000000,,0.0204438383852,-0.00571683222107,-0.0254758874917,0.0,0.0,0.0
5711000000,569,5711000000,,0.000801778005856,-0.0351234002574,0.00680139000271,0.0,0.0,0.0
5722000000,570,5722000000,,-0.0167714925419,-0.0214413405888,0.00225532651592,0.0,0.0,0.0
5731000000,571,5731000000,,-0.00472539466057,-0.0256390243895,-0.00672331955613,0.0,0.0,0.0
5742000000,572,5742000000,,0.010213140961,0.014346842848,-0.00900291079887,0.0,0.0,0.0
5752000000,573,5752000000,,0.011177584531,0.000707651292533,-0.0203195559974,0.0,0.0,0.0
5763000000,574,5763000000,,0.0041459978473,0.0271768873286,-0.0172263812464,0.0,0.0,0.0
5772000000,575,5772000000,,0.00236351624858,-0.0232825513649,0.0246869662881,0.0,0.0,0.0
5782000000,576,5782000000,,-0.0103354812587,0.026542981531,-0.03291025665,0.0,0.0,0.0
5794000000,577,5794000000,,-0.0441316313573,-0.0124247112363,-0.025522669376,0.0,0.0,0.0
5803000000,578,5803000000,,-0.00166088637999,-0.0180882974117,-0.0102845062231,0.0,0.0,0.0
5811000000,579,5811000000,,-0.0373390833799,0.0123777904764,0.0098849483031,0.0,0.0,0.0
5822000000,580,5822000000,,0.00478805130869,0.0044780250448,0.00302066286632,0.0,0.0,0.0
5831000000,581,5831000000,,0.0204388969637,0.0142278078205,-0.0223130784432,0.0,0.0,0.0
5841000000,582,5841000000,,0.00271827150999,-0.00900220672426,0.0400854328698,0.0,0.0,0.0
5852000000,583,5852000000,,0.00214190198078,-0.0319410584651,-0.00807010671961,0.0,0.0,0.0
5861000000,584,5861000000,,0.0406016766638,0.0150644685631,-0.00961969902911,0.0,0.0,0.0
5872000000,585,5872000000,,-0.00787106762222,0.023782665329,0.00631624686074,0.0,0.0,0.0
5881000000,586,5881000000,,-0.00176568621107,-0.000826019517479,0.0484615233376,0.0,0.0,0.0
5891000000,587,5891000000,,0.0116180962154,0.0209233752004,0.00955360080209,0.0,0.0,0.0
5901000000,588,5901000000,,-0.0102034262339,-0.0130069485311,0.0273597308931,0.0,0.0,0.0
5911000000,589,5911000000,,-0.0184280367881,0.00774614832661,0.0179459927329,0.0,0.0,0.0
5922000000,590,5922000000,,-0.00193048670621,0.0260296994072,0.00543845176779,0.0,0.0,0.0
5933000000,591,5933000000,,0.0466921600279,0.0209765074712,0.0129974663394,0.0,0.0,0.0
5941000000,592,5941000000,,0.0229051529293,-0.031283918439,0.00551325950857,0.0,0.0,0.0
5952000000,593,5952000000,,0.00911646239021,0.028706825716,-0.00294788660616,0.0,0.0,0.0
5961000000,594,5961000000,,0.0143670449769,-0.0233361615288,0.00270476373286,0.0,0.0,0.0
5972000000,595,5972000000,,-0.0204591923215,-0.0142277827249,0.044875560241,0.0,0.0,0.0
5981000000,596,5981000000,,-0.0150658987259,-0.043634600973,0.0289930062567,0.0,0.0,0.0
5992000000,597,5992000000,,-0.0323878498581,-0.0011444541214,0.0414099884666,0.0,0.0,0.0
6001000000,598,6001000000,,-0.0154863897137,0.021999429376,0.0162479602441,0.0,0.0,0.0
6011000000,599,6011000000,,-0.0126539321135,-0.0332387100503,-0.0136708237008,0.0,0.0,0.0
6023000000,600,6023000000,,0.00720666345693,0.0437970865055,0.0547202005948,0.0,0.0,0.0
6033000000,601,6033000000,,0.0296562461428,0.0359662254218,-0.017708946354,0.0,0.0,0.0
6053000000,602,6053000000,,0.0132798458142,0.048169734995,0.0231827179382,0.0,0.0,0.0
6053000000,603,6053000000,,-0.0251686862126,0.0169992488749,0.000718980401468,0.0,0.0,0.0
6061000000,604,6061000000,,-0.00839847404906,0.0242414257819,0.0276415822923,0.0,0.0,0.0
6071000000,605,6071000000,,-0.020438676191,0.00773497333851,0.0295256326611,0.0,0.0,0.0
6080000000,606,6080000000,,0.0022428675664,-0.0193267307763,-0.00678355343847,0.0,0.0,0.0
6096000000,607,6096000000,,-0.0181629543308,-0.000548805862518,0.0356336075707,0.0,0.0,0.0
6101000000,608,6101000000,,0.00550614303235,0.0456109413245,0.021891944536,0.0,0.0,0.0
6111000000,609,6111000000,,0.00714359603051,0.00478864528254,0.0120987771093,0.0,0.0,0.0
6122000000,610,6122000000,,-0.00166296950581,-0.0252102922522,-0.0235993649805,0.0,0.0,0.0
6148000000,612,6148000000,,0.012956040583,-0.00318690984524,0.0158273527231,0.0,0.0,0.0
6154000000,613,6154000000,,0.000251090554184,0.00118208266299,-0.00589044697043,0.0,0.0,0.0
6161000000,614,6161000000,,-0.00275351800259,0.018134402674,0.0228728841195,0.0,0.0,0.0
6171000000,615,6171000000,,-0.00616381873899,-0.0460545753005,-0.00110701835885,0.0,0.0,0.0
6182000000,616,6182000000,,-0.00997045060816,-0.00594575549078,0.00357094048071,0.0,0.0,0.0
6192000000,617,6192000000,,-0.0203734447816,0.00775970035011,-0.0364446691598,0.0,0.0,0.0
6202000000,618,6202000000,,-0.0040317939429,0.0287569834165,-0.0229460044881,0.0,0.0,0.0
6212000000,619,6212000000,,0.00195298735839,-0.0212237376494,-0.0495637881804,0.0,0.0,0.0
6222000000,620,6222000000,,-0.0116473912444,0.0376660782876,-0.0206106051431,0.0,0.0,0.0
6231000000,621,6231000000,,0.0247456406402,-0.00571034033361,-0.0611652923277,0.0,0.0,0.0
6241000000,622,6241000000,,-0.020902680204,-0.00948713039486,0.0101754671536,0.0,0.0,0.0
6251000000,623,6251000000,,0.00693519919581,0.00250999672272,0.000594800023366,0.0,0.0,0.0
6261000000,624,6261000000,,0.0343443889554,-3.93435353698e-05,-0.0137565731862,0.0,0.0,0.0
6271000000,625,6271000000,,-0.000590405517991,-0.00202708673557,-0.0087219396454,0.0,0.0,0.0
6281000000,626,6281000000,,0.0188265199456,-0.0156458150883,0.00370983458866,0.0,0.0,0.0
6292000000,627,6292000000,,-0.00608769808554,-0.0084485619976,-0.0522526616147,0.0,0.0,0.0
6300000000,628,6300000000,,-0.00422891708471,-0.00423391845046,0.0287493514973,0.0,0.0,0.0
6311000000,629,6311000000,,-0.00679697648813,0.0312193222454,-0.0499654405518,0.0,0.0,0.0
6322000000,630,6322000000,,-0.00537619376908,-0.0187522434671,-0.0107260669391,0.0,0.0,0.0
6331000000,631,6331000000,,-0.000759513700123,0.0125761462316,-0.0445967389096,0.0,0.0,0.0
6341000000,632,6341000000,,0.0344874866511,0.0229832795569,-0.0233261682909,0.0,0.0,0.0
6351000000,633,6351000000,,0.0264154742282,-0.0135009388575,-0.0263990596395,0.0,0.0,0.0
6362000000,634,6362000000,,0.026315230475,0.0136708944666,-0.039719329863,0.0,0.0,0.0
6371000000,635,6371000000,,0.0234642161644,0.00381336207832,-0.00594922591436,0.0,0.0,0.0
6381000000,636,6381000000,,-0.0165292222775,0.013617564612,-0.0439958718385,0.0,0.0,0.0
6392000000,637,6392000000,,0.000268397720828,0.0245199305185,-0.0550574659487,0.0,0.0,0.0
6403000000,638,6403000000,,-0.00146245455502,0.0162974848437,-0.0205543733383,0.0,0.0,0.0
6411000000,639,6411000000,,-0.00510394826384,0.0199700144837,-0.0213009952076,0.0,0.0,0.0
6424000000,640,6424000000,,0.00185432554902,-0.0154347854493,-0.0235515277678,0.0,0.0,0.0
6431000000,641,6431000000,,-0.0356774304153,-0.00333347282525,-0.0286597046376,0.0,0.0,0.0
6441000000,642,6441000000,,-0.0073829394338,-0.00514805794266,-0.026880232698,0.0,0.0,0.0
6451000000,643,6451000000,,0.0371481101512,-0.00554142323474,-0.0166824771223,0.0,0.0,0.0
6461000000,644,6461000000,,-0.00291202997713,-0.020018426535,0.00736200719854,0.0,0.0,0.0
6471000000,645,6471000000,,-0.0267361251552,-0.00153509704406,0.000309755709509,0.0,0.0,0.0
6482000000,646,6482000000,,0.0175368175202,0.00898748361707,-0.00784939537469,0.0,0.0,0.0
6491000000,647,6491000000,,0.0129870105489,0.00150678254238,0.0146997552354,0.0,0.0,0.0
6501000000,648,6501000000,,0.000440048471792,0.000445046799072,8.02016570065e-05,0.0,0.0,0.0
6512000000,649,6512000000,,-0.0287490080358,-0.00681109586838,0.00231776976836,0.0,0.0,0.0
6521000000,650,6521000000,,0.0139347142792,-0.0132105374964,-4.78272989635e-05,0.0,0.0,0.0
6532000000,651,6532000000,,0.0121366372148,-0.00396541483791,0.0188471178931,0.0,0.0,0.0
6542000000,652,6542000000,,-0.00938563810498,0.04178855389,0.00429628298063,0.0,0.0,0.0
6551000000,653,6551000000,,0.021801273554,-0.0243259932472,0.0106145424054,0.0,0.0,0.0
6561000000,654,6561000000,,-0.0143271524332,-0.0151602562943,0.0321444218862,0.0,0.0,0.0
6571000000,655,6571000000,,-0.0042861227876,-0.0407726984858,0.0289903700496,0.0,0.0,0.0
6582000000,656,6582000000,,0.0244038391618,0.0106033297492,0.044852531655,0.0,0.0,0.0
6591000000,657,6591000000,,0.000381881466842,-0.0198801535118,0.0305593515031,0.0,0.0,0.0
6601000000,658,6601000000,,0.00746159221913,0.0160854777955,0.0139868681161,0.0,0.0,0.0
6612000000,659,6612000000,,0.00439103805097,-0.0243286103774,0.031576311976,0.0,0.0,0.0
6621000000,660,6621000000,,0.0197915389067,0.0136447459348,0.0256858413652,0.0,0.0,0.0
6631000000,661,6631000000,,-0.00377924543776,-0.0106651637285,0.0188898345865,0.0,0.0,0.0
6641000000,662,6641000000,,-0.0198329836873,-0.00451574844996,-0.0263410932698,0.0,0.0,0.0
6652000000,663,6652000000,,0.0321394188563,-0.00115559887684,0.0248072528662,0.0,0.0,0.0
6661000000,664,6661000000,,0.0290595594773,-0.00391679511645,0.0496688288571,0.0,0.0,0.0
6671000000,665,6671000000,,-0.0536611616664,0.0182114320012,0.00621831228051,0.0,0.0,0.0
6681000000,666,6681000000,,-0.0230704070154,-0.0360351703601,0.0206561589469,0.0,0.0,0.0
6691000000,667,6691000000,,-0.00418148445449,0.0461924388591,0.0196572444164,0.0,0.0,0.0
6701000000,668,6701000000,,0.000844519622132,0.0177585890789,-0.0227497943578,0.0,0.0,0.0
6713000000,669,6713000000,,-0.00673041001185,0.0188510431433,-0.00736583336846,0.0,0.0,0.0
6721000000,670,6721000000,,-0.0112766798352,-0.0179726950503,0.0154519645717,0.0,0.0,0.0
6731000000,671,6731000000,,0.0178893718766,-0.0211328064545,0.0155627733978,0.0,0.0,0.0
6741000000,672,6741000000,,-0.00373468910984,0.0417336945622,-0.037373217785,0.0,0.0,0.0
6752000000,673,6752000000,,0.0207447440008,-0.00242380645666,0.00446640989792,0.0,0.0,0.0
6761000000,674,6761000000,,-0.011973154111,-0.00228854910025,-0.0113742226293,0.0,0.0,0.0
6771000000,675,6771000000,,-0.0094002188463,-0.00347120524364,0.0269602996645,0.0,0.0,0.0
6781000000,676,6781000000,,-0.0223643821897,-0.0329175271154,-0.0124376045241,0.0,0.0,0.0
6791000000,677,6791000000,,-0.00329581132512,-0.00187883892222,-0.031162338203,0.0,0.0,0.0
6801000000,678,6801000000,,-0.0197470829629,0.0114039921446,-0.0143558173128,0.0,0.0,0.0
6811000000,679,6811000000,,-0.00962668822862,-0.00934873371781,-0.0211965924028,0.0,0.0,0.0
6821000000,680,6821000000,,-0.0313713554171,0.00365317468406,-0.0363705795641,0.0,0.0,0.0
6831000000,681,6831000000,,-0.0273448965503,0.0205803073253,-0.00658849016665,0.0,0.0,0.0
6841000000,682,6841000000,,0.0143379118765,0.000532899989868,-0.0272926675176,0.0,0.0,0.0
6852000000,683,6852000000,,0.0348523594186,-0.00260981727521,-0.0110819134852,0.0,0.0,0.0
6861000000,684,6861000000,,-0.00110447228862,-0.00715375733519,0.00644822469626,0.0,0.0,0.0
6872000000,685,6872000000,,-0.0247691349986,-0.0166230604842,0.0172575805168,0.0,0.0,0.0
6881000000,686,6881000000,,-0.0204099651908,-0.029040684093,-0.0398543946419,0.0,0.0,0.0
6892000000,687,6892000000,,-0.0149585357721,0.0396384734258,-0.00349344115704,0.0,0.0,0.0
6901000000,688,6901000000,,-0.00214188579213,-0.0334973078027,-0.0461747634909,0.0,0.0,0.0
6912000000,689,6912000000,,-0.00700096473284,-0.0113209033452,-0.00867388745769,0.0,0.0,0.0
6920000000,690,6920000000,,-0.0202508698305,0.0127173680354,-0.0248213605477,0.0,0.0,0.0
6931000000,691,6931000000,,0.00139141430662,0.0354163428292,-0.0135540771648,0.0,0.0,0.0
6941000000,692,6941000000,,-0.00749454783694,0.0275078695261,-0.000940337278437,0.0,0.0,0.0
6952000000,693,6952000000,,0.0131567812631,-0.00213583740125,-0.0246266106448,0.0,0.0,0.0
6961000000,694,6961000000,,-0.0421427696104,-0.0347382708079,-0.027793355172,0.0,0.0,0.0
6971000000,695,6971000000,,-0.0336742601819,-0.028716316827,0.000961855842448,0.0,0.0,0.0
6982000000,696,6982000000,,0.0347840122146,-0.0251238070021,-0.0520337620148,0.0,0.0,0.0
6995000000,697,6995000000,,-0.0219445644385,0.00193224545724,-0.0132482886638,0.0,0.0,0.0
7003000000,698,7003000000,,0.00704255130192,0.0127187491859,-0.00595575811108,0.0,0.0,0.0
7012000000,699,7012000000,,-0.0208489540838,-0.00462319650758,0.011526816955,0.0,0.0,0.0
7028000000,700,7028000000,,-0.0121321848248,-0.0306548536071,-0.0331155962055,0.0,0.0,0.0
7044000000,702,7044000000,,-0.024997360257,-0.0208884561533,0.0135447909585,0.0,0.0,0.0
7052000000,703,7052000000,,-0.0231110915857,0.0133648250584,-0.0192090378472,0.0,0.0,0.0
7062000000,704,7062000000,,-0.0129666268742,-0.0490631291146,-0.0177513240183,0.0,0.0,0.0
7072000000,705,7072000000,,-0.0108519869766,-0.00685783423954,-0.00678766599945,0.0,0.0,0.0
7083000000,706,7083000000,,0.00581892864928,-0.0110308384561,0.0187228787081,0.0,0.0,0.0
7091000000,707,7091000000,,0.019850527252,0.0375666576716,-0.0288648722544,0.0,0.0,0.0
