%time,field.header.seq,field.header.stamp,field.header.frame_id,field.roll,field.pitch,field.jaw,field.roll_dot,field.pitch_dot,field.jaw_dot
55000000,0,55000000,,3.4131963486e-23,-6.44083913858e-23,-1.81021785466e-24,0.0,0.0,0.0
112000000,1,112000000,,-1.10233182278e-20,-2.37228311292e-21,-6.1581065781e-24,0.0,0.0,0.0
120000000,2,120000000,,-3.54827654055e-20,9.43158830757e-20,-6.00573099451e-24,0.0,0.0,0.0
163000000,3,163000000,,1.60373960206e-12,-1.6876745227e-12,-1.82529332089e-14,0.0,0.0,0.0
202000000,4,202000000,,-4.18574927608e-06,6.07056244917e-06,-7.76703745942e-06,-0.00467013381422,0.00648308731616,-0.00038505194243
240000000,5,240000000,,-5.00433770867e-06,-4.30981162935e-06,-1.27358580357e-05,-0.00516248913482,-0.00444954028353,-0.000100086763268
282000000,6,282000000,,-8.38843803308e-08,-2.56635757978e-06,-2.00005451916e-05,0.00157687568571,0.00223014038056,7.72273851908e-05
320000000,7,320000000,,9.62859481035e-09,3.26225957359e-09,-1.32690329337e-05,-4.16692153005e-10,-1.24914334432e-09,2.42653423396e-12
361000000,8,361000000,,1.1778347897e-07,-1.59780333409e-09,-1.32194982143e-05,-3.72629316292e-10,-6.47714249857e-13,1.04502040701e-12
401000000,9,401000000,,-4.33122782084e-09,-1.76070358293e-07,-1.34672909553e-05,5.92763199636e-11,3.88744786362e-10,2.00201644542e-13
441000000,10,441000000,,1.72493752615e-09,-1.8635211152e-09,-1.26657605506e-05,0.0,0.0,0.0
480000000,11,480000000,,9.15422049275e-07,-2.3781801417e-07,-1.27371231429e-05,1.34099101181e-12,-8.51067317748e-13,-1.20512540919e-13
520000000,12,520000000,,3.83745782528e-06,-4.00534236178e-06,-1.29361151266e-05,7.95041810164e-12,-1.37733028108e-11,-4.47077840244e-13
560000000,13,560000000,,7.84734947956e-06,-1.24873604364e-05,-1.31546930788e-05,1.55891688447e-11,-3.58492506514e-11,-7.79771917609e-13
602000000,14,602000000,,1.31282113216e-05,-2.63530710072e-05,-1.33992934934e-05,2.79344516269e-11,-7.98334662266e-11,-1.2626732342e-12
662000000,15,662000000,,2.10795587918e-05,-5.28649361513e-05,-1.37864417411e-05,3.48361270386e-11,-1.31098396028e-10,-1.77904479343e-12
697000000,16,697000000,,2.58690670307e-05,-7.16519352864e-05,-1.40326083056e-05,4.0581368127e-11,-1.70925648635e-10,-2.11716278189e-12
720000000,17,720000000,,2.93564808089e-05,-8.60557847773e-05,-1.41926429933e-05,5.43543543507e-11,-2.32119115595e-10,-2.58313292631e-12
760000000,18,760000000,,3.47230125044e-05,-0.000111168250442,-1.44917976286e-05,4.07038326655e-11,-2.10442163695e-10,-2.53672300179e-12
800000000,19,800000000,,3.94927665184e-05,-0.000137091163197,-1.48283425006e-05,2.95072334622e-11,-1.80136808248e-10,-2.48428534688e-12
840000000,20,840000000,,4.28613602708e-05,-0.000159307935974,-1.51440644913e-05,2.20669246764e-11,-1.61115218389e-10,-2.42166876829e-12
881000000,21,881000000,,4.50064180768e-05,-0.000179574941285,-1.54973367898e-05,9.46689514975e-12,-1.14086934344e-10,-2.07406032453e-12
921000000,22,921000000,,4.59706679976e-05,-0.000196182605578,-1.58313778229e-05,4.9725420179e-13,-6.69322375302e-11,-1.62484001948e-12
960000000,23,960000000,,4.53287393611e-05,-0.00020741042681,-1.61623356689e-05,-4.11395223443e-12,-2.89920205898e-11,-1.08166644044e-12
1008000000,24,1008000000,,4.17162336817e-05,-0.000214724816033,-1.6652749764e-05,-5.11804574416e-12,-1.15903575799e-12,-4.72849244568e-13
1040000000,25,1040000000,,3.81102508982e-05,-0.00021351093892,-1.69457925949e-05,-1.00440914266e-11,7.49349193807e-12,-7.25163635737e-13
1081000000,26,1081000000,,3.1794563256e-05,-0.000206389813684,-1.73169864865e-05,-2.87933201587e-11,4.22478510509e-11,-1.48876028692e-12
1120000000,27,1120000000,,2.39229884755e-05,-0.000192118284758,-1.76897337951e-05,-5.29517298065e-11,1.09002668003e-10,-2.30377262406e-12
1161000000,28,1161000000,,1.43478619066e-05,-0.000171792009496,-1.80572387762e-05,-8.71028874028e-11,1.99277344626e-10,-3.11750300054e-12
1201000000,29,1201000000,,5.52811661692e-06,-0.000149800005602,-1.83596584975e-05,-1.15490249308e-10,3.08249648029e-10,-3.83269934887e-12
1240000000,30,1240000000,,-9.84959206107e-06,-0.000108316700789,-1.88268422789e-05,-1.68023248093e-10,4.73149908142e-10,-4.80210923109e-12
1280000000,31,1280000000,,-2.33706959989e-05,-6.69895089231e-05,-1.92008155864e-05,-2.17741102926e-10,6.94279800317e-10,-5.81638513394e-12
1321000000,32,1321000000,,-3.96134601033e-05,-1.5551555407e-05,-1.96093824343e-05,-2.69047589763e-10,9.0003687836e-10,-6.69861822261e-12
1360000000,33,1360000000,,-5.49108917767e-05,3.92394467781e-05,-1.99909736693e-05,-3.14438391991e-10,1.13308395999e-09,-7.58592494376e-12
1401000000,34,1401000000,,-7.1128430136e-05,9.86130180536e-05,-2.03787785722e-05,-3.43908179712e-10,1.34595123935e-09,-8.32225347663e-12
1440000000,35,1440000000,,-8.75538171385e-05,0.000166083322256,-2.07893335755e-05,-3.61011665007e-10,1.44273393232e-09,-8.74066270751e-12
1482000000,36,1482000000,,-0.000104118415038,0.000237152300542,-2.12063732761e-05,-3.62549990029e-10,1.68451630422e-09,-9.4478088547e-12
1520000000,37,1520000000,,-0.000118276584544,0.000304719462292,-2.15966556425e-05,-3.05725028626e-10,1.47046952392e-09,-8.94402607532e-12
1562000000,38,1562000000,,-0.00013128988212,0.000374670489691,-2.20210404223e-05,-2.29503555049e-10,1.40257883086e-09,-8.70545215775e-12
1602000000,39,1602000000,,-0.000141432523378,0.000439699651906,-2.24488867389e-05,-1.51656590064e-10,1.08242204089e-09,-7.72880804495e-12
1640000000,40,1640000000,,-0.00014704480418,0.000489097903483,-2.28147673624e-05,-7.95048887836e-11,9.12673436826e-10,-7.06250943144e-12
1680000000,41,1680000000,,-0.000149979561684,0.000540216395166,-2.32664006035e-05,-8.99198944471e-12,5.46865497331e-10,-5.5012982017e-12
1722000000,42,1722000000,,-0.000148049963173,0.000579961284529,-2.37182448473e-05,4.17454855406e-11,2.82890738612e-10,-3.96407125874e-12
1764000000,43,1764000000,,-0.000142105272971,0.000600025348831,-2.40959252551e-05,4.84216174101e-11,8.50368456207e-11,-2.31259109085e-12
1801000000,44,1801000000,,-0.000129949723487,0.000610840972513,-2.45471856033e-05,6.33692404106e-11,1.6499983671e-11,-1.90353288687e-12
1843000000,45,1843000000,,-0.000112506604637,0.000604388071224,-2.49793429248e-05,1.59860638616e-10,-1.29490571044e-10,-3.38096998315e-12
1880000000,46,1880000000,,-9.15007549338e-05,0.00058071577223,-2.53683556366e-05,3.42815220655e-10,-4.63980576182e-10,-5.65649306908e-12
1922000000,47,1922000000,,-6.28285779385e-05,0.000536979467142,-2.57923038589e-05,6.05976546719e-10,-1.04534936263e-09,-8.24938294758e-12
1960000000,48,1960000000,,-2.82768160105e-05,0.000469238177175,-2.62255671259e-05,0.000912647577934,-0.0019161925884,-1.06017732833e-05
2001000000,49,2001000000,,1.80935421668e-05,0.000372190523194,-2.66793231276e-05,0.00130156124942,-0.00289151445031,-1.177374088e-05
2041000000,50,2041000000,,6.79400982335e-05,0.000253257749137,-2.71297922154e-05,0.00130484765396,-0.00322593329474,-1.19594315038e-05
2082000000,51,2082000000,,0.000117125411634,0.000126163693494,-2.76174414466e-05,0.0010745448526,-0.00308563024737,-1.1870736671e-05
2120000000,52,2120000000,,0.000153695276822,1.19021533465e-05,-2.807366036e-05,0.000799030414782,-0.00275409803726,-1.17515346574e-05
2162000000,53,2162000000,,0.000179564915015,-9.13366602617e-05,-2.85517871816e-05,0.000471768493298,-0.00236797472462,-1.15882803584e-05
2201000000,54,2201000000,,0.000193213636521,-0.000176410510903,-2.90091611532e-05,1.89885288049e-10,-1.70504188546e-09,-1.05300594633e-11
2240000000,55,2240000000,,0.000195186090423,-0.000231809550314,-2.94468500215e-05,-4.10345125934e-11,-4.48179937607e-10,-4.75587754942e-12
2280000000,56,2280000000,,0.000190151768038,-0.00026962836273,-2.9836599424e-05,-9.26794266332e-11,-5.8577864781e-10,-5.75074926915e-12
2320000000,57,2320000000,,0.000180814327905,-0.000317932775943,-3.02853895846e-05,-1.6937447278e-10,-7.7932899023e-10,-6.80063644287e-12
2360000000,58,2360000000,,0.000167385354871,-0.000367551285308,-3.07218979287e-05,-2.57165344575e-10,-7.75032427125e-10,-7.0156059781e-12
2401000000,59,2401000000,,0.000148617938976,-0.000417917966843,-3.11722578772e-05,-3.48488848889e-10,-8.44178227322e-10,-7.42862455577e-12
2440000000,60,2440000000,,0.0001278991258,-0.000460761104478,-3.1561103242e-05,-4.38688668725e-10,-7.78018094394e-10,-7.43979183815e-12
2480000000,61,2480000000,,9.66840889305e-05,-0.00050962617388,-3.20490144077e-05,-4.88050988512e-10,-6.58972265644e-10,-7.05807027407e-12
2522000000,62,2522000000,,6.09271446592e-05,-0.000548427691683,-3.25155961036e-05,-5.59987889392e-10,-5.00695152006e-10,-6.81451770013e-12
2560000000,63,2560000000,,2.4238755941e-05,-0.000576842809096,-3.29390495608e-05,-5.9280219622e-10,-3.6282099547e-10,-6.550011835e-12
2600000000,64,2600000000,,-1.8624790755e-05,-0.000594727462158,-3.33852403855e-05,-6.48020859195e-10,-1.81355208628e-10,-6.49759239468e-12
2641000000,65,2641000000,,-6.37896737317e-05,-0.000599786697421,-3.38305362675e-05,-6.75076439194e-10,3.28770448366e-11,-6.47979109605e-12
2683000000,66,2683000000,,-0.000118085525173,-0.000591775518842,-3.43227075064e-05,-8.47619363586e-10,2.52692700098e-10,-7.66269339647e-12
2720000000,67,2720000000,,-0.00016350117221,-0.000570489442907,-3.47360983142e-05,-9.75094560651e-10,5.94525095821e-10,-8.79934927006e-12
2761000000,68,2761000000,,-0.000211555234273,-0.000534136255737,-3.51715098077e-05,-1.11166109651e-09,1.03969177712e-09,-1.03707892968e-11
2801000000,69,2801000000,,-0.000266009330517,-0.000468709971756,-3.57056924258e-05,-0.00117104349192,0.00165418465622,-1.19282021842e-05
2840000000,70,2840000000,,-0.00031447323272,-0.000383998354664,-3.62839527952e-05,-0.00143835740164,0.00305966194719,-2.07393804885e-05
2880000000,71,2880000000,,-0.000365659972886,-0.000243989226874,-3.73030525225e-05,-0.001044392935,0.00363087048754,-2.85014593828e-05
2920000000,72,2920000000,,-0.00039563907194,-5.58307365282e-05,-3.86604115192e-05,-0.000544277601875,0.00531766237691,-3.98630472773e-05
2960000000,73,2960000000,,-0.000405047088861,0.000130756074213,-4.02554505854e-05,0.000134185960633,0.00394156621769,-4.00668832299e-05
3000000000,74,3000000000,,-0.000385957479011,0.000267230934696,-4.19029238401e-05,0.000711261178367,0.00226419558749,-3.50484406226e-05
3040000000,75,3040000000,,-0.000339160556905,0.000288155861199,-4.31346379628e-05,1.01233010863e-09,-1.17445539405e-10,-2.11576173248e-11
3080000000,76,3080000000,,-0.000283201807179,0.000274235702818,-4.42597702204e-05,9.01357377625e-10,-2.90590995711e-10,-1.89784316734e-11
3120000000,77,3120000000,,-0.000221336536924,0.000256675237324,-4.54033506685e-05,1.47059875388e-09,-3.7002226283e-10,-2.45381111263e-11
3162000000,78,3162000000,,-0.000141568059917,0.000236379753915,-4.6586868848e-05,0.00212004757486,-0.000524385075551,-2.82283672277e-05
3200000000,79,3200000000,,-4.43296739832e-05,0.000212759769056,-4.76645254821e-05,0.00305164000019,-0.000775485939812,-2.85316182271e-05
3241000000,80,3241000000,,8.44603273435e-05,0.000179552283953,-4.88296609547e-05,0.00321098859422,-0.000808804586995,-2.83882181975e-05
3280000000,81,3280000000,,0.000196885855985,0.000151143452968,-4.98743502249e-05,0.00277327536605,-0.000738910457585,-2.80520398519e-05
3322000000,82,3322000000,,0.000295019970508,0.000124257887364,-5.09873279952e-05,0.00213957740925,-0.000587782938965,-2.76845330518e-05
3362000000,83,3362000000,,0.000360854581231,0.000104770733742,-5.20031389897e-05,1.09743369947e-09,-3.65972446792e-10,-2.07034736577e-11
3400000000,84,3400000000,,0.000398874573875,8.96317797014e-05,-5.3183423006e-05,3.52359946776e-11,-2.81423478271e-11,-3.96925504617e-12
3442000000,85,3442000000,,0.000404058606364,8.08190889074e-05,-5.42879679415e-05,2.81568119515e-11,-4.2774294523e-11,-4.20582492444e-12
3481000000,86,3481000000,,0.000408538617194,6.95526323398e-05,-5.52905803488e-05,8.42392995637e-12,-5.21656051689e-11,-4.3063855433e-12
3520000000,87,3520000000,,0.000406946142903,5.73651268496e-05,-5.6287884945e-05,-2.28212067299e-11,-5.39257874466e-11,-4.47650597146e-12
3560000000,88,3560000000,,0.000395697832573,4.41411029897e-05,-5.73868055653e-05,-9.9952789101e-11,-8.37526992203e-11,-6.67072170071e-12
3600000000,89,3600000000,,0.000374335446395,2.98939685308e-05,-5.8456818806e-05,-2.4816698696e-10,-1.33674377123e-10,-9.80661125222e-12
3641000000,90,3641000000,,0.00034099156619,1.56355727086e-05,-5.95261008129e-05,-4.77807848842e-10,-1.84224843713e-10,-1.31826945193e-11
3680000000,91,3680000000,,0.000298485916574,1.25656902128e-06,-6.05401110079e-05,-8.2473772256e-10,-2.39788799927e-10,-1.70655295451e-11
3720000000,92,3720000000,,0.000242270471063,-1.31349015646e-05,-6.15798562649e-05,-1.1847151038e-09,-2.8470104052e-10,-2.02402261618e-11
3761000000,93,3761000000,,0.0001754402183,-2.71597436949e-05,-6.26154942438e-05,-1.77268166812e-09,-3.15394099726e-10,-2.45849503949e-11
3800000000,94,3800000000,,9.49836758082e-05,-4.06188337365e-05,-6.36516997474e-05,-0.00209655752406,-0.000326865032548,-2.58015352301e-05
3840000000,95,3840000000,,-7.37679329177e-06,-5.43839632883e-05,-6.46928674541e-05,-0.00290313572623,-0.000337059929734,-2.61701461568e-05
3880000000,96,3880000000,,-0.00012056214473,-6.56908669043e-05,-6.57129421597e-05,-0.00272080209106,-0.000231723402976,-2.60069336946e-05
3921000000,97,3921000000,,-0.000223114853725,-7.12758410373e-05,-6.68038264848e-05,-0.00211128476076,-4.72488754895e-05,-2.58634063357e-05
3960000000,98,3960000000,,-0.000288588140393,-6.99678130331e-05,-6.77828575135e-05,-9.45698852561e-10,7.9836255662e-11,-1.77240323113e-11
4000000000,99,4000000000,,-0.000330950599164,-6.28830894129e-05,-6.88340660417e-05,-2.49816972664e-11,3.17491102853e-11,-3.57769434738e-12
4045000000,100,4045000000,,-0.000329348433297,-5.29949684278e-05,-6.97553477949e-05,5.83648615549e-11,6.23248536114e-11,-5.1365448353e-12
4080000000,101,4080000000,,-0.00032328281668,-3.84657287213e-05,-7.0806920121e-05,1.07022290335e-11,7.85044876328e-11,-5.03481067601e-12
4120000000,102,4120000000,,-0.000316271121847,-2.10719645111e-05,-7.18127921573e-05,8.65542568174e-11,1.32247643392e-10,-7.08616932493e-12
4160000000,103,4160000000,,-0.000299644452753,-1.69526219906e-06,-7.2768641985e-05,2.21202167694e-10,2.15054016262e-10,-9.84139852944e-12
4203000000,104,4203000000,,-0.000274541787803,1.86344841495e-05,-7.36668880563e-05,4.22752471918e-10,2.89804236164e-10,-1.26208410042e-11
4242000000,105,4242000000,,-0.00022534855816,4.83298645122e-05,-7.48812381062e-05,7.95643217977e-10,4.38579089712e-10,-1.66184756928e-11
4281000000,106,4281000000,,-0.000178614282049,7.14905909263e-05,-7.57447051001e-05,1.20059073794e-09,5.50252232667e-10,-2.00229780672e-11
4321000000,107,4321000000,,-0.000107420637505,0.000102180565591,-7.68240643083e-05,1.6825254523e-09,6.70424049609e-10,-2.32496469993e-11
4360000000,108,4360000000,,-3.45498956449e-05,0.000128331957967,-7.77517270762e-05,0.00204667379148,0.000690658227541,-2.4368888262e-05
4401000000,109,4401000000,,6.2423889176e-05,0.000159633214935,-7.87315220805e-05,0.00280198128894,0.000851187680382,-2.46697345574e-05
4440000000,110,4440000000,,0.000174200191395,0.00018969969824,-7.97164902906e-05,0.00270602898672,0.000663585553411,-2.45721039391e-05
4480000000,111,4480000000,,0.000270770164207,0.000209597987123,-8.07028700365e-05,0.00213969638571,0.000327243848005,-2.48514425039e-05
4520000000,112,4520000000,,0.000338824465871,0.000215682026464,-8.16758474684e-05,8.76538952532e-10,-1.2289630251e-11,-1.6581675269e-11
4560000000,113,4560000000,,0.000370557798306,0.00021044263849,-8.25461247587e-05,4.93800347834e-11,-5.71731897936e-11,-4.73905333379e-12
4600000000,114,4600000000,,0.000373796501663,0.000192099309061,-8.37018742459e-05,6.42859940628e-12,-1.14954233632e-10,-5.98982061867e-12
4641000000,115,4641000000,,0.00037174357567,0.000169949431438,-8.47123010317e-05,-5.1134301654e-11,-1.89772225712e-10,-7.98498333426e-12
4680000000,116,4680000000,,0.000360283564078,0.000141394135426,-8.5739287897e-05,-1.83743922855e-10,-3.62418900446e-10,-1.16156580882e-11
4720000000,117,4720000000,,0.000340542261256,0.00011055052164,-8.6673462647e-05,-3.88642423799e-10,-5.1614423846e-10,-1.48284058643e-11
4760000000,118,4760000000,,0.000306651345454,6.9028516009e-05,-8.77466009115e-05,-7.1491523812e-10,-8.13549283496e-10,-1.9316735711e-11
4802000000,119,4802000000,,0.00025772646768,2.06650711334e-05,-8.8854925707e-05,-1.18840148833e-09,-1.08352748995e-09,-2.37224597605e-11
4840000000,120,4840000000,,0.000196970417164,-3.26264780597e-05,-8.9940505859e-05,-0.00164823164232,-0.00134325807448,-2.65298167506e-05
4883000000,121,4883000000,,0.000114192225737,-9.45447827689e-05,-9.09919544938e-05,-0.0023320526816,-0.00170811428688,-2.70983800874e-05
4920000000,122,4920000000,,2.53259604506e-05,-0.000155928675667,-9.1992871603e-05,-0.00239635095932,-0.00151103315875,-2.70010023087e-05
4963000000,123,4963000000,,-7.81220005592e-05,-0.000212768354686,-9.32555631152e-05,-0.00196413416415,-0.000947435910348,-2.67380019068e-05
5002000000,124,5002000000,,-0.000145003592479,-0.0002385135449,-9.42714032135e-05,-1.25705157394e-09,-3.16579013004e-10,-2.15600124559e-11
5040000000,125,5040000000,,-0.000184358548722,-0.000242620677454,-9.52155096456e-05,-2.23207438643e-10,4.96344423895e-11,-8.6713795866e-12
5080000000,126,5080000000,,-0.000213585561141,-0.000233898623264,-9.6302224847e-05,-2.41761666242e-10,1.09618487898e-10,-9.46799062762e-12
5121000000,127,5121000000,,-0.000240619745455,-0.000217576787691,-9.73969144979e-05,-2.27015253818e-10,1.83264334264e-10,-9.97501473782e-12
5162000000,128,5162000000,,-0.000262780929916,-0.000196494322154,-9.83943245956e-05,-2.22082074952e-10,2.60152760445e-10,-1.08792419518e-11
5200000000,129,5200000000,,-0.000281280110357,-0.000167556601809,-9.94458750938e-05,-1.90498755659e-10,3.73481884308e-10,-1.20825250846e-11
5240000000,130,5240000000,,-0.000295403006021,-0.000132294226205,-0.000100503377325,-1.55680648928e-10,5.07461295207e-10,-1.36813529256e-11
5280000000,131,5280000000,,-0.000303785229335,-8.90135852387e-05,-0.00010156549979,-7.55654913642e-11,6.72735811502e-10,-1.55081988917e-11
5320000000,132,5320000000,,-0.000304308865452,-3.97257063014e-05,-0.000102657504613,6.98722954495e-11,8.17386713869e-10,-1.70434638624e-11
5360000000,133,5360000000,,-0.000295661127893,1.29635691337e-05,-0.000103696926089,2.37046798857e-10,9.50074463546e-10,-1.86726207413e-11
5400000000,134,5400000000,,-0.000277025334071,6.93077890901e-05,-0.000104763865238,4.65852578735e-10,1.16918785764e-09,-2.11365230873e-11
5442000000,135,5442000000,,-0.000244925555307,0.000133744586492,-0.000105912142317,7.66841923294e-10,1.25154275832e-09,-2.28348017578e-11
5480000000,136,5480000000,,-0.000207175762625,0.000188996913494,-0.000106897721707,1.09255515746e-09,1.44771039601e-09,-2.53167833919e-11
5520000000,137,5520000000,,-0.000153391461936,0.00024922247394,-0.000107989013486,0.00145279313438,0.00142393016722,-2.65932194452e-05
5560000000,138,5560000000,,-8.59570282046e-05,0.000310527422698,-0.000109021828393,0.00208495836705,0.00175498763565,-2.77030485449e-05
5602000000,139,5602000000,,7.23644052414e-06,0.00037543734652,-0.000110209643026,0.00214824685827,0.00126057630405,-2.74381800409e-05
5640000000,140,5640000000,,8.4283958131e-05,0.000409085507272,-0.000111244669824,1.87658089068e-09,5.38842359621e-10,-2.66887571071e-11
5680000000,141,5680000000,,0.000143834389746,0.00041268140194,-0.000112302841444,4.67544725158e-10,-1.8832918558e-10,-1.22519390466e-11
5720000000,142,5720000000,,0.000184579359484,0.000390749162761,-0.000113321490062,6.07988603907e-10,-4.29518282052e-10,-1.53013556686e-11
5761000000,143,5761000000,,0.00022454324062,0.000355564814527,-0.000114332149678,7.34862781737e-10,-7.82234832464e-10,-1.86282777398e-11
5800000000,144,5800000000,,0.000257280946244,0.000315541779855,-0.0001151736069,8.0527223778e-10,-1.08170350455e-09,-2.10184387256e-11
5840000000,145,5840000000,,0.000301182677504,0.000246944429819,-0.00011633647955,0.000978649361059,-0.00176385499071,-2.61105797108e-05
5880000000,146,5880000000,,0.000344680272974,0.00016054554726,-0.000117426709039,0.00114660069812,-0.00246781925671,-2.82105756924e-05
5920000000,147,5920000000,,0.000382485421142,5.6305052567e-05,-0.000118557283713,0.00073994154809,-0.00257349060848,-2.79832038359e-05
5962000000,148,5962000000,,0.000400901568355,-4.45409859822e-05,-0.000119749551232,0.000121181030408,-0.00214361795224,-2.74245685432e-05
6004000000,149,6004000000,,0.000394729053369,-0.000123382080346,-0.000120854259876,-4.20108281496e-10,-1.42607203824e-09,-2.30249829619e-11
6044000000,150,6044000000,,0.000366403139196,-0.000166337180417,-0.000121865617984,-5.05895936254e-10,-4.49029757821e-10,-1.38483009782e-11
6080000000,151,6080000000,,0.000329571805196,-0.000197816436412,-0.000122742378153,-8.80886974475e-10,-6.47647435681e-10,-1.8186816636e-11
6121000000,152,6121000000,,0.000278974301182,-0.000228720891755,-0.000123654055642,-1.32387223406e-09,-7.56578688588e-10,-2.1664193009e-11
6160000000,153,6160000000,,0.000206855707802,-0.000265762006165,-0.000124701051391,-0.00193465233315,-0.000849317584652,-2.50413249887e-05
6200000000,154,6200000000,,0.000111715315143,-0.000302510801703,-0.000125745689729,-0.00275177555159,-0.000993615365587,-2.60642536887e-05
6241000000,155,6241000000,,-1.79129415301e-06,-0.000336588913342,-0.000126784289023,-0.00295917247422,-0.000696386152413,-2.60282595264e-05
6280000000,156,6280000000,,-0.000102167054138,-0.000354645686457,-0.000127716339193,-0.00261261081323,-0.000306988280499,-2.57223218796e-05
6320000000,157,6320000000,,-0.000187848432688,-0.000358082324965,-0.000128636718728,-0.00214168918319,0.00011116580572,-2.5429404559e-05
6360000000,158,6360000000,,-0.000269526033662,-0.000341832579579,-0.000129819993163,-1.05356057212e-09,4.61236854266e-10,-1.90462732391e-11
6400000000,159,6400000000,,-0.000302400934743,-0.000311538547976,-0.000130800093757,-3.06825148622e-10,4.62470922669e-10,-1.24855377773e-11
6441000000,160,6441000000,,-0.000323489541188,-0.00026959538809,-0.000131775581394,-3.8620190379e-10,7.25403181967e-10,-1.55286773024e-11
6481000000,161,6481000000,,-0.000348876026692,-0.000220084970351,-0.000132756205858,-4.28920149398e-10,1.01129160601e-09,-1.82611512717e-11
6529000000,162,6529000000,,-0.000369677320123,-0.000148591789184,-0.000133938810905,-2.32169339309e-10,1.24784160782e-09,-1.96609551556e-11
6560000000,163,6560000000,,-0.000372181733837,-9.43936174735e-05,-0.000134710018756,1.45200518276e-11,1.7089941684e-09,-2.31222020697e-11
6600000000,164,6600000000,,-0.000367597938748,-2.23749029828e-05,-0.000135665715788,2.03595904025e-10,1.79977666104e-09,-2.40766590692e-11
6640000000,165,6640000000,,-0.000358643359505,5.94075099798e-05,-0.000136717615533,0.000310123490635,0.00211301632226,-2.58711079368e-05
6680000000,166,6680000000,,-0.000336581579177,0.000155626970809,-0.000137796960189,0.000781424925663,0.00264227576554,-2.80093936453e-05
6722000000,167,6722000000,,-0.000301116204355,0.000250334414886,-0.000138832983794,0.00112259853631,0.00242485734634,-2.79026335193e-05
6763000000,168,6763000000,,-0.000248441909207,0.000335997610819,-0.000140012591146,0.00129569554701,0.00157500826754,-2.69549109362e-05
6800000000,169,6800000000,,-0.000186772565939,0.000379476085072,-0.000141128170071,1.29614985411e-09,5.61674651234e-10,-2.25721229902e-11
6840000000,170,6840000000,,-0.000137810391607,0.000385306513635,-0.000142078410136,6.61509902411e-10,-1.31246166712e-10,-1.38795390112e-11
6880000000,171,6880000000,,-8.82384701981e-05,0.000370955822291,-0.000143024750287,1.08867115323e-09,-3.48621242985e-10,-1.87654943667e-11
6920000000,172,6920000000,,-2.34140297835e-05,0.000346585991792,-0.000144053861732,1.56030766085e-09,-6.88387458148e-10,-2.33914485004e-11
6960000000,173,6960000000,,4.98090048495e-05,0.000310054660076,-0.000145075158798,0.00195248017553,-0.00103671336547,-2.57116698776e-05
7000000000,174,7000000000,,0.000144588382682,0.000254655315075,-0.000146165606566,0.00258837360889,-0.00165099196602,-2.73662226391e-05
7040000000,175,7040000000,,0.000249304954195,0.000183392461622,-0.000147292579641,0.00248931185342,-0.00178547389805,-2.76726113952e-05
7081000000,176,7081000000,,0.000338059326168,0.000109428496216,-0.000148420585901,0.00185643136501,-0.00177515763789,-2.72783836408e-05
7120000000,177,7120000000,,0.000396473362343,4.54357723356e-05,-0.000149479019456,1.04699970915e-09,-1.45215384162e-09,-2.55980566605e-11
7160000000,178,7160000000,,0.000423055753345,-7.08354627932e-06,-0.000150504507474,1.39866772678e-11,-3.62585517166e-10,-1.03132745399e-11
7200000000,179,7200000000,,0.000413254543673,-3.73903712898e-05,-0.000151485888637,-1.83669940368e-10,-3.03062075435e-10,-1.00309699783e-11
7242000000,180,7242000000,,0.000399533921154,-7.74716027081e-05,-0.000152453925693,-1.81827969348e-10,-8.73991767847e-10,-1.72624622929e-11
7280000000,181,7280000000,,0.000382763158996,-0.000130521235405,-0.000153486762429,-4.18526935331e-10,-1.03098629634e-09,-1.92299839247e-11
7320000000,182,7320000000,,0.000355561001925,-0.000184851494851,-0.000154465175001,-7.24978743705e-10,-1.17841936209e-09,-2.14037901985e-11
7360000000,183,7360000000,,0.000315604615025,-0.000248513795668,-0.000155579531565,-8.88465134796e-10,-1.59716262438e-09,-2.51205983098e-11
7400000000,184,7400000000,,0.00027980649611,-0.000321593979606,-0.000156650421559,-0.000783082738053,-0.00203981576487,-2.76872069662e-05
7440000000,185,7440000000,,0.000238648499362,-0.000415954884375,-0.00015781642287,-0.0012283140095,-0.00253113498911,-3.00706706184e-05
7480000000,186,7480000000,,0.000189988073544,-0.000501861912198,-0.000158942129929,-0.0013603848638,-0.00193747261073,-2.84264733637e-05
7520000000,187,7520000000,,0.000139216223033,-0.000564215995837,-0.000160017167218,-8.61472615465e-10,-8.11221867458e-10,-1.85948253323e-11
7561000000,188,7561000000,,0.000104445920442,-0.000583132263273,-0.000160791852977,-1.7585569112e-10,9.67747201819e-11,-5.37272353343e-12
7601000000,189,7601000000,,7.76825327193e-05,-0.000552978715859,-0.000161549876793,-4.15746576055e-10,4.63519694849e-10,-9.52984045843e-12
7640000000,190,7640000000,,4.67053505417e-05,-0.000514819170348,-0.000162169264513,-7.04942715313e-10,9.50814982303e-10,-1.26339832693e-11
7680000000,191,7680000000,,-2.70899204224e-06,-0.000457038928289,-0.000162901284057,-0.00128250441048,0.00162080535665,-1.70431285369e-05
7720000000,192,7720000000,,-6.22182269581e-05,-0.000371048867237,-0.000163564458489,-0.00164174835663,0.00265073170885,-1.62904580066e-05
7761000000,193,7761000000,,-0.000129727559397,-0.000253893318586,-0.000164214739925,-0.00162844802253,0.00287186866626,-1.55145717144e-05
7800000000,194,7800000000,,-0.000187124416698,-0.000143363009556,-0.000164804092492,-0.00130963488482,0.00279295165092,-1.47082610056e-05
7842000000,195,7842000000,,-0.000233147031395,-3.82686266676e-05,-0.000165391829796,-0.000931460061111,0.00234662322327,-1.40459223985e-05
7883000000,196,7883000000,,-0.000265125418082,5.2867741033e-05,-0.000165950958035,-0.000657287018839,0.00209601363167,-1.32444547489e-05
7920000000,197,7920000000,,-0.000286938273348,0.000124101497931,-0.00016643149138,-0.000639600504655,0.00194406765513,-1.27833100123e-05
7960000000,198,7960000000,,-0.000306399888359,0.000189102865988,-0.000166868965607,-4.91514551282e-10,1.71232972246e-09,-1.15411413065e-11
8001000000,199,8001000000,,-0.000322181702359,0.000258828775259,-0.000167430640431,3.41973047102e-11,1.45387271666e-10,-2.94826988344e-12
8041000000,200,8041000000,,-0.000312614749419,0.000274032558082,-0.000167813821463,1.03509839589e-10,3.64027245847e-11,-2.37579660806e-12
8081000000,201,8081000000,,-0.00029383218498,0.000285424437607,-0.000168236059835,1.49885243106e-10,2.27157181953e-10,-4.16516821033e-12
8120000000,202,8120000000,,-0.000273540470516,0.000313741154969,-0.00016871583648,2.55602455868e-10,3.81769449387e-10,-5.6626699857e-12
8160000000,203,8160000000,,-0.000248319294769,0.00034538449836,-0.000169190621818,3.90056820176e-10,4.22841955894e-10,-6.38583283474e-12
8200000000,204,8200000000,,-0.000216620654101,0.000370488560293,-0.000169628154254,5.72293379353e-10,2.94382185295e-10,-6.65974957473e-12
8240000000,205,8240000000,,-0.000170666418853,0.000388086744351,-0.000170108280145,7.86371689987e-10,2.22336690725e-10,-7.46282029229e-12
8282000000,206,8282000000,,-0.000111178749648,0.000477665569633,-0.00017083073908,0.00145613017958,0.00548993749544,-2.55314898823e-05
8320000000,207,8320000000,,-5.46952105651e-05,0.000632601440884,-0.000171759194927,0.00200095633045,0.00866773817688,-5.5196644098e-05
8365000000,208,8365000000,,3.23517379002e-05,0.00101641647052,-0.000174155575223,0.00227512349375,0.00770727777854,-6.61780431983e-05
8401000000,209,8401000000,,0.000114311980724,0.000933990930207,-0.000176315021235,0.00153284764383,-0.0118816336617,-2.26244992518e-05
8443000000,210,8443000000,,0.000163844655617,-5.24280549143e-05,-0.000176563829882,0.000711245113052,-0.034358445555,1.95417487703e-05
8482000000,211,8482000000,,0.000182014628081,-0.00155285443179,-0.000176063957042,0.00037964238436,-0.0534102991223,7.5963148447e-06
8547000000,212,8547000000,,0.000190920050954,-0.00645270664245,-0.000176350818947,-7.70772239775e-05,-0.086639136076,-1.53075834533e-05
8578000000,213,8578000000,,0.000185526543646,-0.00929758697748,-0.000176920308149,-0.000247984804446,-0.0978184342384,-2.17556553253e-05
8600000000,214,8600000000,,0.000177323818207,-0.0116390716285,-0.000177402529516,-0.0004699335841,-0.118821308017,-2.12188770092e-05
8640000000,215,8640000000,,0.000156128997332,-0.0166079271585,-0.000178299946128,-0.000556477403734,-0.120731897652,-2.2202189939e-05
8680000000,216,8680000000,,0.000133791458211,-0.0215392094105,-0.0001791734976,-0.000578461389523,-0.131448745728,-2.27629025176e-05
8720000000,217,8720000000,,0.000109267057269,-0.0270280987024,-0.000180135772098,-0.00059848302044,-0.134618252516,-2.37680560531e-05
8760000000,218,8760000000,,8.63740060595e-05,-0.0326001979411,-0.000181096198503,-0.000576783437282,-0.143449187279,-2.19183566514e-05
8802000000,219,8802000000,,6.25817338005e-05,-0.0384546034038,-0.000181934097782,-0.000569667492528,-0.145856335759,-1.84429391084e-05
8840000000,220,8840000000,,4.25177640864e-05,-0.0440582260489,-0.000182617033715,-0.000498046341818,-0.146283403039,-1.73847856786e-05
8895000000,221,8895000000,,1.74988908839e-05,-0.0518853440881,-0.000183486248716,-0.000394945847802,-0.14243285358,-1.47828950503e-05
8920000000,222,8920000000,,7.92687205831e-06,-0.0556232221425,-0.000183816082426,-0.000350717862602,-0.143005177379,-1.06571396827e-05
8960000000,223,8960000000,,-3.72380873159e-06,-0.0607620663941,-0.000184187636478,-0.000277465849649,-0.138120487332,-9.42378574109e-06
9000000000,224,9000000000,,-1.4314746295e-05,-0.0664063692093,-0.000184609161806,-0.00022839938174,-0.120026901364,-1.07963596747e-05
9041000000,225,9041000000,,-2.0843317543e-05,-0.0702557265759,-0.000184969059774,-0.000167135935044,-0.113832317293,-1.10252331069e-05
9080000000,226,9080000000,,-2.66104998445e-05,-0.0751082375646,-0.00018543965416,-9.98319155769e-05,-0.100767157972,-1.0243394172e-05
9120000000,227,9120000000,,-2.91669039143e-05,-0.0789579153061,-0.000185833137948,-2.68539279205e-05,-0.0959359928966,-9.87466683e-06
9160000000,228,9160000000,,-2.94944693451e-05,-0.0827308818698,-0.000186263860087,1.34139263537e-05,-0.0854759812355,-1.0523277524e-05
9202000000,229,9202000000,,-2.70605833066e-05,-0.0860332474113,-0.000186632372788,9.54073329922e-05,-0.0814663991332,-9.40914560488e-06
9243000000,230,9243000000,,-2.2770389478e-05,-0.0889897421002,-0.000187014826224,0.000127582563437,-0.0725634545088,-1.00064389699e-05
9282000000,231,9282000000,,-1.64066150319e-05,-0.0920887291431,-0.000187495286809,0.000149935862282,-0.0633187294006,-1.1394718058e-05
9320000000,232,9320000000,,-1.0269059203e-05,-0.0942545086145,-0.000187909376109,0.000188834630535,-0.0555781833827,-1.02677195173e-05
9360000000,233,9360000000,,-2.17327624341e-06,-0.0963209941983,-0.000188339865417,0.000215332125663,-0.0465553887188,-1.06327761387e-05
9400000000,234,9400000000,,6.39942845737e-06,-0.0980967655778,-0.000188793972484,0.000204443567782,-0.0407769307494,-1.1429389815e-05
9440000000,235,9440000000,,1.41864293255e-05,-0.0995165780187,-0.000189241793123,0.00019702607824,-0.0336757898331,-1.21412822409e-05
9482000000,236,9482000000,,2.17100223381e-05,-0.100771658123,-0.000189738100744,0.000188379941392,-0.0283866357058,-1.18807856779e-05
9521000000,237,9521000000,,2.98757895507e-05,-0.101828821003,-0.000190238104551,0.000184046351933,-0.0213394034654,-1.14553013191e-05
9560000000,238,9560000000,,3.66147396562e-05,-0.102567985654,-0.000190678198123,0.000176981528057,-0.0172207672149,-1.14178292279e-05
9600000000,239,9600000000,,4.34532339568e-05,-0.103163532913,-0.000191145809367,0.000157777452841,-0.0123759415001,-1.13508504e-05
9640000000,240,9640000000,,4.93674378959e-05,-0.103579461575,-0.000191591272596,0.00014909679885,-0.00817362125963,-1.09883494588e-05
9680000000,241,9680000000,,5.50295299035e-05,-0.103821881115,-0.000192019637325,0.000133525725687,-0.00371850375086,-9.76357841864e-06
9720000000,242,9720000000,,6.01664141868e-05,-0.10390933603,-0.00019240596157,5.0832279358e-11,-3.68912622672e-10,-4.19039022231e-12
9760000000,243,9760000000,,6.34811585769e-05,-0.103896252811,-0.000192739884369,5.83698436807e-11,1.33769650912e-09,-7.54756153409e-12
9800000000,244,9800000000,,6.7115019192e-05,-0.10379293561,-0.000193159037735,8.53817837196e-05,0.00300957402214,-9.74482736638e-06
9840000000,245,9840000000,,7.16896247468e-05,-0.103608973324,-0.000193533604033,0.000125200749608,0.00547702470794,-8.84970359039e-06
9883000000,246,9883000000,,7.60959155741e-05,-0.103392474353,-0.000193850151845,0.000125398146338,0.00686505157501,-8.26082668937e-06
9920000000,247,9920000000,,8.11419740785e-05,-0.103067472577,-0.000194197506062,0.000114687507448,0.00827304739505,-7.69388225308e-06
9960000000,248,9960000000,,8.51082440931e-05,-0.102722488344,-0.000194508058485,8.44981477712e-05,0.00897881388664,-7.03104387867e-06
10000000000,249,10000000000,,8.80106454133e-05,-0.102360486984,-0.000194773136172,6.28223278909e-05,0.00953257922083,-6.42320310362e-06
10040000000,250,10040000000,,8.99104998098e-05,-0.101970553398,-0.000195021755644,3.36749944836e-05,0.00948382448405,-6.0120460148e-06
10080000000,251,10080000000,,9.09252048586e-05,-0.101591527462,-0.000195249493117,1.14428075904e-05,0.00905411224812,-5.71659393245e-06
10120000000,252,10120000000,,9.10250382731e-05,-0.101254120469,-0.000195459389943,-6.17981811502e-07,0.00885103736073,-5.35720255357e-06
10162000000,253,10162000000,,9.07959474716e-05,-0.100902639329,-0.000195673055714,-1.35227382998e-05,0.00827768538147,-4.93105562782e-06
10201000000,254,10201000000,,9.02016545297e-05,-0.100573055446,-0.000195859829546,-1.15403408927e-05,0.00837062392384,-4.20148126068e-06
10240000000,255,10240000000,,8.96173442015e-05,-0.100253067911,-0.00019602291286,-1.87750465557e-05,0.00770559022203,-3.82730058845e-06
10280000000,256,10280000000,,8.89550574357e-05,-0.0999407991767,-0.000196168708499,-1.15254006232e-05,0.00744144525379,-3.28741543854e-06
10320000000,257,10320000000,,8.82815511432e-05,-0.0996733605862,-0.00019628694281,-1.74095184775e-05,0.0068578789942,-2.81064490082e-06
10360000000,258,10360000000,,8.76858248375e-05,-0.0993993803859,-0.000196388020413,-1.14773047244e-05,0.00645802216604,-2.14215378946e-06
10402000000,259,10402000000,,8.7009226263e-05,-0.0991446003318,-0.000196465654881,-1.68172791746e-05,0.00581524753943,-1.51576205099e-06
10440000000,260,10440000000,,8.65077236085e-05,-0.0990147218108,-0.000196665598196,-7.9571733317e-13,-7.61523136217e-12,-6.58809107528e-13
10480000000,261,10480000000,,8.59371575643e-05,-0.0990266129375,-0.00019712455105,-4.24465679316e-06,-0.00344349909574,-1.87158129847e-05
10520000000,262,10520000000,,8.59075589688e-05,-0.0990421101451,-0.000197820176254,-9.23796764996e-14,1.92188539389e-12,-7.68305612273e-13
10560000000,263,10560000000,,8.58387356857e-05,-0.0987908542156,-0.000198511814233,5.35979415872e-06,0.0115418005735,-1.6343759853e-05
10600000000,264,10600000000,,8.60577711137e-05,-0.0980041623116,-0.000198953246581,2.14206033888e-06,0.0275977216661,-7.60345164963e-06
10640000000,265,10640000000,,8.60789514263e-05,-0.0964494943619,-0.000199046684429,4.08220012105e-06,0.0498427674174,2.72990405392e-06
10683000000,266,10683000000,,8.59259889694e-05,-0.0944787859917,-0.000198848734726,-1.50385603774e-05,0.0648411437869,8.3752147475e-06
10721000000,267,10721000000,,8.53205783642e-05,-0.0908136367798,-0.000198141366127,-1.32516706799e-05,0.0917424932122,1.91446542885e-05
10760000000,268,10760000000,,8.41853470774e-05,-0.0866977274418,-0.000197136876523,-3.64963088941e-05,0.110575981438,2.95158297376e-05
10800000000,269,10800000000,,8.26383693493e-05,-0.08201289922,-0.00019591068849,-4.77491848869e-05,0.125864252448,3.17007725243e-05
10840000000,270,10840000000,,8.02581344033e-05,-0.0767393484712,-0.000194652020582,-5.74518198846e-05,0.137471735477,3.50602385879e-05
10880000000,271,10880000000,,7.80026384746e-05,-0.0711871907115,-0.000193275962374,-6.53808383504e-05,0.146126627922,4.1982424591e-05
10920000000,272,10920000000,,7.52595515223e-05,-0.0652890652418,-0.000191687053302,-6.35648975731e-05,0.151299372315,3.73873699573e-05
10960000000,273,10960000000,,7.26523867343e-05,-0.0592698417604,-0.000190249891602,-7.07606595824e-05,0.147218719125,3.67867578461e-05
11005000000,274,11005000000,,7.0208508987e-05,-0.0537851750851,-0.000188992053154,-5.97143407504e-05,0.149536266923,3.1669238524e-05
11040000000,275,11040000000,,6.77049538353e-05,-0.0476216673851,-0.000187622470548,-5.90326162637e-05,0.143746986985,3.5665500036e-05
11080000000,276,11080000000,,6.56099946355e-05,-0.0417063571513,-0.000186214630958,-4.44846082246e-05,0.142894595861,3.24340035149e-05
11120000000,277,11120000000,,6.36006952845e-05,-0.0361154563725,-0.00018493598327,-4.60910960101e-05,0.134044617414,3.40434053214e-05
11160000000,278,11160000000,,6.20507198619e-05,-0.030937531963,-0.000183634110726,-3.57000535587e-05,0.13047850132,3.49807851308e-05
11200000000,279,11200000000,,6.02699728915e-05,-0.0260532479733,-0.000182328090887,-4.71413986816e-05,0.117460697889,3.08259659505e-05
11240000000,280,11240000000,,5.84105473536e-05,-0.0215356126428,-0.000181179435458,-5.28309865331e-05,0.106244765222,2.67705290753e-05
11281000000,281,11281000000,,5.59154032089e-05,-0.0173739045858,-0.000180095303222,-5.58522333449e-05,0.0956566780806,2.54563001363e-05
11320000000,282,11320000000,,5.35881335963e-05,-0.0138471517712,-0.000179107912118,-6.90783490427e-05,0.0833077058196,2.50181474257e-05
11361000000,283,11361000000,,4.95737258461e-05,-0.0106665827334,-0.000178108006367,-0.000130812724819,0.0760594308376,2.40932749875e-05
11400000000,284,11400000000,,4.19430034526e-05,-0.00783230923116,-0.00017699644377,-0.000268138246611,0.0655447617173,3.36813973263e-05
11444000000,285,11444000000,,3.01136333292e-05,-0.00508318562061,-0.000175547465915,-0.000286003225483,0.0582496263087,3.32824238285e-05
11482000000,286,11482000000,,2.03021627385e-05,-0.00320106348954,-0.000174421191332,-0.000264120375505,0.0504204854369,3.1285406294e-05
11520000000,287,11520000000,,1.10521832539e-05,-0.00125654914882,-0.000173213076778,-0.000191744868062,0.0440329760313,2.80217300315e-05
11560000000,288,11560000000,,5.64432093597e-06,7.431548147e-05,-0.000172336847754,-0.000137888695463,0.0376110002398,2.59793887381e-05
11601000000,289,11601000000,,1.13528585644e-06,0.00169383839238,-0.000171137580764,-6.32496958133e-05,0.0307589974254,2.52114987234e-05
11643000000,290,11643000000,,-1.63608689263e-07,0.00275810947642,-0.000170190003701,-1.10339342427e-05,0.0251244567335,2.49139466177e-05
11681000000,291,11681000000,,5.28303942815e-08,0.003587837331,-0.000169251899933,1.62390679179e-05,0.0206966754049,2.7070300348e-05
11720000000,292,11720000000,,1.86644797395e-06,0.004330185242,-0.00016814704577,6.46113912808e-05,0.0148624451831,2.54556834989e-05
11760000000,293,11760000000,,4.89833428219e-06,0.00473015848547,-0.000167291829712,7.66885932535e-05,0.00518218427896,1.65971505339e-05
11800000000,294,11800000000,,8.23070877232e-06,0.00478660827503,-0.000166832658579,1.74106475764e-11,7.93390492193e-11,2.02631162717e-12
11840000000,295,11840000000,,1.12105972221e-05,0.0048597715795,-0.000166409241501,5.89323026361e-05,0.00234588305466,8.37870356918e-06
11880000000,296,11880000000,,1.39906851473e-05,0.00516901956871,-0.000165907520568,9.52384216362e-05,0.0116057991982,1.29747340907e-05
11920000000,297,11920000000,,1.78987083927e-05,0.00593876419589,-0.000165193225257,9.40741665545e-05,0.026458228007,2.15745130845e-05
11960000000,298,11960000000,,2.13266775972e-05,0.00735848164186,-0.000164155731909,7.99184490461e-05,0.045413095504,3.08573289658e-05
12000000000,299,12000000000,,2.36627183767e-05,0.00947578251362,-0.000162755080964,4.4112715841e-05,0.0640649050474,4.00219396397e-05
12040000000,300,12040000000,,2.48036521953e-05,0.0125416330993,-0.00016098128981,4.57904206996e-06,0.08339972049,4.68964026368e-05
12080000000,301,12080000000,,2.41171510424e-05,0.0162862036377,-0.000158971437486,-3.18331185554e-05,0.10275273025,5.38718013559e-05
12120000000,302,12120000000,,2.19733847189e-05,0.0207147095352,-0.000156668495038,-7.70241604187e-05,0.114201948047,5.94765151618e-05
12160000000,303,12160000000,,1.93049963855e-05,0.0251715090126,-0.000154497189214,-7.28674494894e-05,0.128032252192,5.98746955802e-05
12201000000,304,12201000000,,1.71371666511e-05,0.0309682469815,-0.000151664004079,-4.44414399681e-05,0.131526008248,6.33545714663e-05
12240000000,305,12240000000,,1.54908484546e-05,0.0361542962492,-0.000149269166286,-4.47005113529e-05,0.139749124646,6.21965591563e-05
12280000000,306,12280000000,,1.32655295602e-05,0.0415123701096,-0.000146894235513,-7.10647800588e-05,0.138088524342,6.51286391076e-05
12320000000,307,12320000000,,9.72366069618e-06,0.0474204346538,-0.000144213496242,-9.39136589295e-05,0.140259101987,6.14379678154e-05
12360000000,308,12360000000,,5.34954233444e-06,0.0527124479413,-0.000141843775054,-0.000124573649373,0.135970056057,6.36186814518e-05
12402000000,309,12402000000,,9.49756824298e-08,0.0581306740642,-0.000139372321428,-0.000145868805703,0.132421910763,6.09940361755e-05
12440000000,310,12440000000,,-6.27513873042e-06,0.0633078813553,-0.000136969247251,-0.00015851133503,0.12590290606,6.02126310696e-05
12480000000,311,12480000000,,-1.26786671899e-05,0.068008325994,-0.000134664238431,-0.000181154391612,0.118500962853,6.09478884144e-05
12520000000,312,12520000000,,-1.98963825824e-05,0.0726253390312,-0.000132289540488,-0.000170957078808,0.109544798732,5.50898985239e-05
12560000000,313,12560000000,,-2.6717025321e-05,0.0769867822528,-0.00013000513718,-0.000155174828251,0.0962483435869,5.32977574039e-05
12600000000,314,12600000000,,-3.18914026138e-05,0.0806221067905,-0.000127997889649,-0.000114350907097,0.0900806486607,4.95110107295e-05
12642000000,315,12642000000,,-3.59239347745e-05,0.0838416963816,-0.000126099243062,-0.000101707431895,0.0798575133085,5.10055760969e-05
12680000000,316,12680000000,,-3.96450668632e-05,0.0869321078062,-0.000124060054077,-8.98903235793e-05,0.0736200511456,5.04778508912e-05
12725000000,317,12725000000,,-4.4049204007e-05,0.0900448784232,-0.000121693497931,-9.63355923886e-05,0.0636332631111,5.24530987605e-05
12761000000,318,12761000000,,-4.75654451293e-05,0.0922911763191,-0.000119749325677,-0.000100403573015,0.0569295994937,5.28916498297e-05
12801000000,319,12801000000,,-5.1385108236e-05,0.0941233858466,-0.000117888288514,-0.000109406741103,0.0495391599834,5.34198297828e-05
12840000000,320,12840000000,,-5.59710642847e-05,0.0961565971375,-0.000115532580821,-0.000114014459541,0.0413333252072,5.34625141881e-05
12880000000,321,12880000000,,-6.04722990829e-05,0.0976218506694,-0.000113448033517,-0.000115527443995,0.0346404463053,5.33247148269e-05
12920000000,322,12920000000,,-6.49623689242e-05,0.098891094327,-0.000111301676952,-0.00011387802806,0.0283354856074,5.39298634976e-05
12960000000,323,12960000000,,-6.90599699738e-05,0.0999436527491,-0.000109133485239,-9.21921237023e-05,0.0245386417955,5.44800641364e-05
13000000000,324,13000000000,,-7.28545273887e-05,0.10076777637,-0.000107015257527,-9.89533655229e-05,0.0184664390981,5.44643298781e-05
13040000000,325,13040000000,,-7.65094446251e-05,0.101469583809,-0.000104717510112,-7.83822615631e-05,0.0145284635946,5.46980481886e-05
13081000000,326,13081000000,,-7.978217036e-05,0.101970113814,-0.000102472717117,-7.80513946665e-05,0.0101216863841,5.46623959963e-05
13125000000,327,13125000000,,-8.26115283417e-05,0.10235453397,-0.000100053010101,-5.71156815568e-05,0.00727476831526,5.52477904421e-05
13160000000,328,13160000000,,-8.45321847009e-05,0.102550715208,-9.8226875707e-05,-5.7082852436e-05,0.00477033993229,5.54629150429e-05
13200000000,329,13200000000,,-8.67909038789e-05,0.10266777128,-9.59617973422e-05,-4.28002737418e-11,1.27778299053e-09,4.42399311629e-11
13240000000,330,13240000000,,-8.84080509422e-05,0.102676689625,-9.37861186685e-05,-9.33843453954e-12,-1.84693441097e-10,1.65753990394e-11
13280000000,331,13280000000,,-8.95150951692e-05,0.102631852031,-9.15951241041e-05,-2.78244129126e-11,-8.62352911302e-10,3.66394553586e-11
13320000000,332,13320000000,,-9.14032716537e-05,0.102565571666,-8.94558397704e-05,-5.15790270583e-05,-0.0022529240232,5.68264622416e-05
13360000000,333,13360000000,,-9.38651282922e-05,0.102420471609,-8.70160583872e-05,-6.88410946168e-05,-0.00442663952708,5.65899172216e-05
13400000000,334,13400000000,,-9.6406249213e-05,0.10220913589,-8.48100753501e-05,-5.76074889977e-05,-0.00624406011775,5.66064336454e-05
13444000000,335,13444000000,,-9.85322476481e-05,0.101949252188,-8.26096220408e-05,-5.21078109159e-05,-0.00710269482806,5.62866407563e-05
13482000000,336,13482000000,,-0.000100237564766,0.10163629055,-8.02991926321e-05,-2.84686757368e-05,-0.00787273049355,5.63743924431e-05
13521000000,337,13521000000,,-0.000101270015875,0.101319283247,-7.80555710662e-05,-1.87424739124e-05,-0.00794425234199,5.59887048439e-05
13560000000,338,13560000000,,-0.000101485857158,0.101001247764,-7.58176029194e-05,2.35082006839e-06,-0.00780710065737,5.57792445761e-05
13600000000,339,13600000000,,-0.000101621990325,0.100686274469,-7.35969661037e-05,1.00961619864e-06,-0.00798538513482,5.53324971406e-05
13640000000,340,13640000000,,-0.000101244702819,0.100370451808,-7.13898480171e-05,1.00722072602e-05,-0.00758037855849,5.48988755327e-05
13680000000,341,13680000000,,-0.000100758086774,0.100076384842,-6.92000976414e-05,1.8768641894e-05,-0.00734598422423,5.45929397049e-05
13720000000,342,13720000000,,-9.98359755613e-05,0.0997780635953,-6.69200962875e-05,1.91101062228e-05,-0.00669893203303,5.39962129551e-05
13762000000,343,13762000000,,-9.89526888588e-05,0.0995143651962,-6.47676060908e-05,2.75110487564e-05,-0.00648145610467,5.3663388826e-05
13800000000,344,13800000000,,-9.79744436336e-05,0.0993864312768,-6.26290420769e-05,1.05784868712e-11,-5.12487163817e-10,2.82596515633e-11
13840000000,345,13840000000,,-9.73052592599e-05,0.0994189605117,-6.04005435889e-05,1.00142680606e-11,7.24802884378e-10,3.49603922201e-11
13883000000,346,13883000000,,-9.69229295151e-05,0.099361769855,-5.81995300308e-05,5.67370307181e-06,-0.00418679974973,5.81577187404e-05
13929000000,347,13929000000,,-9.64531718637e-05,0.0989062637091,-5.58402934985e-05,1.39614830914e-05,-0.0157538242638,5.80528394494e-05
13960000000,348,13960000000,,-9.60758334259e-05,0.0979479178786,-5.35456529178e-05,9.07016692508e-06,-0.0323809087276,5.70753581997e-05
14002000000,349,14002000000,,-9.55165742198e-05,0.0960637032986,-5.10170539201e-05,5.43275700693e-06,-0.0516463778913,5.8378540416e-05
14048000000,350,14048000000,,-9.54292918323e-05,0.0938337668777,-4.88565056003e-05,-1.48691484014e-07,-0.0713918432593,5.87394024478e-05
14084000000,351,14084000000,,-9.48233428062e-05,0.0902839303017,-4.62849566247e-05,1.10285618575e-05,-0.0868135020137,5.82665379625e-05
14120000000,352,14120000000,,-9.46481959545e-05,0.0868702977896,-4.41942938778e-05,1.51417798406e-05,-0.10628438741,6.04257365922e-05
14160000000,353,14160000000,,-9.36403157539e-05,0.0821644589305,-4.16871007474e-05,2.28437402257e-05,-0.116004519165,5.93173645029e-05
14202000000,354,14202000000,,-9.22526669456e-05,0.077082067728,-3.92479705624e-05,4.96285902045e-05,-0.130392611027,5.95973469899e-05
14242000000,355,14242000000,,-9.05226261239e-05,0.071977570653,-3.70026464225e-05,4.41160373157e-05,-0.13986556232,5.87449612794e-05
14284000000,356,14284000000,,-8.85702902451e-05,0.0665901973844,-3.48186040355e-05,6.11934738117e-05,-0.150110974908,5.91772623011e-05
14320000000,357,14320000000,,-8.59724823385e-05,0.0600023493171,-3.22576270264e-05,5.61584274692e-05,-0.151377618313,5.79501975153e-05
14360000000,358,14360000000,,-8.33690501167e-05,0.0539916455746,-3.00006649923e-05,6.88440268277e-05,-0.152642086148,5.68473187741e-05
14401000000,359,14401000000,,-8.07532051113e-05,0.0480461977422,-2.77412927971e-05,6.04671040492e-05,-0.15001489222,5.61933302379e-05
14441000000,360,14441000000,,-7.77218665462e-05,0.0421175956726,-2.55232644122e-05,7.84178700997e-05,-0.141785353422,5.41554836673e-05
14482000000,361,14482000000,,-7.51113548176e-05,0.0367259606719,-2.34169310716e-05,8.0346755567e-05,-0.137167692184,5.37615123903e-05
14520000000,362,14520000000,,-7.17721341061e-05,0.0312975496054,-2.12557079067e-05,7.11597094778e-05,-0.126263946295,5.1884642744e-05
14564000000,363,14564000000,,-6.86525090714e-05,0.0257367864251,-1.89553538803e-05,7.26041689632e-05,-0.119836859405,5.02677430632e-05
14600000000,364,14600000000,,-6.62960374029e-05,0.0216378662735,-1.71829469764e-05,5.81459244131e-05,-0.109213382006,4.87559482281e-05
14640000000,365,14640000000,,-6.42800732749e-05,0.0179218072444,-1.55006655405e-05,6.40746438876e-05,-0.102641880512,4.75497508887e-05
14680000000,366,14680000000,,-6.16360775894e-05,0.0135598471388,-1.33599705805e-05,5.26716139575e-05,-0.0893441215158,4.59533112007e-05
14720000000,367,14720000000,,-5.94353514316e-05,0.0103113148361,-1.16375113066e-05,5.79552179261e-05,-0.080504797399,4.43873359472e-05
14760000000,368,14760000000,,-5.68955292692e-05,0.00734778726473,-9.87633848126e-06,8.89189832378e-05,-0.070489294827,4.40056574007e-05
14802000000,369,14802000000,,-5.08388948219e-05,0.00469238497317,-8.06393836683e-06,0.000230426900089,-0.0607754029334,4.82635732624e-05
14840000000,370,14840000000,,-4.09682616009e-05,0.00245701125823,-6.13446763964e-06,0.0002646787907,-0.0527426972985,4.84064148623e-05
14880000000,371,14880000000,,-3.05833382299e-05,0.000514228770044,-4.25448070018e-06,0.000242667854764,-0.0434421189129,4.57449241367e-05
14920000000,372,14920000000,,-2.20824313146e-05,-0.00109455280472,-2.46623312705e-06,0.00018606390222,-0.0370744466782,4.3925963837e-05
14960000000,373,14960000000,,-1.5854886442e-05,-0.00242578610778,-7.57925022299e-07,0.000118681542517,-0.0295005235821,4.17460287281e-05
15000000000,374,15000000000,,-1.20510285342e-05,-0.00353425880894,9.34332945235e-07,6.35831893305e-05,-0.0238562244922,4.07768893638e-05
15040000000,375,15040000000,,-1.0759925317e-05,-0.00433719903231,2.50728271567e-06,-2.46690001404e-06,-0.0175113733858,3.98319571104e-05
15081000000,376,15081000000,,-1.13015576062e-05,-0.00494413077831,4.05645687351e-06,-2.35488350881e-05,-0.0135511336848,3.95614661102e-05
15120000000,377,15120000000,,-1.2737693396e-05,-0.00539894448593,5.63791218156e-06,-4.17782794102e-05,-0.00964289531112,3.95634888264e-05
15163000000,378,15163000000,,-1.48355366036e-05,-0.00570655195042,7.24879328118e-06,-6.07940019108e-05,-0.0055040102452,3.90264394809e-05
15200000000,379,15200000000,,-1.74573924596e-05,-0.0058635934256,8.84811561264e-06,-6.25751417829e-05,-0.00216265465133,3.8914688048e-05
15242000000,380,15242000000,,-1.96056826098e-05,-0.00590021861717,1.03647880678e-05,-5.57477198085e-12,1.88455084871e-11,3.87505695934e-12
15280000000,381,15280000000,,-2.09783629543e-05,-0.00587073015049,1.12520883704e-05,-5.34667171648e-11,1.81720916093e-09,3.67274162472e-11
15321000000,382,15321000000,,-2.29946763284e-05,-0.00568540580571,1.33349285534e-05,-3.98984229832e-05,0.00393871031702,3.82577127311e-05
15367000000,383,15367000000,,-2.47483403655e-05,-0.00545439170673,1.49659008457e-05,-4.37009366578e-05,0.00707604549825,3.75411182176e-05
15400000000,384,15400000000,,-2.63486108452e-05,-0.00516433687881,1.63837285072e-05,-4.35472247773e-05,0.00861948635429,3.70362686226e-05
15440000000,385,15440000000,,-2.76723367278e-05,-0.00476683070883,1.79694397957e-05,-1.7980715711e-05,0.00974891893566,3.66925887647e-05
15482000000,386,15482000000,,-2.81296470348e-05,-0.00436702230945,1.94654603547e-05,-1.24372695609e-06,0.00979887135327,3.63215185644e-05
15520000000,387,15520000000,,-2.76253649645e-05,-0.00398418167606,2.0876972485e-05,2.31344165513e-05,0.00965847820044,3.60208905477e-05
15560000000,388,15560000000,,-2.65567232418e-05,-0.00363220600411,2.22383678192e-05,3.86585052183e-05,0.00920596905053,3.56585842383e-05
15601000000,389,15601000000,,-2.43515114562e-05,-0.00324411783367,2.3764458092e-05,5.54419202672e-05,0.00858028046787,3.52675560862e-05
15640000000,390,15640000000,,-2.20185447688e-05,-0.00291980383918,2.51321453106e-05,6.90032466082e-05,0.00827846396714,3.4910881368e-05
15680000000,391,15680000000,,-1.90846749319e-05,-0.00260681775399,2.64862010226e-05,7.58448368288e-05,0.00762730883434,3.44838808815e-05
15722000000,392,15722000000,,-1.59940755111e-05,-0.00230697146617,2.78581501334e-05,8.23607551865e-05,0.0073846061714,3.41627019225e-05
15761000000,393,15761000000,,-1.27136954688e-05,-0.00203108694404,2.91808883048e-05,8.23346199468e-05,0.00678374944255,3.36942430295e-05
15800000000,394,15800000000,,-9.34431136557e-06,-0.00175774283707,3.05547291646e-05,8.53053497849e-05,0.00652170879766,3.33461757691e-05
15840000000,395,15840000000,,-6.08342452324e-06,-0.00150285346899,3.19109276461e-05,7.23910998204e-05,0.00595643045381,3.28598507622e-05
15882000000,396,15882000000,,-3.41422742167e-06,-0.00128166761715,3.31535193254e-05,6.9308829552e-05,0.0056225694716,3.25116234308e-05
15920000000,397,15920000000,,-9.54938627729e-07,-0.00106519833207,3.44760774169e-05,5.47072158952e-05,0.00509815476835,3.20508297591e-05
15979000000,398,15979000000,,2.03682975553e-06,-0.000782878487371,3.63501458196e-05,4.00587268814e-05,0.00435349391773,3.14352400892e-05
16000000000,399,16000000000,,2.73223236036e-06,-0.000701582583133,3.69454719475e-05,3.50239024556e-05,0.00422231899574,3.12483607559e-05
16040000000,400,16040000000,,4.12397776017e-06,-0.000529362529051,3.82804755645e-05,2.44761104113e-05,0.00368878338486,3.0776605854e-05
16082000000,401,16082000000,,5.00213855048e-06,-0.000385574821848,3.95341885451e-05,2.13560069824e-05,0.00335913873278,3.04252480419e-05
16120000000,402,16120000000,,5.77402806812e-06,-0.000263633963186,4.0711111069e-05,1.29817990455e-05,0.00287955836393,2.99475614156e-05
16160000000,403,16160000000,,6.23522919341e-06,-0.000156977504957,4.18720228481e-05,1.40116526381e-05,0.00259704468772,2.96296293527e-05
16200000000,404,16200000000,,6.61783224132e-06,-6.39203935862e-05,4.30169893662e-05,3.94306607632e-06,0.00219528563321,2.9149621696e-05
16240000000,405,16240000000,,6.7746809691e-06,1.99845726456e-05,4.42044765805e-05,5.8399279336e-12,1.78448578136e-09,2.71874450036e-11
16280000000,406,16280000000,,6.98358689988e-06,8.483241254e-05,4.53694847238e-05,4.01795176991e-12,4.88509177554e-10,1.38810482206e-11
16320000000,407,16320000000,,7.71255145082e-06,0.000125288002891,4.64832701255e-05,1.28645817957e-11,5.56956203379e-10,1.45421730213e-11
16360000000,408,16360000000,,9.07441790332e-06,0.00016947145923,4.7521214583e-05,2.68556010763e-11,9.92472992678e-10,1.91067578426e-11
16400000000,409,16400000000,,1.06989909909e-05,0.000232269463595,4.8625326599e-05,2.25835686957e-11,1.46697443082e-09,2.28481851494e-11
16444000000,410,16444000000,,1.1532825738e-05,0.000314233853715,4.98178815178e-05,1.68805056738e-11,1.79818016033e-09,2.50270273255e-11
16480000000,411,16480000000,,1.22919391288e-05,0.000380576617317,5.07622717123e-05,1.44506481434e-11,1.54513302153e-09,2.29223150877e-11
16522000000,412,16522000000,,1.28439451146e-05,0.000448145583505,5.17492590006e-05,1.28522262277e-11,1.59034241332e-09,2.31100208414e-11
16560000000,413,16560000000,,1.32709965328e-05,0.000518960470799,5.28295640834e-05,1.07088079723e-12,1.33061095475e-09,2.08584295669e-11
16600000000,414,16600000000,,1.32642353492e-05,0.00058377883397,5.38486747246e-05,9.83548203819e-13,1.23767651683e-09,1.99779134208e-11
16640000000,415,16640000000,,1.28499459606e-05,0.000639601610601,5.48566931684e-05,-1.14911335655e-11,7.39519279147e-10,1.52485957888e-11
16680000000,416,16680000000,,1.20695776786e-05,0.000680757395457,5.58307219762e-05,-1.0467697889e-11,4.48367482031e-10,1.1772303618e-11
16722000000,417,16722000000,,1.05415292637e-05,0.000714505382348,5.68927680433e-05,-1.17454527007e-11,1.55060297935e-10,6.86027059812e-12
16760000000,418,16760000000,,8.93516244105e-06,0.000725852674805,5.77989958401e-05,-2.12088333007e-12,2.57440249674e-12,1.02557914418e-12
16800000000,419,16800000000,,6.48126297165e-06,0.000718531024177,5.87675349379e-05,-1.44666171403e-11,-9.78787814687e-11,5.36641868096e-12
16840000000,420,16840000000,,3.66262725038e-06,0.000688794767484,5.97521939198e-05,-3.96266387759e-11,-4.86363560537e-10,1.17779657555e-11
16881000000,421,16881000000,,4.10926219274e-07,0.000640666577965,6.06551293458e-05,-6.7244279589e-11,-1.234894631e-09,1.86387676127e-11
16920000000,422,16920000000,,-3.44370300809e-06,0.000561983557418,6.16446632193e-05,-0.00010293462401,-0.00210532895289,2.34244944295e-05
16960000000,423,16960000000,,-6.42928944217e-06,0.000450986466603,6.25570246484e-05,-3.77578471671e-05,-0.00341191398911,2.33926075452e-05
17000000000,424,17000000000,,-2.93287325803e-06,0.000297279300867,6.34999669273e-05,0.000126921731862,-0.00370691972785,2.28588360187e-05
17040000000,425,17040000000,,2.91937567454e-06,0.000154789508088,6.43896855763e-05,0.000179640075658,-0.00356397451833,2.27537493629e-05
17082000000,426,17082000000,,9.50854700932e-06,3.07768750645e-05,6.5248037572e-05,0.000162152937264,-0.00301059917547,2.24726009037e-05
17120000000,427,17120000000,,1.55879824888e-05,-8.5936706455e-05,6.6208995122e-05,0.000118063413538,-0.002374434378,2.21337450057e-05
17160000000,428,17160000000,,1.91667622857e-05,-0.000167051199242,6.70873632771e-05,4.9684274056e-11,-1.53662682578e-09,1.90906422615e-11
17200000000,429,17200000000,,1.99441255972e-05,-0.000212050130358,6.78936485201e-05,-5.06668491884e-12,-3.09918701813e-10,8.54414195645e-12
17240000000,430,17240000000,,1.91544731933e-05,-0.000247892079642,6.87941428623e-05,-9.06196385292e-12,-4.35904895513e-10,9.92555256735e-12
17280000000,431,17280000000,,1.80554270628e-05,-0.000285048037767,6.96158313076e-05,-2.06399359409e-11,-4.51608556107e-10,9.91996155358e-12
17320000000,432,17320000000,,1.58097209351e-05,-0.000325934874127,7.04873236828e-05,-2.86405118372e-11,-4.83446782606e-10,1.01840766722e-11
17362000000,433,17362000000,,1.2824296391e-05,-0.000364754116163,7.13285990059e-05,-3.92488611056e-11,-3.97314459111e-10,9.12344852444e-12
17402000000,434,17402000000,,9.37066215556e-06,-0.000396795134293,7.2081325925e-05,-4.20122478473e-11,-3.58966328884e-10,8.62648147359e-12
17440000000,435,17440000000,,4.72487454317e-06,-0.000427094229963,7.28862942196e-05,-4.56885917988e-11,-2.3801713378e-10,6.96984961066e-12
17480000000,436,17480000000,,-7.92608716438e-07,-0.000451781437732,7.37046066206e-05,-3.96103844169e-11,-1.48199369443e-10,5.5010080692e-12
17520000000,437,17520000000,,-7.33917522666e-06,-0.000468248850666,7.45127399568e-05,-2.98230988516e-11,-5.30026265932e-11,3.41891597498e-12
17560000000,438,17560000000,,-1.40622123581e-05,-0.000475168344565,7.5275063864e-05,-1.74828155425e-11,-5.74454676536e-12,1.85084911807e-12
17600000000,439,17600000000,,-2.18357399717e-05,-0.000471266510431,7.6046664617e-05,-3.10662502667e-11,3.89949392221e-11,3.04156482986e-12
