%time,field.header.seq,field.header.stamp,field.header.frame_id,field.angular_velocities0,field.angular_velocities1,field.angular_velocities2,field.angular_velocities3
112000000,0,112000000,,427.0,427.0,427.0,427.0
240000000,1,240000000,,777.068824425,776.930725194,777.069348044,776.931102338
320000000,2,320000000,,535.194372804,535.279474108,535.194902302,535.279159866
441000000,3,441000000,,635.591285463,635.596212699,635.591798574,635.596037017
520000000,4,520000000,,648.42609095,648.426153512,648.426657384,648.425992688
602000000,5,602000000,,593.30532919,593.305412243,593.305933452,593.305247132
720000000,6,720000000,,436.216696118,436.216781408,436.217273799,436.216591787
840000000,7,840000000,,272.164403849,272.164473595,272.164913353,272.164252003
921000000,8,921000000,,358.514548443,358.514581466,358.514931486,358.514319266
1040000000,9,1040000000,,355.958882696,355.958850135,355.959080554,355.958539254
1121000000,10,1121000000,,364.431232159,364.431133259,364.431254345,364.43078441
1201000000,11,1201000000,,514.205191676,514.205023317,514.20504738,514.204647647
1321000000,12,1321000000,,439.967883463,439.967647956,439.967608835,439.967274581
1440000000,13,1440000000,,409.951013085,409.950743375,409.950713811,409.950405172
1520000000,14,1520000000,,383.119324198,383.11906183,383.11911894,383.118785433
1640000000,15,1640000000,,346.260294389,346.260107999,346.260366526,346.25994141
1722000000,16,1722000000,,429.758775956,429.758700535,429.759208906,429.75864921
1843000000,17,1843000000,,419.851432731,419.851551644,419.852414771,419.851640178
1922000000,18,1922000000,,426.505992335,426.506306598,426.507477846,426.50649803
2041000000,19,2041000000,,421.3944679,421.389590199,421.395991425,421.389618985
2120000000,20,2120000000,,409.826050637,409.824778004,409.827424271,409.824623516
2240000000,21,2240000000,,419.35277335,419.356711217,419.354030721,419.35639977
2320000000,22,2320000000,,402.487956568,402.488404991,402.489047567,402.487942131
2440000000,23,2440000000,,436.597585059,436.598009659,436.59847785,436.597408417
2522000000,24,2522000000,,441.494302667,441.494661159,441.49494699,441.493971589
2641000000,25,2641000000,,406.862277132,406.862454353,406.862504728,406.861734471
2720000000,26,2720000000,,436.045430134,436.045385438,436.045232257,436.044723091
2801000000,27,2801000000,,406.056358001,406.056054444,406.055764007,406.055508172
2920000000,28,2920000000,,439.5068979,439.489522823,439.507326501,439.489489651
3000000000,29,3000000000,,428.001377249,427.996807596,428.002149713,427.997036747
3120000000,30,3120000000,,442.705169793,442.715306263,442.706105485,442.715885524
3241000000,31,3241000000,,442.4259625,442.41285057,442.426923886,442.413123348
3322000000,32,3322000000,,433.269947514,433.266025484,433.270880572,433.265889164
3442000000,33,3442000000,,408.438868341,408.447928367,408.439868287,408.447639729
3520000000,34,3520000000,,422.310878677,422.311185859,422.311905779,422.310649367
3642000000,35,3642000000,,425.674158572,425.674625474,425.675194283,425.673779667
3720000000,36,3720000000,,429.127654613,429.128234892,429.128678596,429.127159613
3840000000,37,3840000000,,436.660875796,436.64978559,436.66183205,436.648727091
3921000000,38,3921000000,,440.249197379,440.245566393,440.250076217,440.244868854
4045000000,39,4045000000,,433.310612663,433.318728151,433.311417541,433.318098201
4120000000,40,4120000000,,430.865232082,430.865292326,430.865979904,430.864975296
4242000000,41,4242000000,,427.872203852,427.872108944,427.872916892,427.872059964
4321000000,42,4321000000,,427.460065632,427.459880202,427.460791384,427.460005223
4440000000,43,4440000000,,424.493635488,424.482730814,424.494600248,424.482445553
4520000000,44,4520000000,,429.318207161,429.326086107,429.319352412,429.32538949
4641000000,45,4641000000,,438.619243708,438.619818991,438.620571539,438.618874707
4720000000,46,4720000000,,441.840662483,441.841434158,441.842129028,441.840226097
4840000000,47,4840000000,,433.823770018,433.824726384,433.825321168,433.823246601
4920000000,48,4920000000,,422.886053581,422.874419398,422.887278135,422.873221847
5040000000,49,5040000000,,424.763113651,424.771591613,424.764129031,424.770569276
5121000000,50,5121000000,,431.002594633,431.002877759,431.003400253,431.002060735
5240000000,51,5240000000,,431.533945707,431.534045182,431.534583413,431.533432024
5320000000,52,5320000000,,439.928511039,439.928456956,439.929045849,439.928048565
5442000000,53,5442000000,,432.368563006,432.368372233,432.369089217,432.368218493
5521000000,54,5521000000,,442.379067804,442.366941206,442.379694697,442.366979062
5640000000,55,5640000000,,428.493616673,428.489319336,428.494801278,428.489054586
5720000000,56,5720000000,,422.094243286,422.102869957,422.095728532,422.102624134
5840000000,57,5840000000,,419.132054973,419.132535557,419.133890922,419.132112711
5920000000,58,5920000000,,434.503798218,434.491666445,434.505386082,434.490819336
6044000000,59,6044000000,,441.499169935,441.508115268,441.500625162,441.506948421
6121000000,60,6121000000,,435.727479588,435.728198759,435.728787983,435.726746679
6241000000,61,6241000000,,433.959839735,433.948579957,433.960803405,433.947363351
6320000000,62,6320000000,,423.550698861,423.547137708,423.551436111,423.546261188
6400000000,63,6400000000,,429.724915929,429.732627604,429.725454067,429.731821415
6529000000,64,6529000000,,425.409968006,425.409729546,425.410298233,425.409244558
6600000000,65,6600000000,,436.721687612,436.721245062,436.721924724,436.721057697
6722000000,66,6722000000,,440.88166369,440.868553975,440.882470409,440.868534209
6840000000,67,6840000000,,426.758586108,426.766879748,426.759759749,426.766965298
6920000000,68,6920000000,,439.54085709,439.540820726,439.542399339,439.54096854
7040000000,69,7040000000,,429.550639726,429.538309441,429.552226472,429.538028315
7120000000,70,7120000000,,429.060212501,429.056552202,429.061725467,429.055838824
7242000000,71,7242000000,,420.156525215,420.165157294,420.158248922,420.164242211
7320000000,72,7320000000,,428.045654893,428.046312871,428.047405348,428.045152484
7440000000,73,7440000000,,440.386954051,440.375089383,440.388235499,440.373551922
7520000000,74,7520000000,,439.733445688,439.742088414,439.734084919,439.740414876
7640000000,75,7640000000,,429.693917185,429.694175162,429.694039265,429.692206589
7720000000,76,7720000000,,427.972785487,427.965921414,427.972822628,427.964011649
7841000000,77,7841000000,,418.54433602,418.542452182,418.544555368,418.540764508
7920000000,78,7920000000,,440.648248922,440.652406315,440.648790515,440.650994106
8001000000,79,8001000000,,436.895485696,436.895568204,436.896032308,436.894315854
8120000000,80,8120000000,,439.009395626,439.00944025,439.010120873,439.00843653
8240000000,81,8240000000,,429.977375511,429.977422733,429.978328504,429.976624751
8320000000,82,8320000000,,420.281407743,420.273336563,420.288424114,420.272567702
8443000000,83,8443000000,,432.859616751,432.865417444,432.881147443,432.864421474
8547000000,84,8547000000,,434.148183721,434.170444007,434.182082557,434.169259065
8600000000,85,8600000000,,435.00283622,435.010134715,435.03989255,435.008900215
8720000000,86,8720000000,,435.718376732,435.731915972,435.755621684,435.730655055
8802000000,87,8802000000,,440.302140978,440.316638862,440.334595063,440.315403217
8920000000,88,8920000000,,438.470565912,438.478102444,438.488690399,438.476894537
9041000000,89,9041000000,,418.250540481,418.250859891,418.250606172,418.249684895
9120000000,90,9120000000,,432.288790367,432.279492832,432.273770798,432.278338041
9243000000,91,9243000000,,433.262359808,433.241718447,433.223407931,433.240561858
9320000000,92,9320000000,,419.132808781,419.102418756,419.076369962,419.101230056
9440000000,93,9440000000,,438.218990515,438.176333524,438.137547709,438.175092916
9521000000,94,9521000000,,440.58798055,440.536821023,440.48957757,440.535514865
9640000000,95,9640000000,,441.132095708,441.068790443,441.009083009,441.067400581
9720000000,96,9720000000,,442.046694286,441.976176912,441.907898986,441.974700776
9840000000,97,9840000000,,430.838286414,430.755502923,430.67645381,430.753936218
9920000000,98,9920000000,,435.934246332,435.845061086,435.758174246,435.84338516
10040000000,99,10040000000,,418.817227639,418.717907833,418.620159248,418.716106075
10120000000,100,10120000000,,418.530768167,418.424866519,418.320812089,418.422945153
10240000000,101,10240000000,,444.513609038,444.398172275,444.283854935,444.396118458
10320000000,102,10320000000,,425.582033601,425.460647371,425.340251051,425.458465675
10440000000,103,10440000000,,440.686544214,440.555475819,440.424358097,440.553147611
10520000000,104,10520000000,,449.980406464,449.840247553,449.697939268,449.837779907
10640000000,105,10640000000,,433.774478118,433.615486629,433.459633614,433.612856028
10721000000,106,10721000000,,425.997174317,425.839241303,425.659657084,425.8364553
10800000000,107,10800000000,,426.505608275,426.338713288,426.151311394,426.335771903
10920000000,108,10920000000,,421.213759984,421.03900426,420.845790131,421.035893624
11040000000,109,11040000000,,436.367422343,436.182705942,435.9929231,436.179419859
11120000000,110,11120000000,,446.202846905,446.019982892,445.828893448,446.016539135
11240000000,111,11240000000,,435.168066152,434.987932326,434.798097559,434.984312619
11321000000,112,11321000000,,423.540937865,423.361621084,423.177821313,423.357835364
11444000000,113,11444000000,,433.698923652,433.528965555,433.343512439,433.525062577
11520000000,114,11520000000,,429.06649012,428.896118081,428.719015306,428.892106631
11643000000,115,11643000000,,434.507337455,434.341135113,434.168708932,434.336995035
11720000000,116,11720000000,,438.901468663,438.740983803,438.570365278,438.736701617
11840000000,117,11840000000,,436.692893652,436.519973532,436.35968522,436.515533595
11920000000,118,11920000000,,433.221727338,433.061712774,432.881646697,433.057097128
12040000000,119,12040000000,,426.361575545,426.204671089,426.016481366,426.199873725
12120000000,120,12120000000,,420.936577326,420.781011603,420.591412569,420.776051798
12240000000,121,12240000000,,445.855094432,445.699480344,445.518330732,445.694338726
12320000000,122,12320000000,,426.720916801,426.569702339,426.394876708,426.564401003
12440000000,123,12440000000,,435.993080176,435.850248205,435.688142603,435.844796096
12520000000,124,12520000000,,433.519189248,433.385495425,433.232982055,433.379915372
12642000000,125,12642000000,,439.816942734,439.693992418,439.557706841,439.688284815
12725000000,126,12725000000,,442.935541091,442.826327668,442.697262199,442.820499888
12840000000,127,12840000000,,422.34202006,422.248276787,422.13306343,422.24234317
12920000000,128,12920000000,,437.26512113,437.181507181,437.077167762,437.175483293
13040000000,129,13040000000,,420.988040502,420.919221007,420.828786357,420.913121862
13125000000,130,13125000000,,434.824408632,434.765911117,434.685471764,434.759732817
13240000000,131,13240000000,,436.805487559,436.733825973,436.693857349,436.727588797
13320000000,132,13320000000,,441.050610435,441.007136485,440.958178183,441.000846144
13444000000,133,13444000000,,431.651128542,431.646343314,431.584787678,431.640018537
13521000000,134,13521000000,,432.567134136,432.553900749,432.518107774,432.547539531
13640000000,135,13640000000,,427.630665674,427.629785866,427.606319299,427.62340136
13720000000,136,13720000000,,431.630499701,431.637542114,431.62246682,431.631131271
13840000000,137,13840000000,,426.429629397,426.427062217,426.451189403,426.420639428
13929000000,138,13929000000,,442.188599845,442.240384455,442.236564831,442.23394758
14002000000,139,14002000000,,430.841308867,430.89050172,430.917421667,430.884060146
14120000000,140,14120000000,,430.376847234,430.442600787,430.484347709,430.436173096
14202000000,141,14202000000,,443.940213661,444.015689165,444.068393044,444.009265645
14320000000,142,14320000000,,433.406648939,433.490620354,433.551309342,433.484209056
14441000000,143,14441000000,,424.496542589,424.584876104,424.649758332,424.57848465
14520000000,144,14520000000,,433.650902987,433.73967682,433.805944074,433.733296569
14640000000,145,14640000000,,419.332130281,419.41970892,419.486700398,419.413348948
14720000000,146,14720000000,,431.586822382,431.672481652,431.737891621,431.666133621
14840000000,147,14840000000,,430.309630877,430.395588738,430.456553439,430.389202082
14920000000,148,14920000000,,440.816318775,440.897861385,440.958904186,440.891432167
15000000000,149,15000000000,,431.500077257,431.578627035,431.638751435,431.572167582
15120000000,150,15120000000,,435.221007401,435.29829579,435.355763974,435.2918265
15242000000,151,15242000000,,429.430852113,429.506523817,429.56229354,429.500062463
15321000000,152,15321000000,,428.490362196,428.56468482,428.619060915,428.558226341
15440000000,153,15440000000,,430.369555062,430.442389862,430.496572622,430.435952954
15521000000,154,15521000000,,438.840996316,438.913465353,438.967123909,438.907036085
15640000000,155,15640000000,,435.175407537,435.247260084,435.300653447,435.240836643
15722000000,156,15722000000,,427.703754893,427.77526992,427.828591836,427.768848892
15840000000,157,15840000000,,422.3678249,422.439025338,422.492249369,422.432605687
15920000000,158,15920000000,,434.70735702,434.778308118,434.831642392,434.77188932
16040000000,159,16040000000,,427.393252345,427.464023137,427.517394878,427.457605945
16120000000,160,16120000000,,436.119867954,436.190518876,436.243992812,436.184101753
16240000000,161,16240000000,,438.566749092,438.637247534,438.690842017,438.63083108
16320000000,162,16320000000,,424.597900275,424.655423679,424.721569153,424.649004481
16444000000,163,16444000000,,435.308401883,435.374607606,435.431978429,435.368188493
16522000000,164,16522000000,,434.615245463,434.681419779,434.738770186,434.674990565
16640000000,165,16640000000,,420.464888786,420.531128636,420.588560706,420.524686636
16722000000,166,16722000000,,437.546343108,437.61271786,437.670306085,437.606264298
16840000000,167,16840000000,,430.010983004,430.077544915,430.135317895,430.071082065
16920000000,168,16920000000,,446.770762878,446.837493697,446.895442293,446.831030437
17040000000,169,17040000000,,425.77928907,425.856245602,425.903481688,425.849733345
17120000000,170,17120000000,,424.960181485,425.029824092,425.083914156,425.02325914
17200000000,171,17200000000,,422.457835367,422.517482735,422.58149009,422.510892081
17320000000,172,17320000000,,426.779627005,426.845836249,426.902903517,426.83921026
17440000000,173,17440000000,,435.434889411,435.500896431,435.557725789,435.494245219
17520000000,174,17520000000,,444.090287813,444.156099198,444.212706641,444.149432059
17640000000,175,17640000000,,445.15839319,445.223926249,445.280241308,445.217265367
17720000000,176,17720000000,,430.909066279,430.974343572,431.030411792,430.967702038
17840000000,177,17840000000,,419.318010047,419.391401527,419.439014408,419.384814024
17926000000,178,17926000000,,421.842904943,421.910360284,421.963989493,421.903830361
18042000000,179,18042000000,,439.041701607,439.10145618,439.16256395,439.094991543
18121000000,180,18121000000,,435.099993845,435.164898094,435.220823507,435.158480309
18241000000,181,18241000000,,442.256598532,442.321489722,442.377461779,442.315117815
18320000000,182,18320000000,,427.677423913,427.742351664,427.798374813,427.735975724
18442000000,183,18442000000,,435.862540116,435.927544743,435.983597505,435.921111766
18520000000,184,18520000000,,433.642211995,433.707303598,433.763343741,433.700760317
18640000000,185,18640000000,,431.629671915,431.694828918,431.750773862,431.688134441
18720000000,186,18720000000,,432.045781293,432.116154902,432.16629883,432.109307548
18840000000,187,18840000000,,432.878029569,432.939327712,432.998063502,432.932381844
