%time,field.header.seq,field.header.stamp,field.header.frame_id,field.angular_velocities0,field.angular_velocities1,field.angular_velocities2,field.angular_velocities3
108000000,0,108000000,,-1.44214032223e-14,-1.44550335705e-14,-1.4455033961e-14,-1.44214038521e-14
112000000,1,112000000,,-2.89768769482e-14,-2.90281492215e-14,-2.90274017051e-14,-2.89761301373e-14
123000000,2,123000000,,-4.34888709318e-14,-4.35895207909e-14,-4.3593892159e-14,-4.34932449183e-14
183000000,3,183000000,,5.65784399698e-13,-8.6938625334e-14,-6.77479176602e-13,-2.47550057734e-14
220000000,4,220000000,,-0.000261809471302,-0.000188572126533,0.000261809471163,0.000188572126396
241000000,5,241000000,,0.000147892130872,-0.000231725796213,-0.000147892131035,0.000231725796055
297000000,6,297000000,,-0.000116369876565,2.95557163986e-05,0.000116369876388,-2.95557165696e-05
341000000,7,341000000,,-4.92528072872e-05,-3.68221576656e-05,4.92528071041e-05,3.68221574884e-05
371000000,8,371000000,,-3.98524457891e-05,-5.8421593325e-05,3.98524456021e-05,5.84215931439e-05
417000000,9,417000000,,-4.24774217311e-05,-5.87261122106e-05,4.2477421542e-05,5.87261120275e-05
449000000,10,449000000,,-4.37959303976e-05,-5.51564925067e-05,4.3795930208e-05,5.51564923229e-05
490000000,11,490000000,,-4.3721195374e-05,-5.1451176738e-05,4.37211951858e-05,5.14511765558e-05
528000000,12,528000000,,-4.30127661692e-05,-4.89568864891e-05,4.30127659845e-05,4.89568863103e-05
580000000,13,580000000,,-4.11273525352e-05,-4.70204199847e-05,4.11273523556e-05,4.70204198109e-05
662000000,14,662000000,,-3.80490111334e-05,-4.52621076477e-05,3.80490109605e-05,4.52621074807e-05
697000000,15,697000000,,-3.05749195375e-05,-4.22098775354e-05,3.05749193726e-05,4.22098773761e-05
702000000,16,702000000,,-2.28899935072e-05,-3.97878704263e-05,2.28899933507e-05,3.97878702754e-05
732000000,17,732000000,,-1.93065658202e-05,-3.86955774014e-05,1.93065656724e-05,3.86955772591e-05
782000000,18,782000000,,-9.90717441147e-06,-3.58457679048e-05,9.90717427145e-06,3.58457677701e-05
823000000,19,823000000,,1.26575248099e-06,-3.27542819993e-05,-1.2657526143e-06,3.27542818712e-05
872000000,20,872000000,,1.32801191919e-05,-2.96489584508e-05,-1.32801193193e-05,2.96489583284e-05
891000000,21,891000000,,2.86852066331e-05,-2.61114301245e-05,-2.86852067569e-05,2.61114300055e-05
938000000,22,938000000,,3.98512233914e-05,-2.3503294783e-05,-3.98512235136e-05,2.35032946656e-05
967000000,23,967000000,,5.41828862391e-05,-2.05367285677e-05,-5.41828863609e-05,2.05367284508e-05
1022000000,24,1022000000,,6.863238683e-05,-1.8061389506e-05,-6.86323869525e-05,1.80613893883e-05
1044000000,25,1044000000,,8.21831539758e-05,-1.57733311405e-05,-8.21831540996e-05,1.57733310216e-05
1094000000,26,1094000000,,9.48750032291e-05,-1.41046257795e-05,-9.4875003355e-05,1.41046256585e-05
1129000000,27,1129000000,,0.000106226637712,-1.30223753482e-05,-0.000106226637841,1.30223752246e-05
1170000000,28,1170000000,,0.000115964982427,-1.26503313126e-05,-0.000115964982559,1.2650331186e-05
1215000000,29,1215000000,,0.000124439092158,-1.26767581415e-05,-0.000124439092293,1.26767580117e-05
1254000000,30,1254000000,,0.000128381410362,-1.43870142113e-05,-0.000128381410499,1.43870140795e-05
1290000000,31,1290000000,,0.000130286336098,-1.65786848495e-05,-0.000130286336236,1.65786847167e-05
1347000000,32,1347000000,,0.000128160161205,-2.00447499495e-05,-0.000128160161343,2.00447498168e-05
1380000000,33,1380000000,,0.000122251940946,-2.44333866031e-05,-0.000122251941084,2.44333864705e-05
1425000000,34,1425000000,,0.000112574403993,-2.98499642641e-05,-0.000112574404131,2.98499641318e-05
1457000000,35,1457000000,,9.39137515195e-05,-3.76439343582e-05,-9.39137516569e-05,3.76439342263e-05
1489000000,36,1489000000,,7.87264448917e-05,-4.38281941755e-05,-7.8726445029e-05,4.38281940436e-05
1524000000,37,1524000000,,5.57954492157e-05,-5.20145137927e-05,-5.57954493532e-05,5.20145136606e-05
1567000000,38,1567000000,,2.80937774404e-05,-6.09843845644e-05,-2.80937775785e-05,6.09843844317e-05
1614000000,39,1614000000,,-3.14338363521e-06,-7.03524566198e-05,3.14338349607e-06,7.03524564861e-05
1655000000,40,1655000000,,-3.63150318965e-05,-7.97752144075e-05,3.63150317559e-05,7.97752142724e-05
1688000000,41,1688000000,,-7.30814654667e-05,-8.91988569155e-05,7.30814653239e-05,8.91988567783e-05
1747000000,42,1747000000,,-0.000111182085367,-9.81180136056e-05,0.000111182085221,9.81180134656e-05
1785000000,43,1785000000,,-0.000154394860812,-0.000107025042711,0.000154394860663,0.000107025042568
1829000000,44,1829000000,,-0.00018771096763,-0.000113547152769,0.00018771096748,0.000113547152625
1854000000,45,1854000000,,-0.000224570528128,-0.000119252071548,0.000224570527975,0.000119252071402
1890000000,46,1890000000,,-0.000258448669628,-0.000123415007879,0.000258448669473,0.000123415007731
1956000000,47,1956000000,,-0.00028845223051,-0.000125224439264,0.000288452230354,0.000125224439114
1977000000,48,1977000000,,-0.000235362020974,-8.62485367105e-05,0.000235362020816,8.62485365591e-05
2006000000,49,2006000000,,-0.000210997820208,-6.70092225545e-05,0.000210997820049,6.70092224018e-05
2062000000,50,2062000000,,-0.000195671481984,-5.46583328005e-05,0.000195671481824,5.46583326465e-05
2110000000,51,2110000000,,-0.00018341305017,-4.55344083115e-05,0.000183413050008,4.55344081564e-05
2136000000,52,2136000000,,-0.000166506993072,-3.7755196306e-05,0.00016650699291,3.77551961499e-05
2184000000,53,2184000000,,-0.000154733301094,-3.02917958296e-05,0.00015473330093,3.02917956722e-05
2217000000,54,2217000000,,-0.000217774502866,-3.20721858419e-05,0.000217774502701,3.20721856833e-05
2260000000,55,2260000000,,-0.00018918805308,-1.78764263842e-05,0.000189188052913,1.78764262243e-05
2298000000,56,2298000000,,-0.000169259039938,-6.89915817934e-06,0.00016925903977,6.89915801818e-06
2324000000,57,2324000000,,-0.000150352960799,2.15808081639e-06,0.00015035296063,-2.15808097877e-06
2391000000,58,2391000000,,-0.000128991632958,1.01440336118e-05,0.000128991632788,-1.01440337755e-05
2413000000,59,2413000000,,-0.000100545984033,1.61695026604e-05,0.000100545983861,-1.61695028256e-05
2450000000,60,2450000000,,-7.62184690279e-05,2.24001470129e-05,7.62184688547e-05,-2.24001471796e-05
2488000000,61,2488000000,,-4.37466979031e-05,2.51424366089e-05,4.37466977285e-05,-2.51424367769e-05
2526000000,62,2526000000,,-9.67632575416e-06,2.56206099814e-05,9.67632557841e-06,-2.56206101505e-05
2584000000,63,2584000000,,2.52672591399e-05,2.40708754036e-05,-2.52672593166e-05,-2.40708755736e-05
2641000000,64,2641000000,,6.14069703297e-05,1.91047045819e-05,-6.14069705071e-05,-1.91047047525e-05
2657000000,65,2657000000,,0.000100840098051,8.42938660315e-06,-0.000100840098229,-8.42938677422e-06
2711000000,66,2711000000,,0.000130730622945,-3.58678538507e-07,-0.000130730623123,3.58678366825e-07
2736000000,67,2736000000,,0.000162467914414,-1.61574699043e-05,-0.000162467914594,1.61574697318e-05
2801000000,68,2801000000,,0.000192147923072,-3.10250638181e-05,-0.000192147923253,3.10250636448e-05
2821000000,69,2821000000,,0.000148977316443,-0.000102152319577,-0.000148977316624,0.000102152319403
2880000000,70,2880000000,,3.29264904716e-05,-0.000135336338771,-3.29264906532e-05,0.000135336338596
2888000000,71,2888000000,,-5.68854062916e-05,-0.00015661485506,5.68854061089e-05,0.000156614854885
2928000000,72,2928000000,,-7.20344812521e-05,-0.000166046889669,7.20344810684e-05,0.000166046889493
2998000000,73,2998000000,,-5.44534558252e-06,-0.000171404257121,5.44534539784e-06,0.000171404256943
3016000000,74,3016000000,,5.00544464817e-05,-0.000164933614287,-5.00544466672e-05,0.000164933614108
3067000000,75,3067000000,,2.73240364677e-05,-0.000220837775229,-2.73240366538e-05,0.00022083777505
3099000000,76,3099000000,,3.59772492315e-06,-0.00023145696434,-3.59772510993e-06,0.00023145696416
3137000000,77,3137000000,,-7.25299573307e-06,-0.000237192208326,7.25299554569e-06,0.000237192208145
3182000000,78,3182000000,,7.76964235428e-06,-0.000154005267242,-7.76964254208e-06,0.000154005267061
3218000000,79,3218000000,,1.12805455602e-05,-0.000108981924559,-1.12805457483e-05,0.000108981924378
3251000000,80,3251000000,,1.05438466321e-05,-7.86828071541e-05,-1.05438468202e-05,7.86828069727e-05
3289000000,81,3289000000,,7.86814301145e-06,-5.97895971644e-05,-7.86814319962e-06,5.9789596983e-05
3356000000,82,3356000000,,3.73212883768e-06,-4.06261105497e-05,-3.73212902576e-06,4.06261103684e-05
3378000000,83,3378000000,,-1.92830382934e-05,-8.58824655817e-05,1.92830381055e-05,8.58824654004e-05
3420000000,84,3420000000,,-1.78514891338e-05,-4.48029603544e-05,1.7851488946e-05,4.48029601733e-05
3456000000,85,3456000000,,-1.62000017842e-05,-1.74523549279e-05,1.62000015965e-05,1.74523547469e-05
3498000000,86,3498000000,,-2.27454666331e-05,4.38691374757e-06,2.27454664453e-05,-4.38691392869e-06
3546000000,87,3546000000,,-2.45369318416e-05,2.54944424433e-05,2.45369316535e-05,-2.54944426248e-05
3576000000,88,3576000000,,-2.5537603104e-05,4.58856261048e-05,2.55376029155e-05,-4.58856262867e-05
3634000000,89,3634000000,,-2.57159494978e-05,6.48436892191e-05,2.57159493088e-05,-6.48436894015e-05
3666000000,90,3666000000,,-2.50301075469e-05,8.11074964036e-05,2.50301073575e-05,-8.11074965865e-05
3692000000,91,3692000000,,-2.33582619344e-05,9.48234290113e-05,2.33582617445e-05,-9.48234291947e-05
3758000000,92,3758000000,,-2.09362555324e-05,0.000104157558042,2.0936255342e-05,-0.000104157558226
3766000000,93,3766000000,,-1.66934124807e-05,0.00010605814695,1.66934122899e-05,-0.000106058147134
3813000000,94,3813000000,,-4.52635738895e-07,2.34849917492e-05,4.52635547731e-07,-2.3484991934e-05
3845000000,95,3845000000,,5.27171002813e-06,-1.99590190653e-05,-5.27171021966e-06,1.99590188802e-05
3888000000,96,3888000000,,7.98098588984e-06,-3.8654943352e-05,-7.98098608165e-06,3.86549431665e-05
3942000000,97,3942000000,,7.93532119851e-06,-5.35834635257e-05,-7.9353213905e-06,5.358346334e-05
3997000000,98,3997000000,,1.2143575447e-05,-8.62467864981e-06,-1.21435756391e-05,8.62467846404e-06
4027000000,99,4027000000,,1.65838182778e-05,-5.73314780796e-06,-1.65838184699e-05,5.73314762222e-06
4055000000,100,4055000000,,1.94685076558e-05,-6.69819679429e-05,-1.94685078477e-05,6.69819677572e-05
4096000000,101,4096000000,,2.0943724962e-05,-8.21897623606e-05,-2.09437251537e-05,8.21897621751e-05
4135000000,102,4135000000,,2.11079053473e-05,-9.76791164956e-05,-2.11079055389e-05,9.76791163102e-05
4173000000,103,4173000000,,2.1599125704e-05,-0.000112806361489,-2.15991258955e-05,0.000112806361304
4228000000,104,4228000000,,1.90600798927e-05,-0.000126422064571,-1.90600800841e-05,0.000126422064385
4262000000,105,4262000000,,1.37818367969e-05,-0.000135130883925,-1.37818369882e-05,0.00013513088374
4296000000,106,4296000000,,8.24747558686e-06,-0.000142169634672,-8.24747577812e-06,0.000142169634487
4340000000,107,4340000000,,-5.74338058488e-08,-0.000142596778675,5.74336146063e-08,0.00014259677849
4379000000,108,4379000000,,-3.7279836785e-05,-5.66159293755e-05,3.72798365938e-05,5.66159291904e-05
4420000000,109,4420000000,,-5.61215906106e-05,-1.31003892786e-05,5.61215904192e-05,1.31003890934e-05
4458000000,110,4458000000,,-6.53930205778e-05,1.2328500538e-05,6.53930203864e-05,-1.23285007233e-05
4502000000,111,4502000000,,-7.07608377759e-05,2.59771148244e-05,7.07608375844e-05,-2.59771150098e-05
4544000000,112,4544000000,,-7.51532790283e-05,-1.67632901636e-05,7.51532788366e-05,1.6763289978e-05
4576000000,113,4576000000,,-8.96503153143e-05,1.9858743981e-05,8.96503151224e-05,-1.98587441668e-05
4605000000,114,4605000000,,-0.000100169080599,4.72393413313e-05,0.000100169080407,-4.72393415173e-05
4644000000,115,4644000000,,-0.000108154349896,6.77710432718e-05,0.000108154349703,-6.77710434579e-05
4707000000,116,4707000000,,-0.00011394876287,8.66685036698e-05,0.000113948762678,-8.6668503856e-05
4735000000,117,4735000000,,-0.000117795585838,0.000104174402323,0.000117795585646,-0.000104174402509
4774000000,118,4774000000,,-0.000118354363153,0.000118896604992,0.000118354362961,-0.000118896605179
4811000000,119,4811000000,,-0.000115662267106,0.00012982765426,0.000115662266914,-0.000129827654445
4852000000,120,4852000000,,-5.54486689015e-05,7.03543958582e-05,5.544866871e-05,-7.03543960437e-05
4887000000,121,4887000000,,-2.99232789094e-05,4.26873548096e-05,2.99232787183e-05,-4.26873549947e-05
4942000000,122,4942000000,,-1.6935710968e-05,2.65422440699e-05,1.69357107772e-05,-2.65422442547e-05
4983000000,123,4983000000,,-1.10365255806e-05,1.57999784958e-05,1.103652539e-05,-1.57999786805e-05
5019000000,124,5019000000,,-2.44079769065e-05,6.71773819585e-05,2.44079767159e-05,-6.71773821431e-05
5045000000,125,5045000000,,-3.24242596922e-06,4.19443950752e-05,3.24242577869e-06,-4.19443952598e-05
5085000000,126,5085000000,,1.10818840106e-05,2.45743879287e-05,-1.10818842011e-05,-2.45743881133e-05
5125000000,127,5125000000,,2.22016711253e-05,8.95045927552e-06,-2.22016713159e-05,-8.95045946022e-06
5192000000,128,5192000000,,3.14419738531e-05,-6.84908653115e-06,-3.14419740438e-05,6.84908634638e-06
5231000000,129,5231000000,,3.72873107089e-05,-2.5457204631e-05,-3.72873108997e-05,2.54572044462e-05
5263000000,130,5263000000,,4.0561185124e-05,-4.42147593857e-05,-4.05611853148e-05,4.42147592008e-05
5300000000,131,5300000000,,4.42017986755e-05,-5.96540813285e-05,-4.42017988664e-05,5.96540811436e-05
5327000000,132,5327000000,,4.21866538647e-05,-7.76731205615e-05,-4.21866540556e-05,7.76731203766e-05
5370000000,133,5370000000,,3.71057217477e-05,-9.44696367785e-05,-3.71057219384e-05,9.44696365937e-05
5405000000,134,5405000000,,2.81566932067e-05,-0.000109518813414,-2.81566933973e-05,0.00010951881323
5461000000,135,5461000000,,1.48120591221e-05,-0.000121567605391,-1.48120593124e-05,0.000121567605206
5495000000,136,5495000000,,-1.09400046098e-06,-0.000131074020293,1.09400027101e-06,0.000131074020108
5539000000,137,5539000000,,-7.8358194413e-05,-7.76723252519e-05,7.83581942233e-05,7.76723250681e-05
5573000000,138,5573000000,,-0.000116447074946,-5.12179289787e-05,0.000116447074756,5.12179287952e-05
5612000000,139,5612000000,,-0.000131325021562,-3.37509741076e-05,0.000131325021373,3.37509739245e-05
5662000000,140,5662000000,,-0.000118390657349,-9.73252215225e-05,0.000118390657161,9.73252213399e-05
5686000000,141,5686000000,,-0.00015129397341,-7.28786415046e-05,0.000151293973222,7.28786413225e-05
5739000000,142,5739000000,,-0.000175600958532,-5.4882953342e-05,0.000175600958345,5.48829531602e-05
5794000000,143,5794000000,,-0.000194578663768,-3.8200893672e-05,0.00019457866358,3.82008934905e-05
5819000000,144,5819000000,,-0.000209699859292,-1.78152263072e-05,0.000209699859104,1.78152261258e-05
5851000000,145,5851000000,,-0.000146385434462,4.31178384417e-05,0.000146385434274,-4.31178386231e-05
5885000000,146,5885000000,,-0.000121678637197,6.91710794443e-05,0.00012167863701,-6.91710796257e-05
5925000000,147,5925000000,,-0.000104679306513,8.33174249588e-05,0.000104679306326,-8.33174251405e-05
5993000000,148,5993000000,,-9.64986646878e-05,9.05640174304e-05,9.64986645002e-05,-9.05640176121e-05
6013000000,149,6013000000,,-0.000153055576074,0.000114122732636,0.000153055575886,-0.000114122732817
6049000000,150,6049000000,,-0.000126018720499,0.000135405265568,0.000126018720312,-0.00013540526575
6110000000,151,6110000000,,-0.000112396455013,0.000152283821935,0.000112396454825,-0.000152283822117
6130000000,152,6130000000,,-9.43008325714e-05,0.000163828449589,9.43008323843e-05,-0.00016382844977
6181000000,153,6181000000,,-4.69371646926e-05,9.34046347243e-05,4.69371645057e-05,-9.34046349055e-05
6224000000,154,6224000000,,-2.08268457435e-05,5.69269318554e-05,2.0826845557e-05,-5.69269320363e-05
6255000000,155,6255000000,,-7.68256513283e-06,3.01030042645e-05,7.68256494662e-06,-3.0103004445e-05
6295000000,156,6295000000,,3.53112560562e-06,1.53067600625e-05,-3.53112579148e-06,-1.53067602426e-05
6340000000,157,6340000000,,1.22159009828e-05,-1.13108730358e-06,-1.22159011683e-05,1.13108712373e-06
6363000000,158,6363000000,,3.0728066789e-05,3.84512815282e-05,-3.07280669742e-05,-3.84512817078e-05
6434000000,159,6434000000,,4.73060116976e-05,5.50288456491e-06,-4.73060118827e-05,-5.50288474434e-06
6449000000,160,6449000000,,5.97850281538e-05,-2.83992714249e-05,-5.97850283388e-05,2.83992712456e-05
6529000000,161,6529000000,,6.75713380827e-05,-3.62935029278e-05,-6.75713382675e-05,3.62935027486e-05
6534000000,162,6534000000,,6.68815789465e-05,-5.16653160663e-05,-6.68815791312e-05,5.16653158872e-05
6582000000,163,6582000000,,7.08804128143e-05,-8.27165630023e-05,-7.08804129989e-05,8.27165628233e-05
6623000000,164,6623000000,,6.47207416798e-05,-0.00011033388029,-6.47207418645e-05,0.000110333880111
6654000000,165,6654000000,,-3.00918062765e-05,-0.000109849205507,3.0091806092e-05,0.000109849205328
6696000000,166,6696000000,,-7.046956702e-05,-0.000108822901659,7.04695668356e-05,0.00010882290148
6735000000,167,6735000000,,-9.42034192185e-05,-0.000108791797237,9.42034190343e-05,0.000108791797059
6766000000,168,6766000000,,-0.00010197532277,-0.000100824375998,0.000101975322586,0.00010082437582
6812000000,169,6812000000,,-8.20967254637e-05,-0.000159862437586,8.20967252803e-05,0.000159862437408
6854000000,170,6854000000,,-0.000115970762654,-0.000156140249598,0.000115970762471,0.000156140249421
6896000000,171,6896000000,,-0.000138993139208,-0.000155586456602,0.000138993139025,0.000155586456425
6923000000,172,6923000000,,-0.000156880069767,-0.000152247857909,0.000156880069585,0.000152247857732
6977000000,173,6977000000,,-0.000129850284434,-6.61517288036e-05,0.000129850284252,6.61517286271e-05
7007000000,174,7007000000,,-0.000114592022519,-2.37052435065e-05,0.000114592022338,2.37052433304e-05
7056000000,175,7056000000,,-0.000108554980161,4.81101947011e-06,0.00010855497998,-4.8110196457e-06
7100000000,176,7100000000,,-0.000100474705171,2.10114346571e-05,0.00010047470499,-2.10114348323e-05
7151000000,177,7151000000,,-0.000158476059026,-1.02674034949e-05,0.000158476058845,1.02674033201e-05
7169000000,178,7169000000,,-0.000180837260897,-5.45993436942e-06,0.000180837260717,5.45993419492e-06
7209000000,179,7209000000,,-0.000137363174209,5.49969445013e-05,0.000137363174029,-5.49969446755e-05
7262000000,180,7262000000,,-0.000133474855877,7.39862160167e-05,0.000133474855697,-7.39862161906e-05
7283000000,181,7283000000,,-0.000124726196602,9.23295621925e-05,0.000124726196422,-9.23295623663e-05
7355000000,182,7355000000,,-0.000111278906043,0.000109976124103,0.000111278905863,-0.000109976124277
7387000000,183,7387000000,,-6.0593671345e-05,0.00015620895396,6.05936711657e-05,-0.000156208954134
7417000000,184,7417000000,,3.84313182667e-05,0.000134596616473,-3.84313184461e-05,-0.000134596616647
7450000000,185,7450000000,,8.932689779e-05,0.000124900802077,-8.93268979694e-05,-0.00012490080225
7508000000,186,7508000000,,0.00012151868489,0.000133085492274,-0.000121518685069,-0.000133085492448
7531000000,187,7531000000,,8.75685633374e-05,0.000193821785132,-8.75685635164e-05,-0.000193821785306
7591000000,188,7591000000,,0.000134600387028,0.000190462360275,-0.000134600387207,-0.000190462360448
7634000000,189,7634000000,,0.00018250989019,0.000179358634056,-0.000182509890368,-0.000179358634229
7656000000,190,7656000000,,0.000209894965148,0.000178066272437,-0.000209894965326,-0.000178066272609
7696000000,191,7696000000,,0.000156182877572,0.000134998201228,-0.000156182877749,-0.0001349982014
7737000000,192,7737000000,,0.000129170488052,0.000110952031994,-0.000129170488229,-0.000110952032166
7779000000,193,7779000000,,0.000118098892736,9.28473042459e-05,-0.000118098892913,-9.28473044174e-05
7830000000,194,7830000000,,0.000106126672323,8.11082073912e-05,-0.000106126672499,-8.11082075624e-05
7861000000,195,7861000000,,0.000100003210868,6.92905219438e-05,-0.000100003211045,-6.92905221148e-05
7898000000,196,7898000000,,6.66291255473e-05,3.76970349454e-05,-6.66291257236e-05,-3.76970351163e-05
7933000000,197,7933000000,,3.4154764097e-05,6.59858706062e-06,-3.41547642733e-05,-6.59858723156e-06
7995000000,198,7995000000,,9.91097604345e-05,2.02348838606e-05,-9.91097606108e-05,-2.02348840315e-05
8031000000,199,8031000000,,0.000117816913792,1.66211761547e-05,-0.000117816913968,-1.66211763255e-05
8050000000,200,8050000000,,6.65066122852e-05,-1.63016206295e-05,-6.65066124611e-05,1.6301620459e-05
8111000000,201,8111000000,,3.65576149467e-05,-3.69010045103e-05,-3.65576151223e-05,3.69010043401e-05
8142000000,202,8142000000,,1.23325047417e-05,-5.16545429561e-05,-1.23325049169e-05,5.16545427862e-05
8186000000,203,8186000000,,3.40316852756e-06,-5.95054847449e-05,-3.40316870241e-06,5.95054845754e-05
8222000000,204,8222000000,,-1.89331977892e-05,-6.9075507274e-05,1.89331976148e-05,6.90755071049e-05
8267000000,205,8267000000,,-0.000809886869355,-7.5002463623e-05,0.000809886869181,7.50024634545e-05
8316000000,206,8316000000,,-0.00180864260228,-2.29587827457e-05,0.00180864260211,2.29587825776e-05
8334000000,207,8334000000,,-0.00333159140049,3.70237983717e-05,0.00333159140032,-3.70237985394e-05
8380000000,208,8380000000,,-0.00375405934829,2.97795767364e-05,0.00375405934811,-2.97795769038e-05
8411000000,209,8411000000,,-0.00410820021882,1.42937869904e-05,0.00410820021865,-1.42937871576e-05
8473000000,210,8473000000,,-0.0042395878566,2.36710885723e-05,0.00423958785642,-2.36710887395e-05
8547000000,211,8547000000,,-0.00429089378891,3.23359616907e-05,0.00429089378874,-3.23359618578e-05
8578000000,212,8578000000,,-0.0032128675554,3.175620888e-05,0.00321286755523,-3.1756209047e-05
8588000000,213,8588000000,,-0.00242627764983,3.07851062936e-05,0.00242627764966,-3.07851064604e-05
8614000000,214,8614000000,,-0.00213464382044,3.66495815804e-05,0.00213464382027,-3.66495817471e-05
8655000000,215,8655000000,,-0.00146132353467,3.85920647004e-05,0.0014613235345,-3.85920648669e-05
8689000000,216,8689000000,,-0.000124271815756,4.03515836005e-05,0.000124271815585,-4.03515837667e-05
8755000000,217,8755000000,,0.00124574462335,4.00820436946e-05,-0.00124574462352,-4.00820438605e-05
8784000000,218,8784000000,,0.00329618388624,3.81440711358e-05,-0.00329618388641,-3.81440713014e-05
8840000000,219,8840000000,,0.00515422173384,3.84627955415e-05,-0.00515422173401,-3.84627957067e-05
8895000000,220,8895000000,,0.00744296416458,3.86409851815e-05,-0.00744296416475,-3.86409853463e-05
8911000000,221,8911000000,,0.0102921494446,3.84696755802e-05,-0.0102921494448,-3.84696757445e-05
8921000000,222,8921000000,,0.0129888133837,3.80440416696e-05,-0.0129888133838,-3.80440418334e-05
8976000000,223,8976000000,,0.0154407127436,3.62760534401e-05,-0.0154407127438,-3.62760536033e-05
9018000000,224,9018000000,,0.0180797000179,3.52057957957e-05,-0.0180797000181,-3.52057959584e-05
9046000000,225,9046000000,,0.0211423443954,3.49869106658e-05,-0.0211423443956,-3.49869108278e-05
9103000000,226,9103000000,,0.0242141031418,3.48867852626e-05,-0.024214103142,-3.48867854242e-05
9160000000,227,9160000000,,0.0276267825846,3.56270725169e-05,-0.0276267825848,-3.56270726782e-05
9181000000,228,9181000000,,0.0310415430539,3.6898880002e-05,-0.0310415430541,-3.6898880163e-05
9217000000,229,9217000000,,0.0346016424988,3.79780481836e-05,-0.034601642499,-3.79780483443e-05
9264000000,230,9264000000,,0.0381442751287,3.91535489429e-05,-0.0381442751289,-3.91535491033e-05
9297000000,231,9297000000,,0.0417825537938,4.18049338356e-05,-0.0417825537939,-4.18049339958e-05
9344000000,232,9344000000,,0.0454937264329,4.52689208976e-05,-0.045493726433,-4.52689210574e-05
9372000000,233,9372000000,,0.0492515376687,4.70731080521e-05,-0.0492515376688,-4.70731082117e-05
9411000000,234,9411000000,,0.0531167211337,4.95768611076e-05,-0.0531167211339,-4.95768612672e-05
9467000000,235,9467000000,,0.0569218565986,5.26689208635e-05,-0.0569218565988,-5.26689210231e-05
9496000000,236,9496000000,,0.0607556561369,5.672615763e-05,-0.0607556561371,-5.67261577895e-05
9550000000,237,9550000000,,0.0646461196641,6.01985676588e-05,-0.0646461196642,-6.01985678181e-05
9578000000,238,9578000000,,0.0685582288657,6.4398196495e-05,-0.0685582288658,-6.43981966541e-05
9635000000,239,9635000000,,0.0724324405792,6.8462690353e-05,-0.0724324405794,-6.84626905118e-05
9665000000,240,9665000000,,0.0762569895556,7.34620684849e-05,-0.0762569895557,-7.34620686432e-05
9696000000,241,9696000000,,0.0801462402427,7.78722787762e-05,-0.0801462402428,-7.78722789341e-05
9735000000,242,9735000000,,0.0839783546082,7.80300259716e-05,-0.0839783546083,-7.80300261288e-05
9770000000,243,9770000000,,0.0879228554121,8.34239933517e-05,-0.0879228554123,-8.34239935084e-05
9810000000,244,9810000000,,0.0917121362473,9.20255206436e-05,-0.0917121362475,-9.20255207996e-05
9861000000,245,9861000000,,0.0955011224331,9.89739027757e-05,-0.0955011224333,-9.89739029309e-05
9903000000,246,9903000000,,0.0992986974214,0.000105134426499,-0.0992986974215,-0.000105134426653
9949000000,247,9949000000,,0.103055220707,0.000111471133085,-0.103055220707,-0.000111471133239
9983000000,248,9983000000,,0.106806535393,0.000117326341543,-0.106806535393,-0.000117326341696
10003000000,249,10003000000,,0.110533939695,0.000123585561054,-0.110533939696,-0.000123585561207
10044000000,250,10044000000,,0.114255047733,0.000129481794577,-0.114255047733,-0.000129481794729
10088000000,251,10088000000,,0.117962473606,0.00013556967947,-0.117962473607,-0.000135569679621
10150000000,252,10150000000,,0.121642239957,0.000141859333326,-0.121642239957,-0.000141859333477
10181000000,253,10181000000,,0.125295640541,0.000148242437768,-0.125295640542,-0.00014824243792
10209000000,254,10209000000,,0.128940933129,0.000154651398973,-0.128940933129,-0.000154651399125
10252000000,255,10252000000,,0.13257951645,0.000160914313961,-0.13257951645,-0.000160914314112
10292000000,256,10292000000,,0.136183696898,0.000167737167506,-0.136183696898,-0.000167737167658
10346000000,257,10346000000,,0.139787003835,0.000174087095631,-0.139787003835,-0.000174087095782
10374000000,258,10374000000,,0.143365106809,0.000180932600572,-0.143365106809,-0.000180932600723
10421000000,259,10421000000,,0.147706182208,0.000187336653074,-0.147706182208,-0.000187336653225
10468000000,260,10468000000,,0.152246895866,0.000194735836807,-0.152246895867,-0.000194735836958
10510000000,261,10510000000,,0.156767713936,0.000201351467225,-0.156767713936,-0.000201351467376
10547000000,262,10547000000,,0.161082776926,0.00020841853885,-0.161082776926,-0.000208418539
10586000000,263,10586000000,,0.165147521078,0.000215625135864,-0.165147521078,-0.000215625136014
10630000000,264,10630000000,,0.169003661859,0.000222606388967,-0.169003661859,-0.000222606389116
10664000000,265,10664000000,,0.172512161801,0.000229859563179,-0.172512161801,-0.000229859563327
10702000000,266,10702000000,,0.176075850184,0.000236763106581,-0.176075850185,-0.000236763106728
10738000000,267,10738000000,,0.17889361683,0.000243563109816,-0.17889361683,-0.000243563109962
10771000000,268,10771000000,,0.181705773869,0.000249721676686,-0.181705773869,-0.000249721676832
10830000000,269,10830000000,,0.184144108664,0.000256256677828,-0.184144108664,-0.000256256677973
10870000000,270,10870000000,,0.186035001065,0.000262704972148,-0.186035001065,-0.000262704972293
10893000000,271,10893000000,,0.188160980729,0.000268838213833,-0.188160980729,-0.000268838213978
10945000000,272,10945000000,,0.189803307261,0.000275261308586,-0.189803307261,-0.000275261308731
10988000000,273,10988000000,,0.191433249194,0.000281215269822,-0.191433249194,-0.000281215269966
11018000000,274,11018000000,,0.192510600721,0.00028779376706,-0.192510600722,-0.000287793767204
11045000000,275,11045000000,,0.193660274821,0.000293882690598,-0.193660274821,-0.000293882690742
11111000000,276,11111000000,,0.194292212962,0.00030048576821,-0.194292212962,-0.000300485768354
11148000000,277,11148000000,,0.1947657761,0.000306921068369,-0.194765776101,-0.000306921068513
11174000000,278,11174000000,,0.195276478038,0.00031295935975,-0.195276478038,-0.000312959359893
11218000000,279,11218000000,,0.195734434059,0.000318546900557,-0.195734434059,-0.0003185469007
11262000000,280,11262000000,,0.19595078145,0.000324328838724,-0.19595078145,-0.000324328838867
11318000000,281,11318000000,,0.196020263581,0.000330009515332,-0.196020263581,-0.000330009515474
11347000000,282,11347000000,,0.196098046312,0.000335244241973,-0.196098046312,-0.000335244242115
11385000000,283,11385000000,,0.195912391793,0.000331245061233,-0.195912391793,-0.000331245061374
11420000000,284,11420000000,,0.195790869929,0.000331206276847,-0.195790869929,-0.000331206276988
11466000000,285,11466000000,,0.195452350256,0.000334056113967,-0.195452350256,-0.000334056114107
11482000000,286,11482000000,,0.195171823898,0.000337013876205,-0.195171823898,-0.000337013876345
11529000000,287,11529000000,,0.194751375334,0.000341229207807,-0.194751375335,-0.000341229207946
11575000000,288,11575000000,,0.194367485102,0.000344689316323,-0.194367485102,-0.000344689316463
11605000000,289,11605000000,,0.193903754225,0.000349389028746,-0.193903754226,-0.000349389028886
11676000000,290,11676000000,,0.19343035568,0.000353693544173,-0.19343035568,-0.000353693544312
11699000000,291,11699000000,,0.192951990319,0.000358764989319,-0.192951990319,-0.000358764989458
11738000000,292,11738000000,,0.193216080476,0.000363302903741,-0.193216080476,-0.000363302903879
11773000000,293,11773000000,,0.193686237438,0.000367908907889,-0.193686237438,-0.000367908908028
11821000000,294,11821000000,,0.19408071646,0.000369376938532,-0.19408071646,-0.00036937693867
11852000000,295,11852000000,,0.194332137015,0.000376428729812,-0.194332137015,-0.00037642872995
11888000000,296,11888000000,,0.194374805051,0.000382639215908,-0.194374805051,-0.000382639216045
11939000000,297,11939000000,,0.19416450968,0.000387569863109,-0.19416450968,-0.000387569863245
11973000000,298,11973000000,,0.193689528327,0.000392382525049,-0.193689528327,-0.000392382525184
12022000000,299,12022000000,,0.193031675126,0.000396437304937,-0.193031675126,-0.000396437305072
12065000000,300,12065000000,,0.192028305404,0.000400238383697,-0.192028305404,-0.000400238383832
12097000000,301,12097000000,,0.190691400202,0.000403755774991,-0.190691400202,-0.000403755775125
12148000000,302,12148000000,,0.18931690197,0.000406463854726,-0.18931690197,-0.00040646385486
12166000000,303,12166000000,,0.187524697245,0.000413843428984,-0.187524697245,-0.000413843429117
12211000000,304,12211000000,,0.185657838428,0.000418033237908,-0.185657838428,-0.000418033238042
12270000000,305,12270000000,,0.183345347098,0.000421601178586,-0.183345347099,-0.000421601178719
12285000000,306,12285000000,,0.181093280577,0.000424133893668,-0.181093280577,-0.000424133893802
12347000000,307,12347000000,,0.178338930556,0.000426603671497,-0.178338930556,-0.00042660367163
12379000000,308,12379000000,,0.17562516723,0.0004282236389,-0.17562516723,-0.000428223639032
12434000000,309,12434000000,,0.172605185152,0.000429703758514,-0.172605185152,-0.000429703758646
12457000000,310,12457000000,,0.169346923371,0.000430099944259,-0.169346923371,-0.000430099944391
12510000000,311,12510000000,,0.166226676343,0.000431194977461,-0.166226676344,-0.000431194977593
12532000000,312,12532000000,,0.162826457817,0.000432047152352,-0.162826457817,-0.000432047152484
12575000000,313,12575000000,,0.159442135941,0.000434181673709,-0.159442135941,-0.00043418167384
12627000000,314,12627000000,,0.155724811724,0.000435517718354,-0.155724811725,-0.000435517718485
12666000000,315,12666000000,,0.152103686626,0.000435824530928,-0.152103686627,-0.000435824531058
12702000000,316,12702000000,,0.148230451141,0.000436174415678,-0.148230451141,-0.000436174415808
12737000000,317,12737000000,,0.14437932576,0.000435589951593,-0.14437932576,-0.000435589951722
12777000000,318,12777000000,,0.140424100722,0.000435047320848,-0.140424100722,-0.000435047320977
12831000000,319,12831000000,,0.136483056933,0.000434044260643,-0.136483056933,-0.000434044260771
12865000000,320,12865000000,,0.132536039194,0.000432054268946,-0.132536039194,-0.000432054269074
12896000000,321,12896000000,,0.128444960922,0.000431152779201,-0.128444960922,-0.000431152779328
12957000000,322,12957000000,,0.124387070138,0.000429401535797,-0.124387070138,-0.000429401535924
12976000000,323,12976000000,,0.120286141693,0.000427578677952,-0.120286141694,-0.000427578678078
13031000000,324,13031000000,,0.116185555121,0.000425593905311,-0.116185555121,-0.000425593905437
13065000000,325,13065000000,,0.112097518922,0.000423447002416,-0.112097518923,-0.000423447002541
13125000000,326,13125000000,,0.107963344662,0.000421218944036,-0.107963344662,-0.000421218944161
13154000000,327,13154000000,,0.103853790809,0.00041886941869,-0.103853790809,-0.000418869418815
13171000000,328,13171000000,,0.0997512994443,0.000415887557699,-0.0997512994444,-0.000415887557824
13207000000,329,13207000000,,0.0956976827373,0.000415768517226,-0.0956976827375,-0.00041576851735
13275000000,330,13275000000,,0.0915246332561,0.000412692034822,-0.0915246332563,-0.000412692034946
13297000000,331,13297000000,,0.0873628134958,0.000409103585683,-0.0873628134959,-0.000409103585807
13338000000,332,13338000000,,0.0833461233827,0.000404810873007,-0.0833461233829,-0.00040481087313
13376000000,333,13376000000,,0.0793218688716,0.00040076132912,-0.0793218688717,-0.000400761329243
13420000000,334,13420000000,,0.0753110270004,0.000397455704732,-0.0753110270005,-0.000397455704855
13449000000,335,13449000000,,0.0712979473836,0.000393614162493,-0.0712979473837,-0.000393614162615
13489000000,336,13489000000,,0.0673168669489,0.000390386592664,-0.067316866949,-0.000390386592785
13558000000,337,13558000000,,0.0633366368024,0.000386553455126,-0.0633366368025,-0.000386553455246
13573000000,338,13573000000,,0.0593931954538,0.000382871861293,-0.0593931954539,-0.000382871861413
13616000000,339,13616000000,,0.0554492516289,0.000379145930882,-0.055449251629,-0.000379145931002
13657000000,340,13657000000,,0.0515213291886,0.000375508219021,-0.0515213291887,-0.00037550821914
13697000000,341,13697000000,,0.0476184805632,0.000371852089213,-0.0476184805633,-0.000371852089332
13742000000,342,13742000000,,0.0437185594964,0.000367944950539,-0.0437185594965,-0.000367944950657
13779000000,343,13779000000,,0.0390825703478,0.000364360455766,-0.0390825703479,-0.000364360455884
13816000000,344,13816000000,,0.0342104573459,0.000359364939995,-0.0342104573461,-0.000359364940113
13854000000,345,13854000000,,0.0295598409274,0.000355417262113,-0.0295598409275,-0.000355417262231
13909000000,346,13909000000,,0.0249569153517,0.000351507629868,-0.0249569153518,-0.000351507629985
13954000000,347,13954000000,,0.0206492112936,0.000347609871705,-0.0206492112938,-0.000347609871822
13990000000,348,13990000000,,0.016449731251,0.000342930161683,-0.0164497312512,-0.0003429301618
14020000000,349,14020000000,,0.0126272446544,0.000338738455136,-0.0126272446545,-0.000338738455252
14084000000,350,14084000000,,0.0090480115025,0.000333847239366,-0.00904801150263,-0.000333847239482
14094000000,351,14094000000,,0.00552975613768,0.000329538653831,-0.00552975613782,-0.000329538653946
14142000000,352,14142000000,,0.0023148709291,0.000325901125612,-0.00231487092924,-0.000325901125727
14202000000,353,14202000000,,-0.00067587254545,0.000321789675155,0.000675872545318,-0.000321789675269
14224000000,354,14224000000,,-0.00297376909865,0.000318299457687,0.00297376909852,-0.000318299457801
14262000000,355,14262000000,,-0.00537645331759,0.000314119947486,0.00537645331746,-0.0003141199476
14291000000,356,14291000000,,-0.00728392345382,0.000310768441949,0.00728392345368,-0.000310768442062
14326000000,357,14326000000,,-0.00903503737528,0.000306756349557,0.00903503737515,-0.00030675634967
14376000000,358,14376000000,,-0.0104943300917,0.000303602435613,0.0104943300916,-0.000303602435725
14414000000,359,14414000000,,-0.0117800867179,0.000299692323235,0.0117800867177,-0.000299692323347
14446000000,360,14446000000,,-0.0129910192512,0.000297036520361,0.012991019251,-0.000297036520472
14506000000,361,14506000000,,-0.013788011193,0.000294091181101,0.0137880111929,-0.000294091181211
14540000000,362,14540000000,,-0.014683730336,0.000290342854781,0.0146837303359,-0.000290342854891
14574000000,363,14574000000,,-0.0150794245272,0.000287492611345,0.0150794245271,-0.000287492611454
14605000000,364,14605000000,,-0.0156597879887,0.000283951477392,0.0156597879886,-0.000283951477501
14650000000,365,14650000000,,-0.015936670533,0.000281271455734,0.0159366705329,-0.000281271455843
14692000000,366,14692000000,,-0.0162203437914,0.000277980516966,0.0162203437913,-0.000277980517074
14742000000,367,14742000000,,-0.0163271654386,0.000275387356912,0.0163271654385,-0.00027538735702
14783000000,368,14783000000,,-0.0164034847192,0.000281545402192,0.0164034847191,-0.000281545402301
14816000000,369,14816000000,,-0.0164075412968,0.000284018206777,0.0164075412966,-0.000284018206885
14863000000,370,14863000000,,-0.0163152130135,0.000283884781745,0.0163152130134,-0.000283884781853
14900000000,371,14900000000,,-0.0162453447028,0.000283205859097,0.0162453447027,-0.000283205859205
14940000000,372,14940000000,,-0.0160494019932,0.000281937376059,0.0160494019931,-0.000281937376167
14994000000,373,14994000000,,-0.0158948435922,0.000280328961789,0.0158948435921,-0.000280328961896
15028000000,374,15028000000,,-0.0157231271012,0.000277758851262,0.0157231271011,-0.000277758851368
15059000000,375,15059000000,,-0.0154777166316,0.000276216276605,0.0154777166314,-0.000276216276711
15114000000,376,15114000000,,-0.0152125184335,0.000274792148364,0.0152125184334,-0.00027479214847
15140000000,377,15140000000,,-0.0149826747632,0.00027237449539,0.0149826747631,-0.000272374495496
15187000000,378,15187000000,,-0.0147367320548,0.000270646166297,0.0147367320547,-0.000270646166402
15227000000,379,15227000000,,-0.0145038658777,0.000268684398678,0.0145038658775,-0.000268684398783
15256000000,380,15256000000,,-0.0142847038551,0.000268700248997,0.014284703855,-0.000268700249102
15298000000,381,15298000000,,-0.0139241767883,0.000267246862433,0.0139241767882,-0.000267246862537
15342000000,382,15342000000,,-0.0137955445967,0.000263681609714,0.0137955445966,-0.000263681609818
15389000000,383,15389000000,,-0.0136530977599,0.00026156779411,0.0136530977597,-0.000261567794214
15410000000,384,15410000000,,-0.0134785340336,0.000259468803052,0.0134785340335,-0.000259468803155
15451000000,385,15451000000,,-0.0133305284304,0.000258244574899,0.0133305284302,-0.000258244575002
15507000000,386,15507000000,,-0.0131699295182,0.000256651343411,0.0131699295181,-0.000256651343513
15538000000,387,15538000000,,-0.0130281390651,0.000255665302531,0.0130281390649,-0.000255665302633
15570000000,388,15570000000,,-0.0128890196429,0.000254505341443,0.0128890196427,-0.000254505341545
15627000000,389,15627000000,,-0.0127648038604,0.00025373758297,0.0127648038603,-0.000253737583071
15660000000,390,15660000000,,-0.012659250444,0.000253119697818,0.0126592504439,-0.000253119697919
15710000000,391,15710000000,,-0.0125506136012,0.000252531657821,0.012550613601,-0.000252531657922
15746000000,392,15746000000,,-0.0124695353265,0.000252302645099,0.0124695353264,-0.000252302645199
15767000000,393,15767000000,,-0.0123819295087,0.000251853939126,0.0123819295086,-0.000251853939225
15803000000,394,15803000000,,-0.0123199084998,0.000251842982265,0.0123199084997,-0.000251842982364
15850000000,395,15850000000,,-0.0122538695704,0.000251374478535,0.0122538695703,-0.000251374478634
15894000000,396,15894000000,,-0.0122040120244,0.000251416429339,0.0122040120243,-0.000251416429438
15979000000,397,15979000000,,-0.0121551207729,0.000251051590481,0.0121551207728,-0.00025105159058
15995000000,398,15995000000,,-0.0121171700083,0.00025073717663,0.0121171700082,-0.000250737176728
16031000000,399,16031000000,,-0.0120831203099,0.000250613392016,0.0120831203097,-0.000250613392114
16074000000,400,16074000000,,-0.0120518959523,0.000250539524347,0.0120518959522,-0.000250539524445
16114000000,401,16114000000,,-0.0120285333002,0.000250578992822,0.0120285333001,-0.000250578992919
16132000000,402,16132000000,,-0.0120049908578,0.000250422711481,0.0120049908577,-0.000250422711579
16173000000,403,16173000000,,-0.0119893765059,0.000250544751831,0.0119893765058,-0.000250544751928
16216000000,404,16216000000,,-0.0119710603734,0.000250244523717,0.0119710603733,-0.000250244523813
16269000000,405,16269000000,,-0.011883076596,0.000250171643368,0.0118830765959,-0.000250171643464
16316000000,406,16316000000,,-0.0118365477193,0.00025161682795,0.0118365477192,-0.000251616828046
16332000000,407,16332000000,,-0.0118564406184,0.000252439877302,0.0118564406183,-0.000252439877397
16397000000,408,16397000000,,-0.0118566658323,0.000251741350966,0.0118566658322,-0.000251741351061
16410000000,409,16410000000,,-0.0118581109286,0.000251573872245,0.0118581109285,-0.00025157387234
16458000000,410,16458000000,,-0.0118500103223,0.000252616100703,0.0118500103222,-0.000252616100797
16493000000,411,16493000000,,-0.0118555324419,0.000253029364781,0.0118555324418,-0.000253029364875
16549000000,412,16549000000,,-0.011865843989,0.000253462027776,0.0118658439889,-0.00025346202787
16567000000,413,16567000000,,-0.0118876053037,0.000253961200055,0.0118876053036,-0.000253961200148
16604000000,414,16604000000,,-0.0119000055255,0.000254375621918,0.0119000055254,-0.000254375622011
16671000000,415,16671000000,,-0.0119221102746,0.000254771828047,0.0119221102745,-0.00025477182814
16686000000,416,16686000000,,-0.0119527531815,0.000255097737731,0.0119527531814,-0.000255097737823
16739000000,417,16739000000,,-0.0119706850148,0.000255272296828,0.0119706850147,-0.00025527229692
16775000000,418,16775000000,,-0.0119956801016,0.000255358290896,0.0119956801015,-0.000255358290988
16812000000,419,16812000000,,-0.012018658038,0.000255220259497,0.0120186580379,-0.000255220259589
16849000000,420,16849000000,,-0.0120379401504,0.000254894829728,0.0120379401503,-0.000254894829819
16892000000,421,16892000000,,-0.0120532872595,0.000254338162569,0.0120532872594,-0.00025433816266
16936000000,422,16936000000,,-0.0119770386842,0.000249370283115,0.0119770386841,-0.000249370283205
16963000000,423,16963000000,,-0.0119132389419,0.000260766525474,0.0119132389418,-0.000260766525564
17027000000,424,17027000000,,-0.0118805734858,0.000264624971257,0.0118805734857,-0.000264624971347
17051000000,425,17051000000,,-0.0118453257355,0.000266781654636,0.0118453257354,-0.000266781654725
17098000000,426,17098000000,,-0.0118185993067,0.000267517225198,0.0118185993066,-0.000267517225286
17156000000,427,17156000000,,-0.0117891463288,0.000267915857488,0.0117891463287,-0.000267915857576
17175000000,428,17175000000,,-0.0118340547041,0.000264599214346,0.011834054704,-0.000264599214433
17212000000,429,17212000000,,-0.0117846333562,0.0002671015337,0.0117846333561,-0.000267101533787
17250000000,430,17250000000,,-0.0117481334222,0.000267929018946,0.0117481334221,-0.000267929019033
17286000000,431,17286000000,,-0.0117127636465,0.000268480566398,0.0117127636464,-0.000268480566485
17328000000,432,17328000000,,-0.011675120282,0.000268808308738,0.0116751202819,-0.000268808308824
17385000000,433,17385000000,,-0.0116349018453,0.000268889430605,0.0116349018452,-0.000268889430691
17422000000,434,17422000000,,-0.0115924221738,0.000268788957178,0.0115924221737,-0.000268788957264
17469000000,435,17469000000,,-0.0115474132948,0.000268363958464,0.0115474132947,-0.00026836395855
17508000000,436,17508000000,,-0.0115010804936,0.000267507110426,0.0115010804935,-0.000267507110512
17545000000,437,17545000000,,-0.0114542325993,0.000266200312832,0.0114542325992,-0.000266200312918
17580000000,438,17580000000,,-0.0114075241345,0.000264520106262,0.0114075241344,-0.000264520106347
17615000000,439,17615000000,,-0.0113616683572,0.0002622714376,0.0113616683571,-0.000262271437685
17651000000,440,17651000000,,-0.011317607069,0.000259546876853,0.0113176070689,-0.000259546876938
17693000000,441,17693000000,,-0.0112763640581,0.000256213727428,0.011276364058,-0.000256213727512
17728000000,442,17728000000,,-0.0112387366667,0.000252545917171,0.0112387366666,-0.000252545917254
17777000000,443,17777000000,,-0.0112053513215,0.000248438857487,0.0112053513215,-0.00024843885757
17815000000,444,17815000000,,-0.0112593300684,0.000237485782062,0.0112593300683,-0.000237485782144
17844000000,445,17844000000,,-0.0112784358543,0.000232651607869,0.0112784358542,-0.00023265160795
17901000000,446,17901000000,,-0.0112739950476,0.000229748995134,0.0112739950475,-0.000229748995215
17941000000,447,17941000000,,-0.0112676506445,0.00022835396958,0.0112676506444,-0.00022835396966
17974000000,448,17974000000,,-0.0111852745685,0.000222326423407,0.0111852745684,-0.000222326423488
18008000000,449,18008000000,,-0.0111971540547,0.00021858945741,0.0111971540546,-0.00021858945749
18049000000,450,18049000000,,-0.0111985424137,0.0002157898071,0.0111985424136,-0.000215789807181
18104000000,451,18104000000,,-0.0112023873887,0.000214295002677,0.0112023873886,-0.000214295002758
18129000000,452,18129000000,,-0.0111958498405,0.000213232993896,0.0111958498404,-0.000213232993976
18170000000,453,18170000000,,-0.0112009817503,0.00020886007731,0.0112009817502,-0.00020886007739
18220000000,454,18220000000,,-0.011201924022,0.000210889659852,0.0112019240219,-0.000210889659932
18250000000,455,18250000000,,-0.0112050733502,0.000214068691436,0.0112050733501,-0.000214068691516
18297000000,456,18297000000,,-0.0112083215527,0.000217856873711,0.0112083215526,-0.000217856873791
18330000000,457,18330000000,,-0.0112113459431,0.000223232796588,0.011211345943,-0.000223232796667
18384000000,458,18384000000,,-0.0112132435726,0.000229898814264,0.0112132435726,-0.000229898814343
18436000000,459,18436000000,,-0.0112134425502,0.000238076239749,0.0112134425501,-0.000238076239827
18468000000,460,18468000000,,-0.011211591392,0.000249242424565,0.0112115913919,-0.000249242424643
18487000000,461,18487000000,,-0.0112055635722,0.000260904944018,0.0112055635721,-0.000260904944096
18532000000,462,18532000000,,-0.0111963401677,0.000269328570727,0.0111963401676,-0.000269328570804
18576000000,463,18576000000,,-0.0111824517995,0.000281849174471,0.0111824517994,-0.000281849174548
18624000000,464,18624000000,,-0.011164185149,0.00029435215386,0.0111641851489,-0.000294352153937
18652000000,465,18652000000,,-0.0110542896758,0.000308628934664,0.0110542896757,-0.000308628934739
18718000000,466,18718000000,,-0.0109971649457,0.000315898471951,0.0109971649456,-0.000315898472026
18731000000,467,18731000000,,-0.0109497554284,0.000314647451406,0.0109497554284,-0.000314647451481
18795000000,468,18795000000,,-0.010923747936,0.000313709028626,0.010923747936,-0.0003137090287
