%time,field.header.seq,field.header.stamp,field.header.frame_id,field.pose.position.x,field.pose.position.y,field.pose.position.z,field.pose.orientation.x,field.pose.orientation.y,field.pose.orientation.z,field.pose.orientation.w
1000000,0,1000000,world,0.0,0.0,0.74,0.0,0.0,0.0,1.0
11000000,1,11000000,world,-1.07738277069e-27,-1.09807001825e-27,0.739461,-5.3725141903e-27,4.12735521657e-27,1.15199516752e-27,1.0
21000000,2,21000000,world,1.63692024856e-24,1.51811157212e-24,0.737942,1.20292517363e-23,-1.19965837191e-23,-1.854574052e-24,1.0
31000000,3,31000000,world,-4.38394968409e-25,-6.00545634499e-25,0.735443,7.22102059036e-24,-1.67577970031e-23,7.60542676413e-25,1.0
41000000,4,41000000,world,-1.4288227372e-24,-1.79321964477e-24,0.731964,3.00119168489e-24,-2.37804484207e-23,1.87282292978e-24,1.0
51000000,5,51000000,world,-2.69206115799e-25,-7.55861801429e-25,0.727505,1.38393085235e-24,-2.25640175756e-23,9.00100114244e-26,1.0
61000000,6,61000000,world,4.36934927905e-25,3.89341348587e-26,0.722066,5.0410970436e-24,-1.98350052118e-23,-1.05020053119e-24,1.0
71000000,7,71000000,world,-1.86791788946e-24,-1.93013297106e-24,0.715647,-1.20644535193e-23,5.77375623005e-24,1.31598182171e-24,1.0
81000000,8,81000000,world,7.48519303337e-25,9.83142948158e-25,0.708248,-1.0824931521e-23,2.74627787874e-23,-2.20480911062e-24,1.0
91000000,9,91000000,world,5.31541237677e-26,9.80623698145e-25,0.699869,-2.88094606393e-23,7.37174355144e-23,-1.63422745255e-24,1.0
101000000,10,101000000,world,2.35839674353e-24,4.0055428591e-24,0.69051,-3.32832026127e-23,1.17540461049e-22,-4.32512836904e-24,1.0
111000000,11,111000000,world,-5.67645669778e-20,3.02768771341e-20,0.680171,-5.51010736325e-21,-1.18082153881e-21,-3.10370130988e-24,1.0
121000000,12,121000000,world,4.67457833601e-15,4.41228379561e-15,0.668852007577,2.78747688589e-14,-2.40260513642e-14,-5.47734507712e-15,1.0
131000000,13,131000000,world,3.15179779786e-14,2.95056722228e-14,0.656553620568,3.01634197181e-13,-2.85741253552e-13,-3.65369403776e-14,1.0
141000000,14,141000000,world,1.84853791646e-14,1.47285236472e-14,0.643278689093,6.99121102032e-13,-7.28643783292e-13,-1.77058457384e-14,1.0
151000000,15,151000000,world,-3.92625800536e-14,-7.46835361827e-14,0.629032608591,1.15328068223e-12,-2.26870648587e-12,9.56863296252e-14,1.0
161000000,16,161000000,world,-1.60885874098e-06,2.15637454773e-09,0.624998177956,-1.25893695503e-06,-1.71175609762e-06,-3.63895453629e-07,0.999999999998
171000000,17,171000000,world,3.69926373771e-06,2.01782667116e-06,0.62499650817,-2.18752290019e-06,2.83789127775e-06,-1.05236928155e-06,0.999999999993
181000000,18,181000000,world,-3.35133572515e-06,-3.58135185892e-06,0.624996450629,2.22196229585e-06,-2.93385741769e-06,-2.28834872709e-06,0.999999999991
191000000,19,191000000,world,4.44867872737e-06,1.03313418944e-06,0.624996390401,-2.268813428e-06,3.03344148131e-06,-3.646247709e-06,0.999999999986
201000000,20,201000000,world,-2.71256930562e-06,-4.37558516544e-06,0.624996555388,2.16544911327e-06,-2.85037318868e-06,-4.73357118781e-06,0.999999999982
211000000,21,211000000,world,4.85385331911e-06,8.3052163156e-08,0.624996507566,-2.18014061318e-06,2.93943502832e-06,-6.01827054145e-06,0.999999999975
221000000,22,221000000,world,-2.06515733278e-06,-5.1359535962e-06,0.624996679514,2.01714395915e-06,-2.74787444758e-06,-7.04941042576e-06,0.999999999969
231000000,23,231000000,world,6.18451222572e-06,3.13682360533e-06,0.624998306666,-3.64420924139e-07,-2.4837924931e-06,-6.32608371676e-06,0.999999999977
241000000,24,241000000,world,1.2179432928e-05,-6.32395713007e-07,0.624996780059,2.48511100174e-06,2.47573779752e-06,-6.68914664661e-06,0.999999999971
251000000,25,251000000,world,7.96018174355e-06,3.99654440493e-06,0.624998130377,-1.22609454966e-06,-1.09864345125e-06,-6.72410253265e-06,0.999999999976
261000000,26,261000000,world,9.54272238445e-06,-1.48925129574e-08,0.625000209866,-2.6620352773e-07,-5.43449028717e-07,-1.01500096687e-05,0.999999999948
271000000,27,271000000,world,9.41309625988e-06,-8.69027050391e-08,0.625000091147,1.14610958477e-07,-4.48419296853e-09,-9.96368803117e-06,0.99999999995
281000000,28,281000000,world,7.73657835971e-06,1.02961974064e-07,0.625001000214,1.42262516132e-08,-1.35669548958e-06,-1.00248156207e-05,0.999999999949
291000000,29,291000000,world,9.38032436022e-06,3.09086147375e-07,0.625000138348,-1.97106100008e-07,-2.40460226855e-08,-1.00720905738e-05,0.999999999949
301000000,30,301000000,world,9.37507728582e-06,-8.28546367508e-07,0.625000486406,6.75776892195e-07,-1.02384506993e-08,-1.00389551057e-05,0.999999999949
311000000,31,311000000,world,1.05117686209e-05,-2.92406513983e-06,0.624998669194,-8.27179926156e-08,1.76713719434e-06,-6.73766331346e-06,0.999999999976
321000000,32,321000000,world,8.37833986185e-06,-1.81248771131e-06,0.624999486633,-9.31559241953e-07,1.22524593791e-08,-6.59993089905e-06,0.999999999978
331000000,33,331000000,world,8.4308409279e-06,-4.49167883393e-06,0.624999327531,1.20792482488e-06,1.97558563283e-08,-6.6744064185e-06,0.999999999977
341000000,34,341000000,world,8.4107046006e-06,-1.59895682778e-06,0.624999407407,-1.06532778563e-06,-1.18935263049e-08,-6.6309401929e-06,0.999999999977
351000000,35,351000000,world,7.21816195841e-06,-2.32730820995e-06,0.624999129063,-3.14006589974e-07,-1.14144205094e-06,-6.70719472654e-06,0.999999999977
361000000,36,361000000,world,8.53656764535e-06,-3.36863062543e-06,0.624999630225,4.69213521754e-07,7.76531368358e-10,-6.61046277808e-06,0.999999999978
371000000,37,371000000,world,8.52303693807e-06,-1.67420761093e-06,0.624999318214,-8.95423641988e-07,3.80388003958e-09,-6.60695091511e-06,0.999999999978
381000000,38,381000000,world,8.50208579175e-06,-2.70623570947e-06,0.625000039516,-6.64246523044e-08,2.4760744082e-09,-6.62301570284e-06,0.999999999978
391000000,39,391000000,world,8.52721856117e-06,-2.75321697446e-06,0.624999989602,7.12332544055e-09,-6.23761748884e-09,-6.70959548508e-06,0.999999999977
401000000,40,401000000,world,8.40719550205e-06,-2.71131745806e-06,0.625000058841,3.35817066211e-09,-9.55707432306e-08,-6.74051899079e-06,0.999999999977
411000000,41,411000000,world,8.56929785327e-06,-2.76449014267e-06,0.62500002478,1.7280292532e-08,4.65238523163e-08,-6.49353842706e-06,0.999999999979
421000000,42,421000000,world,8.48863110322e-06,-2.6472263667e-06,0.62499999284,-1.36149089374e-08,-9.04823567183e-10,-6.28218478486e-06,0.99999999998
431000000,43,431000000,world,8.51822323038e-06,-2.7104543287e-06,0.624999990718,1.77396728018e-09,3.91279687014e-09,-6.34793487009e-06,0.99999999998
441000000,44,441000000,world,8.50795378601e-06,-2.66567675541e-06,0.624999036235,2.27953188793e-09,-1.86282942145e-09,-6.33341347406e-06,0.99999999998
451000000,45,451000000,world,8.53689959837e-06,-2.59931139786e-06,0.624999972426,1.28570186854e-08,-1.71736272284e-08,-6.33042840804e-06,0.99999999998
461000000,46,461000000,world,8.50809240307e-06,-2.59372769415e-06,0.624999990654,-2.0635994762e-09,1.68908220457e-09,-6.32466607197e-06,0.99999999998
471000000,47,471000000,world,8.48363951677e-06,-2.90641614811e-06,0.625000799089,2.65479873051e-07,-2.6354967599e-08,-6.35218534447e-06,0.99999999998
481000000,48,481000000,world,8.39088504319e-06,-2.5971561288e-06,0.625019577056,5.33846963281e-07,-1.71838537296e-07,-6.3755637867e-06,0.99999999998
491000000,49,491000000,world,8.23952229306e-06,-1.67664579276e-06,0.625091487552,7.78704091977e-07,-4.18203714148e-07,-6.39918452205e-06,0.999999999979
501000000,50,501000000,world,7.86963545429e-06,-1.31037913787e-06,0.625251878975,1.13377239756e-06,-8.3951478124e-07,-6.42338143497e-06,0.999999999978
511000000,51,511000000,world,7.37157220797e-06,-1.15845242162e-06,0.625535268937,1.56615491361e-06,-1.42643782917e-06,-6.44810658329e-06,0.999999999977
521000000,52,521000000,world,6.88435649093e-06,-5.63863405131e-07,0.625975336684,2.00915326051e-06,-2.16094971298e-06,-6.47306521443e-06,0.999999999975
531000000,53,531000000,world,6.41918823181e-06,4.09857917361e-07,0.626604917819,2.47690277981e-06,-3.03621265701e-06,-6.49859975144e-06,0.999999999971
541000000,54,541000000,world,5.98378630983e-06,1.7026857653e-06,0.62745601141,2.93814880178e-06,-4.04308222104e-06,-6.52507557688e-06,0.999999999966
551000000,55,551000000,world,5.43664952943e-06,2.93773167444e-06,0.628560669927,3.41947518724e-06,-5.14231226562e-06,-6.55231139385e-06,0.999999999959
561000000,56,561000000,world,4.60373823064e-06,3.67479409437e-06,0.62995161406,3.979739961e-06,-6.37430744476e-06,-6.58013182391e-06,0.99999999995
571000000,57,571000000,world,3.83636403801e-06,4.65069842084e-06,0.631660829282,4.54447326754e-06,-7.76888257975e-06,-6.6085601252e-06,0.999999999938
581000000,58,581000000,world,3.1346376307e-06,5.83373992801e-06,0.633719422781,5.12706951337e-06,-9.32101351334e-06,-6.63732748388e-06,0.999999999921
591000000,59,591000000,world,1.73486286278e-06,6.56116541687e-06,0.636157629024,5.80603500948e-06,-1.10939583321e-05,-6.66642524734e-06,0.999999999899
601000000,60,601000000,world,4.37882714415e-07,7.44183957931e-06,0.639004817353,6.49619096682e-06,-1.29827518983e-05,-6.69649567776e-06,0.999999999872
611000000,61,611000000,world,-7.59314395871e-07,8.48758091142e-06,0.642289380421,7.16197433893e-06,-1.49245785459e-05,-6.72745156511e-06,0.99999999984
621000000,62,621000000,world,-1.86368344675e-06,9.67704178433e-06,0.646033892399,7.81217028961e-06,-1.69034728402e-05,-6.75891223235e-06,0.999999999804
631000000,63,631000000,world,-2.88213904801e-06,1.09893817284e-05,0.650253788752,8.45667029669e-06,-1.90305014905e-05,-6.79098674504e-06,0.99999999976
641000000,64,641000000,world,-3.82692801691e-06,1.24045447067e-05,0.654963563936,9.11008292217e-06,-2.1302983388e-05,-6.82337541758e-06,0.999999999708
651000000,65,651000000,world,-4.712737999e-06,1.39035081263e-05,0.660177212015,9.78911002958e-06,-2.36949483709e-05,-6.85595922295e-06,0.999999999648
661000000,66,661000000,world,-5.55513782584e-06,1.54674254379e-05,0.665908240889,1.04726582689e-05,-2.61806566323e-05,-6.88952732143e-06,0.999999999579
671000000,67,671000000,world,-6.99135141221e-06,1.67844980333e-05,0.672169686449,1.11599187485e-05,-2.8744252075e-05,-6.92397775638e-06,0.999999999501
681000000,68,681000000,world,-8.70835034708e-06,1.79965312747e-05,0.678974126724,1.18461328969e-05,-3.13614256197e-05,-6.95890417937e-06,0.999999999414
691000000,69,691000000,world,-1.03711854626e-05,1.9255849286e-05,0.686333695716,1.25239131994e-05,-3.41126348276e-05,-6.99440823032e-06,0.999999999315
701000000,70,701000000,world,-1.26352587248e-05,2.03207391166e-05,0.694260096944,1.3231689696e-05,-3.70586374883e-05,-7.0301101476e-06,0.999999999201
711000000,71,711000000,world,-1.71344349381e-05,2.07199186164e-05,0.702764616794,1.40347557986e-05,-4.03292120815e-05,-7.06612371036e-06,0.999999999063
721000000,72,721000000,world,-2.22603899406e-05,2.10182352577e-05,0.711858138001,1.48336430233e-05,-4.36975612621e-05,-7.1031796122e-06,0.99999999891
731000000,73,731000000,world,-2.71459736379e-05,2.13980307384e-05,0.721546851615,1.55798357083e-05,-4.6941763921e-05,-7.14095093862e-06,0.999999998751
741000000,74,741000000,world,-3.16504313565e-05,2.19480464989e-05,0.73181337531,1.62738674724e-05,-5.01268266999e-05,-7.17915350824e-06,0.999999998585
751000000,75,751000000,world,-3.58177074156e-05,2.26997811202e-05,0.742633452891,1.69202405586e-05,-5.33321533647e-05,-7.21783451933e-06,0.999999998409
761000000,76,761000000,world,-3.9785448822e-05,2.35024180468e-05,0.753983958846,1.75481945571e-05,-5.65459790417e-05,-7.25652472518e-06,0.999999998221
771000000,77,771000000,world,-4.35790289195e-05,2.4346111378e-05,0.765842840438,1.81718763314e-05,-5.97203868527e-05,-7.29559023241e-06,0.999999998025
781000000,78,781000000,world,-4.72269905576e-05,2.52194515318e-05,0.778189062516,1.87454366706e-05,-6.28115864612e-05,-7.33555595618e-06,0.999999997825
791000000,79,791000000,world,-5.2080695562e-05,2.57975311857e-05,0.791002555598,1.92900067892e-05,-6.58516591269e-05,-7.37606096396e-06,0.999999997619
801000000,80,801000000,world,-5.70937121839e-05,2.63279037756e-05,0.804264167643,1.97942785549e-05,-6.88435282469e-05,-7.41692328332e-06,0.999999997407
811000000,81,811000000,world,-6.19447470633e-05,2.68856788637e-05,0.817955617683,2.02586256526e-05,-7.18006715865e-05,-7.45814525007e-06,0.999999997189
821000000,82,821000000,world,-6.66576624268e-05,2.74646365894e-05,0.832059452462,2.06954266745e-05,-7.47024568965e-05,-7.49932122134e-06,0.999999996968
831000000,83,831000000,world,-7.24978154961e-05,2.77979923719e-05,0.84655900528,2.11432329942e-05,-7.76399458191e-05,-7.54081074207e-06,0.999999996734
841000000,84,841000000,world,-7.86991239288e-05,2.80446174284e-05,0.861438357802,2.15413118756e-05,-8.04893202778e-05,-7.58307567918e-06,0.9999999965
851000000,85,851000000,world,-8.47328238272e-05,2.83149407347e-05,0.876676640727,2.18629481184e-05,-8.30984060288e-05,-7.62579095459e-06,0.999999996279
861000000,86,861000000,world,-9.06136829002e-05,2.86059929068e-05,0.892231386461,2.21264169816e-05,-8.55462040602e-05,-7.66874504911e-06,0.999999996067
871000000,87,871000000,world,-9.6359807774e-05,2.8914017012e-05,0.908057005128,2.23411287666e-05,-8.78974461421e-05,-7.71199497495e-06,0.999999995858
881000000,88,881000000,world,-0.000103098032405,2.90336050167e-05,0.924110463494,2.25407696469e-05,-9.02600875694e-05,-7.75529305212e-06,0.999999995642
891000000,89,891000000,world,-0.000110144425368,2.90894327425e-05,0.940351125981,2.27193608238e-05,-9.2530671476e-05,-7.798595096e-06,0.999999995431
901000000,90,901000000,world,-0.000118809111015,2.88967166154e-05,0.956740605051,2.28767278455e-05,-9.48231714019e-05,-7.84244306056e-06,0.999999995212
911000000,91,911000000,world,-0.00012779798498,2.86253547289e-05,0.973242623515,2.29669747389e-05,-9.69529398898e-05,-7.88675944892e-06,0.999999995005
921000000,92,921000000,world,-0.000136501369776,2.83942345293e-05,0.989822884687,2.29840810999e-05,-9.88072318418e-05,-7.93123278159e-06,0.999999994823
931000000,93,931000000,world,-0.000144927267103,2.82019247345e-05,1.00644950442,2.29431288426e-05,-0.000100482072456,-7.97586814881e-06,0.999999994657
941000000,94,941000000,world,-0.000153156759318,2.80483692174e-05,1.02310070256,2.28501551051e-05,-0.000101990754815,-8.02065473896e-06,0.999999994506
951000000,95,951000000,world,-0.000161391798486,2.79384536045e-05,1.03976215338,2.27136594034e-05,-0.000103339890881,-8.0654157545e-06,0.99999999437
961000000,96,961000000,world,-0.000169407418648,2.7853493327e-05,1.05642034216,2.25365591409e-05,-0.000104485008754,-8.11014225881e-06,0.999999994255
971000000,97,971000000,world,-0.000177639431121,2.77461750152e-05,1.07306237117,2.23083039195e-05,-0.000105461784583,-8.15523389143e-06,0.999999994157
981000000,98,981000000,world,-0.000186612827277,2.75600221975e-05,1.08967592902,2.20093640799e-05,-0.000106309239377,-8.20071890182e-06,0.999999994073
991000000,99,991000000,world,-0.000195379464321,2.73900081767e-05,1.10624926196,2.16311180154e-05,-0.000106887488739,-8.24634747554e-06,0.99999999402
1001000000,100,1001000000,world,-0.000203962136087,2.72326147829e-05,1.12277114571,2.11941148363e-05,-0.000107239327686,-8.29205761138e-06,0.999999993991
1011000000,101,1011000000,world,-0.000212387041416,2.70839175556e-05,1.13923085961,2.07058271244e-05,-0.000107383345953,-8.33789369048e-06,0.999999993985
1021000000,102,1021000000,world,-0.000220682732647,2.6940131945e-05,1.15561816204,2.01770013819e-05,-0.000107310981123,-8.38374804048e-06,0.999999994003
1031000000,103,1031000000,world,-0.000229681289714,2.68029675034e-05,1.1719232669,1.96048998855e-05,-0.000107102655028,-8.42952415978e-06,0.999999994037
1041000000,104,1041000000,world,-0.000238895749646,2.66652737688e-05,1.18813682207,1.89898037002e-05,-0.000106705862929,-8.47547082602e-06,0.999999994091
1051000000,105,1051000000,world,-0.00024799037298,2.65205967415e-05,1.20424981665,1.83027186106e-05,-0.000106087405937,-8.52174421298e-06,0.999999994169
1061000000,106,1061000000,world,-0.000257615846044,2.6386192767e-05,1.22025334908,1.75300288475e-05,-0.000105315304324,-8.56827920009e-06,0.999999994264
1071000000,107,1071000000,world,-0.000267193094778,2.62406872388e-05,1.23613883992,1.66915251557e-05,-0.000104301378919,-8.61486067354e-06,0.999999994384
1081000000,108,1081000000,world,-0.00027666531997,2.60801750984e-05,1.25189808603,1.58058836272e-05,-0.000103060465559,-8.66152224324e-06,0.999999994527
1091000000,109,1091000000,world,-0.000286050454485,2.59032755139e-05,1.26752324289,1.48803423939e-05,-0.000101583209382,-8.70825136411e-06,0.999999994692
1101000000,110,1101000000,world,-0.000295623846061,2.58051865836e-05,1.28300680761,1.39147436914e-05,-9.98894264795e-05,-8.75496596583e-06,0.999999994876
1111000000,111,1111000000,world,-0.000305299551955,2.57457086227e-05,1.29834160307,1.29055650232e-05,-9.79742978846e-05,-8.80159664717e-06,0.999999995079
1121000000,112,1121000000,world,-0.000314916981559,2.56572639271e-05,1.31352076261,1.18524117152e-05,-9.58357847615e-05,-8.84841200303e-06,0.999999995298
1131000000,113,1131000000,world,-0.000324491316134,2.55383846624e-05,1.32853794469,1.07287583978e-05,-9.34931124257e-05,-8.8954970693e-06,0.999999995532
1141000000,114,1141000000,world,-0.000334136159751,2.5632400081e-05,1.34338799855,9.50093269707e-06,-9.09795960252e-05,-8.94279754073e-06,0.999999995776
1151000000,115,1151000000,world,-0.000343763075882,2.56823115783e-05,1.35806621483,8.22110960921e-06,-8.82463033423e-05,-8.99011011116e-06,0.999999996032
1161000000,116,1161000000,world,-0.000353385745517,2.56880237796e-05,1.37256808164,6.90827745409e-06,-8.52846599999e-05,-9.03748256821e-06,0.999999996299
1171000000,117,1171000000,world,-0.000362995915325,2.56855017085e-05,1.38688927593,5.56644647112e-06,-8.20781616648e-05,-9.08490034193e-06,0.999999996575
1181000000,118,1181000000,world,-0.000372442976986,2.59460989532e-05,1.40102565513,4.17721796729e-06,-7.86036289787e-05,-9.13231873706e-06,0.99999999686
1191000000,119,1191000000,world,-0.000381932529935,2.61466147097e-05,1.41497324918,2.76336993258e-06,-7.4900008944e-05,-9.17962132558e-06,0.999999997149
1201000000,120,1201000000,world,-0.000391474425162,2.62873191762e-05,1.4287282531,1.31693576374e-06,-7.09980768106e-05,-9.22707806523e-06,0.999999997436
1211000000,121,1211000000,world,-0.000401076386601,2.63697458587e-05,1.44228904878,-1.88256879758e-07,-6.6928869138e-05,-9.27477384206e-06,0.999999997717
1221000000,122,1221000000,world,-0.000410679355974,2.6463286596e-05,1.45566928398,-1.76952635226e-06,-6.27277592787e-05,-9.32262549652e-06,0.999999997988
1231000000,123,1231000000,world,-0.000420103356963,2.67610832597e-05,1.46888896462,-3.42184384245e-06,-5.83192738544e-05,-9.37052996262e-06,0.99999999825
1241000000,124,1241000000,world,-0.000429627702456,2.69949362737e-05,1.48196756911,-5.09306623919e-06,-5.36836796165e-05,-9.41848543364e-06,0.999999998502
1251000000,125,1251000000,world,-0.000439257198718,2.71688903203e-05,1.49492402736,-6.77475548729e-06,-4.87957678721e-05,-9.46648041362e-06,0.999999998742
1261000000,126,1261000000,world,-0.000448436667195,2.75705334703e-05,1.50777672603,-8.4867400104e-06,-4.35838623137e-05,-9.51443410183e-06,0.999999998969
1271000000,127,1271000000,world,-0.000456940133438,2.83195714811e-05,1.52054351445,-1.02546962369e-05,-3.80526910029e-05,-9.56232838883e-06,0.999999999178
1281000000,128,1281000000,world,-0.000465631542205,2.89826606818e-05,1.53324171159,-1.20481881036e-05,-3.23394193067e-05,-9.61044792245e-06,0.999999999358
1291000000,129,1291000000,world,-0.000474512627998,2.95623923885e-05,1.54588811396,-1.38971147312e-05,-2.64985599817e-05,-9.65886602522e-06,0.999999999506
1301000000,130,1301000000,world,-0.000482415917442,3.05452711972e-05,1.55849900406,-1.58553843203e-05,-2.04638498385e-05,-9.7074765702e-06,0.999999999618
1311000000,131,1311000000,world,-0.00049036746741,3.15481709743e-05,1.57109015923,-1.78362698868e-05,-1.42324245282e-05,-9.75611736702e-06,0.999999999692
1321000000,132,1321000000,world,-0.000498577746539,3.24524357121e-05,1.58367686139,-1.98068123354e-05,-7.77555229905e-06,-9.80484416456e-06,0.999999999726
1331000000,133,1331000000,world,-0.000507037429627,3.32657557743e-05,1.59627315104,-2.17528040757e-05,-1.07337684331e-06,-9.85356065211e-06,0.999999999714
1341000000,134,1341000000,world,-0.000515730085581,3.39972853784e-05,1.60888469495,-2.36824387463e-05,5.85284843752e-06,-9.90208816775e-06,0.999999999653
1351000000,135,1351000000,world,-0.000524232377119,3.48157976543e-05,1.62151235248,-2.56242444201e-05,1.29785615421e-05,-9.95075977105e-06,0.999999999538
1361000000,136,1361000000,world,-0.000531378843017,3.61812937921e-05,1.63415689707,-2.76607305397e-05,2.03585792987e-05,-9.99987212114e-06,0.99999999936
1371000000,137,1371000000,world,-0.000538804651389,3.74504900576e-05,1.64681907244,-2.97373494576e-05,2.77154547261e-05,-1.00491885431e-05,0.999999999123
1381000000,138,1381000000,world,-0.000546496583544,3.86320249718e-05,1.65949959348,-3.18110529411e-05,3.51468034359e-05,-1.00985150767e-05,0.999999998825
1391000000,139,1391000000,world,-0.000553007490382,4.01472033028e-05,1.67219914715,-3.3895923221e-05,4.28972021458e-05,-1.01479873872e-05,0.999999998454
1401000000,140,1401000000,world,-0.000558893067801,4.19735926903e-05,1.68491839381,-3.59743219181e-05,5.09272208083e-05,-1.01975389199e-05,0.999999998004
1411000000,141,1411000000,world,-0.000565118284487,4.36961010065e-05,1.69765796823,-3.80009425058e-05,5.9114670905e-05,-1.02469144597e-05,0.999999997478
1421000000,142,1421000000,world,-0.00057166070788,4.53233281038e-05,1.71041848039,-3.99883279679e-05,6.7376277244e-05,-1.02963053812e-05,0.999999996878
1431000000,143,1431000000,world,-0.000578489241544,4.68661645243e-05,1.72320051653,-4.19678670116e-05,7.56401789545e-05,-1.03460353598e-05,0.999999996205
1441000000,144,1441000000,world,-0.000584759365292,4.85595371925e-05,1.73600463994,-4.39850393252e-05,8.38783608493e-05,-1.03960454813e-05,0.999999995461
1451000000,145,1451000000,world,-0.000589452177371,5.08330264393e-05,1.74883049229,-4.60512337798e-05,9.22462757907e-05,-1.0446162421e-05,0.99999999463
1461000000,146,1461000000,world,-0.000594476962613,5.3012675719e-05,1.7616741185,-4.80542175981e-05,0.000100676986684,-1.0496347255e-05,0.999999993722
1471000000,147,1471000000,world,-0.000596959752154,5.59685767424e-05,1.77453084559,-5.0071830867e-05,0.000109499507085,-1.05467095436e-05,0.999999992696
1481000000,148,1481000000,world,-0.000598030455676,5.93604992151e-05,1.787396195,-5.20579518776e-05,0.000118576712789,-1.05970130131e-05,0.999999991559
1491000000,149,1491000000,world,-0.000599445845741,6.26225297049e-05,1.80026587366,-5.39653059368e-05,0.000127626622482,-1.0647229727e-05,0.999999990343
1501000000,150,1501000000,world,-0.000599731601283,6.61390216155e-05,1.81313576497,-5.58528359898e-05,0.000136711003295,-1.06978069632e-05,0.999999989038
1511000000,151,1511000000,world,-0.000600606527829,6.94952038164e-05,1.82600192253,-5.76994040553e-05,0.000145526921717,-1.07486329626e-05,0.999999987689
1521000000,152,1521000000,world,-0.000602036307468,7.27031829265e-05,1.8388605619,-5.94862321187e-05,0.000154053369872,-1.07994828612e-05,0.999999986306
1531000000,153,1531000000,world,-0.000603605732474,7.58760819877e-05,1.85170747895,-6.11784475821e-05,0.000162495529377,-1.08503669158e-05,0.999999984867
1541000000,154,1541000000,world,-0.000602414670685,7.97715918217e-05,1.86453551832,-6.2841681135e-05,0.00017118638741,-1.09014696858e-05,0.999999983314
1551000000,155,1551000000,world,-0.000601831231804,8.35161418103e-05,1.8773368041,-6.43707345928e-05,0.0001797653301,-1.09524801259e-05,0.99999998171
1561000000,156,1561000000,world,-0.000601813155852,8.71223586916e-05,1.89010379864,-6.57777745443e-05,0.000188165240358,-1.10033067739e-05,0.999999980073
1571000000,157,1571000000,world,-0.000601083132747,9.08955797145e-05,1.90282928755,-6.71017465871e-05,0.000196434794926,-1.10543698668e-05,0.999999978394
1581000000,158,1581000000,world,-0.000598091764649,9.52048494608e-05,1.91550636513,-6.84079111139e-05,0.00020464907364,-1.11058351004e-05,0.999999976658
1591000000,159,1591000000,world,-0.000595720760958,9.93698174568e-05,1.92812842246,-6.96246269665e-05,0.000212409232946,-1.11573819867e-05,0.999999974955
1601000000,160,1601000000,world,-0.000593924756744,0.000103405537574,1.94068913069,-7.0713787743e-05,0.000219850611738,-1.12088958596e-05,0.99999997327
1611000000,161,1611000000,world,-0.000592643357402,0.000107329460208,1.95318242964,-7.16601178074e-05,0.000227033683265,-1.12604575246e-05,0.999999971597
1621000000,162,1621000000,world,-0.000590999067139,0.000111334314101,1.96560251519,-7.24747162065e-05,0.000234055856811,-1.13120501496e-05,0.999999969919
1631000000,163,1631000000,world,-0.000586626400149,0.000115932770181,1.97794382737,-7.32098619636e-05,0.000241140021768,-1.13636475052e-05,0.999999968181
1641000000,164,1641000000,world,-0.000582786311636,0.000120425148355,1.99020104329,-7.379192714e-05,0.000247860980079,-1.14152039908e-05,0.999999966495
1651000000,165,1651000000,world,-0.000579426882059,0.000124824531091,2.00236870815,-7.42413181585e-05,0.000254163914294,-1.14669956767e-05,0.999999964879
1661000000,166,1661000000,world,-0.000575407431001,0.000129359750279,2.01443790382,-7.45965013396e-05,0.000260097811392,-1.15190343313e-05,0.999999963326
1671000000,167,1671000000,world,-0.000569350939441,0.000134307194009,2.0263979631,-7.48743564846e-05,0.000265817984572,-1.15712146686e-05,0.9999999618
1681000000,168,1681000000,world,-0.000563800009087,0.000139165295589,2.03823867608,-7.4999124624e-05,0.000271143089396,-1.16233797427e-05,0.999999960361
1691000000,169,1691000000,world,-0.000558319916294,0.000144006238999,2.04995028845,-7.49735971906e-05,0.000276125398799,-1.16755853961e-05,0.999999958999
1701000000,170,1701000000,world,-0.000549885336077,0.000149307375573,2.06152347899,-7.48403711878e-05,0.000281074881437,-1.17279951323e-05,0.999999957629
1711000000,171,1711000000,world,-0.000542012041649,0.000154522758128,2.07294934446,-7.45445038404e-05,0.000285584964516,-1.17801913874e-05,0.999999956373
1721000000,172,1721000000,world,-0.000534659147168,0.000159662679475,2.08421937318,-7.40767906371e-05,0.000289607154859,-1.18324216393e-05,0.99999995525
1731000000,173,1731000000,world,-0.000527771035836,0.000164738684604,2.09532556585,-7.34591947637e-05,0.000293115010104,-1.18848445688e-05,0.999999954273
1741000000,174,1741000000,world,-0.000521279305709,0.000169764534311,2.10626591328,-7.26973354725e-05,0.000296084363708,-1.19373862794e-05,0.999999953453
1751000000,175,1751000000,world,-0.000515107129459,0.000174755838099,2.11704577709,-7.17827888879e-05,0.000298564091134,-1.19898965515e-05,0.999999952781
1761000000,176,1761000000,world,-0.000509173943773,0.000179728047082,2.12767079559,-7.07109224653e-05,0.000300561332452,-1.20423990599e-05,0.999999952259
1771000000,177,1771000000,world,-0.000501395607794,0.000184921904904,2.13814640261,-6.95048885828e-05,0.000302281934741,-1.20951073185e-05,0.999999951824
1781000000,178,1781000000,world,-0.000492513559122,0.000190258791898,2.14847783742,-6.81498132032e-05,0.000303632968266,-1.21478534937e-05,0.999999951508
1791000000,179,1791000000,world,-0.000481553560005,0.000195804198384,2.15867014824,-6.66452493904e-05,0.000304694304465,-1.22006494076e-05,0.999999951285
1801000000,180,1801000000,world,-0.000468658026666,0.000201550003317,2.16872820042,-6.49711091243e-05,0.00030542122288,-1.22537467613e-05,0.999999951173
1811000000,181,1811000000,world,-0.000456169038232,0.000207285007763,2.17865668319,-6.31225213663e-05,0.00030554353849,-1.23070390714e-05,0.999999951254
1821000000,182,1821000000,world,-0.000444056730353,0.000213015051658,2.18846011263,-6.10983185993e-05,0.00030507469505,-1.23604354739e-05,0.999999951522
1831000000,183,1831000000,world,-0.000432278221541,0.000218746437614,2.19814283898,-5.88994480986e-05,0.000304047304673,-1.24137767457e-05,0.999999951966
1841000000,184,1841000000,world,-0.000420581350578,0.000224146889528,2.20770905226,-5.64985358041e-05,0.000302396406655,-1.24673171934e-05,0.999999952604
1851000000,185,1851000000,world,-0.000409115373796,0.000229581455141,2.21716272898,-5.39355237138e-05,0.000300075703191,-1.25208208742e-05,0.999999953444
1861000000,186,1861000000,world,-0.000397305210683,0.000234955262573,2.22650679725,-5.11965107174e-05,0.000297128892882,-1.2574311959e-05,0.999999954468
1871000000,187,1871000000,world,-0.000384464644325,0.000240149807014,2.23574338926,-4.82485835545e-05,0.000293632465113,-1.26279241709e-05,0.999999955646
1881000000,188,1881000000,world,-0.000371780341717,0.000245420470955,2.24487454078,-4.51029552953e-05,0.000289475445313,-1.26816559541e-05,0.999999957004
1891000000,189,1891000000,world,-0.000359206173493,0.000250772408637,2.25390220926,-4.17745322713e-05,0.000284699388585,-1.273558551e-05,0.999999958519
1901000000,190,1901000000,world,-0.000346206557051,0.00025583803418,2.26282827718,-3.82215449371e-05,0.000279460247881,-1.27898807432e-05,0.999999960139
1911000000,191,1911000000,world,-0.000332993232061,0.000260815002637,2.27165455557,-3.44921174316e-05,0.000273659505047,-1.28442472773e-05,0.999999961878
1921000000,192,1921000000,world,-0.000319793948057,0.00026591159178,2.28038278627,-3.06273214304e-05,0.00026712255792,-1.28985789612e-05,0.999999963771
1931000000,193,1931000000,world,-0.000306568689209,0.000271127719906,2.28901464883,-2.66316455001e-05,0.000259827662213,-1.2952826497e-05,0.999999965806
1941000000,194,1941000000,world,-0.000293279523324,0.000276460589726,2.29755215284,-2.24963851252e-05,0.000251776533123,-1.30068478985e-05,0.999999967967
1951000000,195,1951000000,world,-0.000279891405504,0.000281905596735,2.30599789597,-1.81782155381e-05,0.000243031389942,-1.30607631593e-05,0.999999970217
1961000000,196,1961000000,world,-0.000266384116461,0.000287356252013,2.31435444005,-1.36665310982e-05,0.000233654534617,-1.31149318411e-05,0.999999972523
1971000000,197,1971000000,world,-0.000252822170862,0.000292044986054,2.32262424992,-8.88344004545e-06,0.000223758806949,-1.31698664735e-05,0.99999997484
1981000000,198,1981000000,world,-0.000246431009687,0.000292303661489,2.33080970083,-3.4486235335e-06,0.000212737083503,-1.32267400809e-05,0.999999977278
1991000000,199,1991000000,world,-0.000260900919933,0.000282572165953,2.33891307844,3.15758775366e-06,0.000198941436973,-1.32872330621e-05,0.999999980118
2001000000,200,2001000000,world,-0.000273324187076,0.000273917196051,2.34693656685,9.69884805431e-06,0.000184645050554,-1.33473339802e-05,0.999999982817
2011000000,201,2011000000,world,-0.000283485701525,0.000266430186757,2.35488227681,1.61280927155e-05,0.000169922842186,-1.340691558e-05,0.999999985343
2021000000,202,2021000000,world,-0.000296365777692,0.000258179334441,2.36275224077,2.26504055336e-05,0.000154372513159,-1.34666271539e-05,0.999999987737
2031000000,203,2031000000,world,-0.000313976886887,0.000248373972499,2.37054841196,2.93673405196e-05,0.000137986606923,-1.35270754877e-05,0.999999989957
2041000000,204,2041000000,world,-0.000328383928083,0.000240069299889,2.3782726664,3.5917793395e-05,0.000121815992593,-1.35871953102e-05,0.999999991843
2051000000,205,2051000000,world,-0.00033958021566,0.000233245520518,2.3859267367,4.22753927305e-05,0.00010616933602,-1.36468711168e-05,0.999999993377
2061000000,206,2061000000,world,-0.000347628549565,0.000227848226764,2.39351173295,4.83513149219e-05,9.09854782423e-05,-1.37059313495e-05,0.999999994598
2071000000,207,2071000000,world,-0.00035713587318,0.000223012985777,2.40102847749,5.41589543634e-05,7.54802821913e-05,-1.37652084555e-05,0.99999999559
2081000000,208,2081000000,world,-0.000364966170733,0.000219148865246,2.40847775842,5.96266359477e-05,6.00021735584e-05,-1.38241507118e-05,0.999999996327
2091000000,209,2091000000,world,-0.000369728636172,0.000216504728971,2.41586033388,6.47248001957e-05,4.47701257015e-05,-1.38823726775e-05,0.999999996807
2101000000,210,2101000000,world,-0.000371611040373,0.000214974026851,2.42317693282,6.95005494553e-05,2.99422309426e-05,-1.39399176547e-05,0.999999997039
2111000000,211,2111000000,world,-0.000370828642996,0.000214442750465,2.43042825587,7.39529453243e-05,1.56464988329e-05,-1.3997151503e-05,0.999999997045
2121000000,212,2121000000,world,-0.000369179615203,0.000215198264764,2.4376149765,7.80265412708e-05,1.87266578081e-06,-1.40545631257e-05,0.999999996855
2131000000,213,2131000000,world,-0.000366269366719,0.000216958762747,2.4447376289,8.17283563475e-05,-1.11537804579e-05,-1.41117972193e-05,0.999999996498
2141000000,214,2141000000,world,-0.000361937328571,0.000219673139154,2.45179554584,8.50084583951e-05,-2.37132621813e-05,-1.41688109857e-05,0.999999996005
2151000000,215,2151000000,world,-0.000357700496381,0.000223873489595,2.45878739971,8.78017470986e-05,-3.6078507182e-05,-1.42262204713e-05,0.999999995393
2161000000,216,2161000000,world,-0.000351623904563,0.000228382318986,2.46571190782,9.024392967e-05,-4.80240974625e-05,-1.42831268148e-05,0.999999994673
2171000000,217,2171000000,world,-0.000343909527263,0.000233096141982,2.47256783885,9.23692172292e-05,-5.94913433793e-05,-1.43394089088e-05,0.999999993862
2181000000,218,2181000000,world,-0.000334759134117,0.000237924835852,2.47935401052,9.42105729803e-05,-7.03811996782e-05,-1.43953470419e-05,0.999999992982
2191000000,219,2191000000,world,-0.00032417756055,0.000243231098982,2.48606928776,9.57060719802e-05,-8.06071408128e-05,-1.44512713417e-05,0.999999992067
2201000000,220,2201000000,world,-0.000312123106512,0.000249484420379,2.4927125807,9.68020131488e-05,-9.00232692832e-05,-1.45072199359e-05,0.999999991157
2211000000,221,2211000000,world,-0.00029923959215,0.000255559418022,2.49928284229,9.76154569428e-05,-9.87392159665e-05,-1.45628012725e-05,0.999999990255
2221000000,222,2221000000,world,-0.000282809591959,0.000261873005516,2.50577906781,9.81059230953e-05,-0.000106688114788,-1.46177236292e-05,0.99999998939
2231000000,223,2231000000,world,-0.0002408388122,0.00027201647806,2.51220029947,9.79177602087e-05,-0.00011161422982,-1.46673325609e-05,0.99999998887
2241000000,224,2241000000,world,-0.000200227959611,0.000281568925442,2.51854560206,9.75463948366e-05,-0.000116377427176,-1.47170822407e-05,0.999999988362
2251000000,225,2251000000,world,-0.000161326242334,0.000290472224413,2.52481435685,9.70149280228e-05,-0.000121045408658,-1.4766840152e-05,0.999999987859
2261000000,226,2261000000,world,-0.000124368999829,0.000298692292417,2.53100705936,9.63290996957e-05,-0.000125672521783,-1.48170140798e-05,0.999999987354
2271000000,227,2271000000,world,-9.65530451513e-05,0.000304713759096,2.53712444977,9.5635514844e-05,-0.000131020891811,-1.48688365037e-05,0.999999986733
2281000000,228,2281000000,world,-7.22043827719e-05,0.000309761263197,2.54316724336,9.48097613193e-05,-0.000136426036137,-1.492120858e-05,0.999999986088
2291000000,229,2291000000,world,-4.94561969454e-05,0.000314248914558,2.54913612653,9.38392416607e-05,-0.000141839310673,-1.49737634873e-05,0.999999985426
2301000000,230,2301000000,world,-2.82340414931e-05,0.000318208686695,2.55503175852,9.27376396775e-05,-0.000147375073892,-1.50265729487e-05,0.999999984727
2311000000,231,2311000000,world,-1.20963652443e-05,0.000321226563969,2.56085477173,9.15644967069e-05,-0.000153433017203,-1.50801428085e-05,0.999999983923
2321000000,232,2321000000,world,2.90815410144e-06,0.000323811605322,2.56660577637,9.0269451763e-05,-0.000159585305739,-1.51336743998e-05,0.999999983077
2331000000,233,2331000000,world,1.69003686325e-05,0.000326001407249,2.57228487646,8.88442143717e-05,-0.000165770761944,-1.51873600582e-05,0.999999982198
2341000000,234,2341000000,world,2.89576122311e-05,0.000327934416072,2.57789023823,8.72446937448e-05,-0.000172047254895,-1.52416041254e-05,0.999999981278
2351000000,235,2351000000,world,3.92632948104e-05,0.000329634841207,2.58341963068,8.54498300746e-05,-0.000178302596176,-1.52962951446e-05,0.999999980336
2361000000,236,2361000000,world,4.89795704485e-05,0.000331026276052,2.58887091328,8.34872541963e-05,-0.000184383586761,-1.53510445457e-05,0.999999979398
2371000000,237,2371000000,world,5.81975412383e-05,0.000332136881127,2.59424203155,8.13881502776e-05,-0.000190466521982,-1.5405871876e-05,0.999999978431
2381000000,238,2381000000,world,6.6988102689e-05,0.000332992308072,2.59953101376,7.91617716849e-05,-0.000196573574666,-1.54607718098e-05,0.999999977427
2391000000,239,2391000000,world,7.54059254158e-05,0.000333616210598,2.60473596756,7.68191951681e-05,-0.000202691856584,-1.55156076446e-05,0.999999976387
2401000000,240,2401000000,world,8.16979229934e-05,0.000334376164371,2.60985507596,7.43056894402e-05,-0.000208960127147,-1.55705996716e-05,0.999999975286
2411000000,241,2411000000,world,8.76018800118e-05,0.000334961324639,2.61488659624,7.16341503002e-05,-0.000215136456952,-1.5625788496e-05,0.99999997417
2421000000,242,2421000000,world,9.0949813337e-05,0.000335864001406,2.61982885413,6.87177984856e-05,-0.000221386813393,-1.56816419799e-05,0.99999997301
2431000000,243,2431000000,world,9.30486950923e-05,0.0003368211659,2.62468024382,6.55748065111e-05,-0.000227454848893,-1.57377822288e-05,0.999999971858
2441000000,244,2441000000,world,9.52731080778e-05,0.000337554748886,2.62943922391,6.22868966459e-05,-0.000233273115148,-1.57938401169e-05,0.999999970727
2451000000,245,2451000000,world,9.76455369606e-05,0.000338074632448,2.63410501439,5.88843348799e-05,-0.000238957421458,-1.58498810111e-05,0.99999996959
2461000000,246,2461000000,world,9.91465207169e-05,0.000338678355058,2.63868068082,5.53510869923e-05,-0.000244605261579,-1.59060358092e-05,0.999999968426
2471000000,247,2471000000,world,0.000100728859144,0.000339104357131,2.64317043709,5.17173543587e-05,-0.000250085977139,-1.5961972466e-05,0.999999967264
2481000000,248,2481000000,world,0.000102489619508,0.000339329102226,2.64757834084,4.79551613797e-05,-0.000255325684972,-1.60177739427e-05,0.999999966126
2491000000,249,2491000000,world,0.000104397766912,0.0003393635088,2.65190829915,4.40301955109e-05,-0.000260280856328,-1.60737646517e-05,0.999999965028
2501000000,250,2501000000,world,0.000105034527217,0.000339680168113,2.65616407312,3.98592181736e-05,-0.000265033490392,-1.61302137799e-05,0.999999963954
2511000000,251,2511000000,world,0.000103797036948,0.000340478965539,2.66034928412,3.54380726688e-05,-0.000269572922331,-1.61870376983e-05,0.999999962906
2521000000,252,2521000000,world,0.000102788270013,0.000341058199842,2.66446741969,3.09159205464e-05,-0.000273805878542,-1.62437707394e-05,0.999999961905
2531000000,253,2531000000,world,0.000100728968041,0.000341966239776,2.66852190689,2.62582891591e-05,-0.000277895948797,-1.63007383552e-05,0.999999960909
2541000000,254,2541000000,world,9.70738697486e-05,0.000343432441312,2.67251658,2.14632416715e-05,-0.000281877147099,-1.63579423734e-05,0.999999959909
2551000000,255,2551000000,world,9.37237888577e-05,0.000344628000708,2.6764553683,1.65912334844e-05,-0.000285501758942,-1.64148269561e-05,0.999999958972
2561000000,256,2561000000,world,9.06442041674e-05,0.000345559905334,2.68034205472,1.16103280359e-05,-0.000288725011401,-1.64717276829e-05,0.999999958116
2571000000,257,2571000000,world,8.77886775652e-05,0.000346240483035,2.68418028112,6.47883504964e-06,-0.000291515676572,-1.65288260816e-05,0.999999957352
2581000000,258,2581000000,world,8.51015434938e-05,0.000346686878158,2.68797355326,1.17599465858e-06,-0.000293823193611,-1.65860048772e-05,0.999999956696
2591000000,259,2591000000,world,8.11726593949e-05,0.00034763198885,2.69172524479,-4.29630221939e-06,-0.000295804539388,-1.66434384069e-05,0.999999956102
2601000000,260,2601000000,world,7.60553575362e-05,0.000349040948584,2.6954386036,-9.87611250524e-06,-0.000297515573474,-1.67011565865e-05,0.999999955554
2611000000,261,2611000000,world,7.10955272649e-05,0.00035019873039,2.69911675641,-1.54638115518e-05,-0.000298795451708,-1.67587474736e-05,0.999999955101
2621000000,262,2621000000,world,6.62468599259e-05,0.00035112260623,2.70276271136,-2.1061717906e-05,-0.000299622166308,-1.68160491803e-05,0.99999995475
2631000000,263,2631000000,world,6.1457543941e-05,0.000351833334302,2.70637936317,-2.67204189386e-05,-0.000299977508047,-1.68732062504e-05,0.999999954507
2641000000,264,2641000000,world,5.66730025515e-05,0.000352355185803,2.70996949719,-3.24819514612e-05,-0.000299859767191,-1.69305805947e-05,0.999999954371
2651000000,265,2651000000,world,4.92620272357e-05,0.000354423594679,2.71353527422,-3.8566911668e-05,-0.000299540142283,-1.69889778715e-05,0.99999995425
2661000000,266,2661000000,world,4.11993904411e-05,0.000357083443689,2.71707491856,-4.48288884555e-05,-0.000298778785891,-1.70476609183e-05,0.999999954215
2671000000,267,2671000000,world,3.04579336358e-05,0.000361975952589,2.72058502442,-5.13362676416e-05,-0.00029779197367,-1.71073939465e-05,0.999999954196
2681000000,268,2681000000,world,1.99209093425e-05,0.000366464376198,2.72406232279,-5.77722709157e-05,-0.000296260911644,-1.71669429125e-05,0.999999954299
2691000000,269,2691000000,world,9.57491003002e-06,0.000370551243202,2.72750367632,-6.41115703893e-05,-0.000294157149795,-1.72261827285e-05,0.999999954532
2701000000,270,2701000000,world,-6.05839516746e-07,0.00037425103264,2.73090607558,-7.04009160659e-05,-0.000291474875768,-1.72850582004e-05,0.999999954894
2711000000,271,2711000000,world,-1.06555507345e-05,0.000377588796856,2.73426663363,-7.66758576938e-05,-0.00028823200184,-1.73439558701e-05,0.999999955371
2721000000,272,2721000000,world,-2.04354807798e-05,0.000381256384611,2.73758258092,-8.30473253066e-05,-0.000284442504868,-1.74033070734e-05,0.999999955946
2731000000,273,2731000000,world,-3.00031607918e-05,0.000385237059428,2.74085126028,-8.95128642448e-05,-0.000280152106634,-1.74629241653e-05,0.999999956599
2741000000,274,2741000000,world,-3.99000164098e-05,0.000390162640724,2.74407124469,-9.60223231698e-05,-0.000275342791824,-1.75229565255e-05,0.99999995733
2751000000,275,2751000000,world,-5.03001244997e-05,0.000396585725873,2.74724450076,-0.000102576365676,-0.000269981771077,-1.75837201766e-05,0.999999958139
2761000000,276,2761000000,world,-6.07686288328e-05,0.000402562096462,2.75037352297,-0.00010893603657,-0.0002639905841,-1.7644201216e-05,0.999999959065
2771000000,277,2771000000,world,-7.13427142376e-05,0.000408116750849,2.75346071041,-0.000115117420594,-0.00025737010952,-1.77042494963e-05,0.999999960098
2781000000,278,2781000000,world,-8.20570183828e-05,0.000413285167998,2.75650837089,-0.00012116600569,-0.000250175872774,-1.77640992427e-05,0.999999961208
2791000000,279,2791000000,world,-9.29431174864e-05,0.000418111000269,2.75951872438,-0.000127119724533,-0.000242466620668,-1.7824043626e-05,0.999999962366
2801000000,280,2801000000,world,-0.000104027282356,0.00042264357188,2.76249390625,-0.000133008846281,-0.000234352552001,-1.78840150599e-05,0.999999963534
2811000000,281,2811000000,world,-0.000115474323075,0.000427474020073,2.76543597026,-0.000138823906749,-0.000225812681013,-1.794406824e-05,0.999999964707
2821000000,282,2821000000,world,-0.000127484397365,0.000433310910422,2.76834653339,-0.00014455010639,-0.000216406276509,-1.80085065764e-05,0.999999965975
2831000000,283,2831000000,world,-0.000124745665881,0.000451652861542,2.77122414259,-0.000151366637593,-0.000203875864402,-1.80927712716e-05,0.999999967598
2841000000,284,2841000000,world,-0.000113410173618,0.000477320250545,2.77406556156,-0.000158666170439,-0.000188901018061,-1.81929894148e-05,0.999999969405
2851000000,285,2851000000,world,-0.000103960145973,0.000501451512044,2.77686764793,-0.000165537024329,-0.000172786086925,-1.83029069795e-05,0.999999971204
2861000000,286,2861000000,world,-9.65350010738e-05,0.000523968779741,2.77962738982,-0.00017195538937,-0.000155773780357,-1.84223688194e-05,0.999999972913
2871000000,287,2871000000,world,-9.11964557448e-05,0.000544855354121,2.78234189809,-0.00017791102403,-0.000138145654847,-1.85509136831e-05,0.99999997446
2881000000,288,2881000000,world,-8.79426272761e-05,0.000564144399621,2.78500840117,-0.000183347689934,-0.000120168878993,-1.86878915246e-05,0.999999975797
2891000000,289,2891000000,world,-5.11911997384e-05,0.000584315173876,2.78762424685,-0.000188378279766,-9.78809024409e-05,-1.88475756523e-05,0.999999977289
2901000000,290,2901000000,world,2.18158993489e-05,0.000602182791291,2.7901868797,-0.000192603541892,-7.0913592224e-05,-1.90310188781e-05,0.999999978756
2911000000,291,2911000000,world,8.80693316771e-05,0.000618621546684,2.79269384076,-0.000196082008471,-4.39483640921e-05,-1.92199583478e-05,0.999999979625
2921000000,292,2921000000,world,0.000147222818842,0.000633756061152,2.79514278237,-0.00019883598931,-1.73484646919e-05,-1.94138518728e-05,0.999999979893
2931000000,293,2931000000,world,0.000199173506171,0.000647722158131,2.79753145203,-0.000200870394562,8.42528511941e-06,-1.9612520915e-05,0.999999979598
2941000000,294,2941000000,world,0.000244010234859,0.000660660673424,2.79985770297,-0.000202206663886,3.2984968392e-05,-1.98154845018e-05,0.999999978816
2951000000,295,2951000000,world,0.000281409660507,0.000672111192073,2.80212103354,-0.000202785050264,5.53310392634e-05,-2.00156546442e-05,0.999999977708
2961000000,296,2961000000,world,0.000307286778941,0.000677583622444,2.80432458665,-0.000202081292148,7.49548559986e-05,-2.02118241015e-05,0.999999976568
2971000000,297,2971000000,world,0.000327420975877,0.000682811655344,2.80647194243,-0.000200686114077,9.27207860514e-05,-2.04024223682e-05,0.999999975356
2981000000,298,2981000000,world,0.000342339959177,0.000687970139719,2.80856655114,-0.000198630478644,0.000108645030783,-2.05877391004e-05,0.999999974159
2991000000,299,2991000000,world,0.000352584742389,0.000693203807599,2.81061173339,-0.000195941290933,0.000122689715517,-2.07678493264e-05,0.999999973061
3001000000,300,3001000000,world,0.000354904105141,0.000697988939089,2.81261068546,-0.00019254457071,0.000134317777495,-2.09420946277e-05,0.999999972223
3011000000,301,3011000000,world,0.000320703958398,0.000697478324534,2.81456631255,-0.000187941893026,0.000140488477601,-2.11008765933e-05,0.999999972248
3021000000,302,3021000000,world,0.000276962357314,0.000694899257189,2.81648009424,-0.00018248571989,0.000144156276329,-2.1256728011e-05,0.999999972733
3031000000,303,3031000000,world,0.000213874581251,0.000686933153685,2.81835294517,-0.000175850806432,0.000144524248716,-2.14080112223e-05,0.999999973865
3041000000,304,3041000000,world,0.000153113451537,0.000680474883183,2.82018572527,-0.00016886530719,0.000143991582949,-2.15578089392e-05,0.999999975143
3051000000,305,3051000000,world,9.53439386731e-05,0.000675624203886,2.82197927221,-0.000161606738239,0.00014271181239,-2.17064343722e-05,0.999999976523
3061000000,306,3061000000,world,4.10257265565e-05,0.000672427698093,2.82373439117,-0.000154125680508,0.000140854153985,-2.18540062498e-05,0.999999977964
3071000000,307,3071000000,world,-8.01545698588e-06,0.00067400827182,2.8254518565,-0.00014673536467,0.000138736011063,-2.19993933242e-05,0.999999979369
3081000000,308,3081000000,world,-4.97643455853e-05,0.000689194382924,2.827132404,-0.000140276802203,0.000136691720193,-2.21382916918e-05,0.999999980574
3091000000,309,3091000000,world,-8.79073935335e-05,0.000704997200538,2.82877676006,-0.000133432022299,0.00013443479383,-2.227755799e-05,0.999999981813
3101000000,310,3101000000,world,-0.000122076421462,0.000720930200979,2.83038561038,-0.000126121226374,0.000132138374327,-2.24172357577e-05,0.999999983065
3111000000,311,3111000000,world,-0.000148885022751,0.000734569937748,2.83195961549,-0.000118141452565,0.000130202804865,-2.25594898918e-05,0.99999998429
3121000000,312,3121000000,world,-0.000172782268705,0.000748525288676,2.83349941123,-0.000109817527971,0.000128126292247,-2.27016921726e-05,0.999999985504
3131000000,313,3131000000,world,-0.000194015904334,0.000762716720003,2.83500569948,-0.000101150376039,0.000125917118545,-2.2843866589e-05,0.999999986696
3141000000,314,3141000000,world,-0.000213058408172,0.000776216738067,2.83648055026,-9.20252459319e-05,0.000123563980643,-2.29859509829e-05,0.999999987867
3151000000,315,3151000000,world,-0.000230572259601,0.000787366474466,2.83792701807,-8.21736719073e-05,0.00012104586425,-2.31282938032e-05,0.99999998903
3161000000,316,3161000000,world,-0.000246098840541,0.000798797549532,2.83934806601,-7.18414555935e-05,0.000118453774142,-2.32708064815e-05,0.999999990133
3171000000,317,3171000000,world,-0.000259858450882,0.000810495008505,2.84074654645,-6.10058268955e-05,0.000115824803979,-2.34134357434e-05,0.999999991157
3181000000,318,3181000000,world,-0.000272060959578,0.000822437666995,2.84212520376,-4.97072701169e-05,0.000113204779026,-2.35559353855e-05,0.999999992079
3191000000,319,3191000000,world,-0.000288894584539,0.000814236784433,2.84348668198,-3.59198141612e-05,0.000109848473859,-2.36998014478e-05,0.999999993041
3201000000,320,3201000000,world,-0.000308081920457,0.000794208307082,2.8448335181,-2.06376892749e-05,0.000105992097522,-2.38443354996e-05,0.999999993886
3211000000,321,3211000000,world,-0.000325597880377,0.000776553717205,2.84616815341,-5.46128515438e-06,0.00010208666154,-2.39882660895e-05,0.999999994487
3221000000,322,3221000000,world,-0.000341534115928,0.000761442985931,2.84749293916,9.65037316399e-06,9.81796421924e-05,-2.41314841481e-05,0.999999994843
3231000000,323,3231000000,world,-0.000359861907198,0.000735803255696,2.84881013717,2.60604749363e-05,9.39097408243e-05,-2.42752199289e-05,0.999999994956
3241000000,324,3241000000,world,-0.000376592390781,0.000713564391069,2.85012192184,4.22323657775e-05,8.97751263774e-05,-2.44186200099e-05,0.99999999478
3251000000,325,3251000000,world,-0.000391812716623,0.000694757496936,2.85143037962,5.80680681507e-05,8.58740029179e-05,-2.45614799584e-05,0.999999994325
3261000000,326,3261000000,world,-0.000406874269821,0.000675353974526,2.8527374827,7.36891078032e-05,8.19894025471e-05,-2.47039436629e-05,0.999999993619
3271000000,327,3271000000,world,-0.000420687938539,0.000658990008594,2.85404511709,8.8554588496e-05,7.81779872175e-05,-2.48457788539e-05,0.999999992714
3281000000,328,3281000000,world,-0.000433210521794,0.000645968488797,2.85535509649,0.000102553520813,7.44678448628e-05,-2.49868363357e-05,0.999999991656
3291000000,329,3291000000,world,-0.000444547868505,0.000636090490065,2.85666916498,0.000115746620398,7.08879345099e-05,-2.51269485959e-05,0.999999990473
3301000000,330,3301000000,world,-0.000454807709167,0.000629120153774,2.85798899963,0.000128212353324,6.74745193253e-05,-2.52664499116e-05,0.999999989185
3311000000,331,3311000000,world,-0.000464179971304,0.000625372935555,2.85931621328,0.000139861735399,6.42461164469e-05,-2.54056298114e-05,0.999999987833
3321000000,332,3321000000,world,-0.000472803423103,0.000624806108785,2.86065235664,0.000150668661855,6.12609254065e-05,-2.55443757621e-05,0.999999986447
3331000000,333,3331000000,world,-0.000480647667614,0.000626233024753,2.86199890374,0.000160574670387,5.85006994284e-05,-2.56823929268e-05,0.999999985067
3341000000,334,3341000000,world,-0.000487802985152,0.000629364268238,2.86335658853,0.000169509819181,5.58649662718e-05,-2.58197938401e-05,0.999999983739
3351000000,335,3351000000,world,-0.000494356063481,0.00063392587866,2.86472523599,0.000177490588374,5.33511788179e-05,-2.59565427882e-05,0.999999982489
3361000000,336,3361000000,world,-0.000500387301589,0.000639661435984,2.86610462132,0.000184585389034,5.09670237792e-05,-2.60924763463e-05,0.999999981325
3371000000,337,3371000000,world,-0.000505970130618,0.000646333451063,2.86749452859,0.000190887508025,4.87309556955e-05,-2.62278210287e-05,0.99999998025
3381000000,338,3381000000,world,-0.000510613194717,0.000655476477032,2.86889475109,0.000196212507231,4.67104467141e-05,-2.63627259287e-05,0.999999979312
3391000000,339,3391000000,world,-0.000508168721696,0.000687957196421,2.87030509862,0.000198353189222,4.55707949062e-05,-2.64951552882e-05,0.999999978939
3401000000,340,3401000000,world,-0.000505173839333,0.000721733037239,2.87172537038,0.000199657755834,4.46235198874e-05,-2.66269887136e-05,0.999999978718
3411000000,341,3411000000,world,-0.000502506750838,0.000753832331105,2.87315538117,0.000200488176232,4.36810302356e-05,-2.67585642512e-05,0.99999997859
3421000000,342,3421000000,world,-0.000500245312096,0.000783988766104,2.87459495409,0.000200953041485,4.27119164412e-05,-2.68898995217e-05,0.999999978535
3431000000,343,3431000000,world,-0.000498440482927,0.000812027421806,2.87604391924,0.000201150598498,4.1697503194e-05,-2.70208420764e-05,0.999999978535
3441000000,344,3441000000,world,-0.000499239312774,0.000829209526092,2.87750210992,0.000202030348979,4.04040670071e-05,-2.71521462845e-05,0.999999978407
3451000000,345,3451000000,world,-0.000500634790184,0.000843723167545,2.8789692154,0.000202780694985,3.90438922616e-05,-2.72835541583e-05,0.999999978306
3461000000,346,3461000000,world,-0.000503137368725,0.000855471394634,2.88044253213,0.000203417300198,3.75805839785e-05,-2.74152398551e-05,0.999999978229
3471000000,347,3471000000,world,-0.000507033614219,0.000864081226301,2.88191764129,0.000203992706224,3.60325251151e-05,-2.75470816732e-05,0.999999978165
3481000000,348,3481000000,world,-0.000511082077317,0.000871490947288,2.88339026391,0.000204314220947,3.44494423944e-05,-2.76787070245e-05,0.999999978151
3491000000,349,3491000000,world,-0.00051523954905,0.000877824049065,2.88485629707,0.000204383082643,3.28124629684e-05,-2.78101628313e-05,0.999999978189
3501000000,350,3501000000,world,-0.000519150338347,0.000883116201687,2.88631180683,0.000204215641408,3.11643936876e-05,-2.79412293997e-05,0.999999978272
3511000000,351,3511000000,world,-0.000521878072462,0.00088724993082,2.8877530209,0.000203830350439,2.96180862864e-05,-2.80715643548e-05,0.999999978394
3521000000,352,3521000000,world,-0.000524718618833,0.00089063723365,2.8891763222,0.000203177067652,2.8044859152e-05,-2.82019554438e-05,0.999999978569
3531000000,353,3531000000,world,-0.000527661914799,0.00089336134152,2.89057825161,0.000202214951836,2.64601639587e-05,-2.83325036802e-05,0.999999978803
3541000000,354,3541000000,world,-0.000530698034122,0.000895494781324,2.89195634465,0.000200927552546,2.49134265456e-05,-2.8463028536e-05,0.999999979099
3551000000,355,3551000000,world,-0.000533838680999,0.000897091481146,2.89330967334,0.000199333703053,2.33633213563e-05,-2.85934271087e-05,0.999999979451
3561000000,356,3561000000,world,-0.000537253174437,0.000898135866241,2.89463748127,0.000197448805712,2.17349663464e-05,-2.87238435255e-05,0.999999979858
3571000000,357,3571000000,world,-0.000540711226737,0.000898756913511,2.89593904197,0.000195273490968,2.00551797936e-05,-2.88541142939e-05,0.999999980317
3581000000,358,3581000000,world,-0.000544321730929,0.00089899592734,2.89721365768,0.000192799383627,1.83216117524e-05,-2.89841031531e-05,0.999999980826
3591000000,359,3591000000,world,-0.000548123228411,0.000898885499814,2.89846065822,0.000190001436834,1.65461352839e-05,-2.91140804483e-05,0.999999981389
3601000000,360,3601000000,world,-0.00055191904435,0.000898446410003,2.8996793999,0.000186833642213,1.47637474291e-05,-2.92442272974e-05,0.99999998201
3611000000,361,3611000000,world,-0.00055570092583,0.000897699373689,2.9008692645,0.00018326493688,1.30154405808e-05,-2.9374429485e-05,0.999999982691
3621000000,362,3621000000,world,-0.000559462760744,0.00089666296143,2.9020296582,0.000179329406906,1.13199937887e-05,-2.95044850421e-05,0.999999983421
3631000000,363,3631000000,world,-0.000563197889666,0.000895352988022,2.90316001063,0.000175070233447,9.5907275624e-06,-2.96344670425e-05,0.99999998419
3641000000,364,3641000000,world,-0.000567013073229,0.000893845808999,2.90425977398,0.000170495985182,7.81271352931e-06,-2.97643829439e-05,0.999999984992
3651000000,365,3651000000,world,-0.000571040547256,0.000892229175281,2.90532847213,0.000165606964612,5.97878662372e-06,-2.98941086465e-05,0.999999985822
3661000000,366,3661000000,world,-0.00057501440681,0.000890355606407,2.90636602088,0.000160373121336,4.13581843811e-06,-3.00236049424e-05,0.999999986681
3671000000,367,3671000000,world,-0.000578977809134,0.000888300180484,2.90737250412,0.000154741594772,2.2930882131e-06,-3.01532441432e-05,0.99999998757
3681000000,368,3681000000,world,-0.000583274359512,0.000886607392759,2.90834800322,0.000148609300054,4.41855381498e-07,-3.02831377154e-05,0.999999988499
3691000000,369,3691000000,world,-0.000587493757846,0.000884631909939,2.9092925959,0.000142058558306,-1.32163653737e-06,-3.04129355232e-05,0.999999989446
3701000000,370,3701000000,world,-0.000592018646327,0.000883028836113,2.91020635725,0.000135120469091,-3.1110227826e-06,-3.05427325753e-05,0.9999999904
3711000000,371,3711000000,world,-0.000596604389989,0.0008813860848,2.91108935909,0.00012787279423,-4.92990260907e-06,-3.06725014465e-05,0.999999991342
3721000000,372,3721000000,world,-0.000601082080696,0.000879417056428,2.91194167048,0.000120373180513,-6.75339904217e-06,-3.08020709491e-05,0.999999992258
3731000000,373,3731000000,world,-0.00060545509571,0.000877124806075,2.91276345867,0.000112573482934,-8.56529765185e-06,-3.09313156913e-05,0.999999993149
3741000000,374,3741000000,world,-0.000609729255312,0.000874516682897,2.91355528945,0.000104414302436,-1.03490852101e-05,-3.10605848511e-05,0.999999994013
3751000000,375,3751000000,world,-0.000613912364148,0.000871603897668,2.91431780543,9.58388800374e-05,-1.2088100537e-05,-3.11900245347e-05,0.999999994848
3761000000,376,3761000000,world,-0.000618128701248,0.000868734351206,2.91505162431,8.67833210982e-05,-1.37474555207e-05,-3.13195169267e-05,0.999999995649
3771000000,377,3771000000,world,-0.000623106348225,0.000868184515116,2.91575733999,7.71345293332e-05,-1.54168447502e-05,-3.14491523537e-05,0.999999996412
3781000000,378,3781000000,world,-0.000628540669612,0.000869126916675,2.91643552263,6.7066772005e-05,-1.71318156144e-05,-3.15789078332e-05,0.999999997106
3791000000,379,3791000000,world,-0.000633823115151,0.00086952837807,2.91708672012,5.68390791281e-05,-1.8821801793e-05,-3.17085153475e-05,0.999999997705
3801000000,380,3801000000,world,-0.00063895641703,0.000869384835697,2.9177114594,4.64401859607e-05,-2.0473758277e-05,-3.18377988701e-05,0.999999998205
3811000000,381,3811000000,world,-0.000643947497878,0.000868705502501,2.91831024689,3.57806110468e-05,-2.20683954815e-05,-3.19669406045e-05,0.999999998605
3821000000,382,3821000000,world,-0.000649814291039,0.000874019304434,2.91888356968,2.41128541232e-05,-2.36996547858e-05,-3.20966861813e-05,0.999999998913
3831000000,383,3831000000,world,-0.000659429938889,0.000903819802603,2.91943189557,9.46538871222e-06,-2.56256453203e-05,-3.22283071232e-05,0.999999999108
3841000000,384,3841000000,world,-0.000668632113059,0.000931188649836,2.91995567154,-5.1375862775e-06,-2.73593130853e-05,-3.23596562497e-05,0.999999999089
3851000000,385,3851000000,world,-0.00067748464504,0.00096056506182,2.92045540477,-1.99069185207e-05,-2.89834927839e-05,-3.24911031995e-05,0.999999998854
3861000000,386,3861000000,world,-0.000686017452004,0.000993731501262,2.92093236757,-3.4893221194e-05,-3.04972198476e-05,-3.26227537406e-05,0.999999998394
3871000000,387,3871000000,world,-0.000694102586771,0.00102347827607,2.92138824159,-4.92340382802e-05,-3.186729853e-05,-3.27539169694e-05,0.999999997744
3881000000,388,3881000000,world,-0.00070175639146,0.00104979674715,2.92182464911,-6.29854323546e-05,-3.30696875557e-05,-3.28845578677e-05,0.999999996929
3891000000,389,3891000000,world,-0.00070900281666,0.00107276529072,2.92224315004,-7.61486291942e-05,-3.40900102542e-05,-3.30150482656e-05,0.999999995975
3901000000,390,3901000000,world,-0.000715084397695,0.00109217359137,2.92264524441,-8.86915760581e-05,-3.48314529421e-05,-3.31456568687e-05,0.999999994911
3911000000,391,3911000000,world,-0.000720678078826,0.00110850549864,2.92303237432,-0.000100572694342,-3.53269941388e-05,-3.3275987431e-05,0.999999993765
3921000000,392,3921000000,world,-0.000726029283486,0.00112208999207,2.92340592642,-0.000111558575154,-3.56341740377e-05,-3.34058882068e-05,0.999999992584
3931000000,393,3931000000,world,-0.000731178951768,0.00113318148282,2.92376726992,-0.000121584068564,-3.57792430166e-05,-3.35354092319e-05,0.999999991406
