%time,field.header.seq,field.header.stamp,field.header.frame_id,field.twist.linear.x,field.twist.linear.y,field.twist.linear.z,field.twist.angular.x,field.twist.angular.y,field.twist.angular.z
26000000,1,26000000,,-0.0164422386714,-0.0251596319761,-0.0436682597276,0.0,0.0,0.0
38000000,2,38000000,,0.0173326330244,0.0735694514924,-0.135361468219,0.0,0.0,0.0
55000000,4,55000000,,0.0149419919502,-0.0044601754774,-0.359698866664,0.0,0.0,0.0
79000000,6,79000000,,0.0188988517752,-0.036805361802,-0.562687595755,0.0,0.0,0.0
89000000,7,89000000,,0.0758761310961,0.00617718198006,-0.659098310909,0.0,0.0,0.0
94000000,8,94000000,,0.0252384454748,0.00375668104961,-0.77828802723,0.0,0.0,0.0
101000000,9,101000000,,0.00396989428702,-0.00427136343861,-0.833280860523,0.0,0.0,0.0
111000000,10,111000000,,-0.0307397019569,-0.0183750666664,-0.949570293056,0.0,0.0,0.0
121000000,11,121000000,,0.00743930974999,0.00657508483986,-1.01470656269,0.0,0.0,0.0
131000000,12,131000000,,0.000576476937397,0.0191832200092,-1.13997187926,0.0,0.0,0.0
141000000,13,141000000,,0.0029362895439,-0.000233916594753,-1.25293013813,0.0,0.0,0.0
152000000,14,152000000,,0.00479605726537,-0.0107659725964,-1.3266484158,0.0,0.0,0.0
163000000,15,163000000,,-0.0142050593278,0.00602687253213,-1.40522376017,0.0,0.0,0.0
172000000,16,172000000,,0.00720651404,0.0159398995981,-0.410031327865,0.0,0.0,0.0
179000000,17,179000000,,-0.0003142464881,-0.00166493326373,0.018844052394,0.0,0.0,0.0
196000000,18,196000000,,-0.00797937070456,-0.0192878291129,-0.0401163200735,0.0,0.0,0.0
202000000,19,202000000,,0.00646345707165,-0.00975625242729,0.009179790198,0.0,0.0,0.0
211000000,20,211000000,,0.00923563396476,0.00870212722588,-0.0418980735018,0.0,0.0,0.0
222000000,21,222000000,,-0.0114565413729,-0.0055451011973,-0.0156523006202,0.0,0.0,0.0
232000000,22,232000000,,0.00906276187192,0.0130993972965,-0.0186676841208,0.0,0.0,0.0
241000000,23,241000000,,-0.00329424434203,-0.0151189230235,-0.0118898600432,0.0,0.0,0.0
253000000,24,253000000,,0.00686458479471,-0.0366579174503,-0.00678605052894,0.0,0.0,0.0
261000000,25,261000000,,0.00183885375791,0.0154858267613,0.00201035306058,0.0,0.0,0.0
271000000,26,271000000,,0.0239751089277,-0.000520560878836,-0.0333227160506,0.0,0.0,0.0
282000000,27,282000000,,-0.00600869709399,0.0150500844861,0.0272456677649,0.0,0.0,0.0
291000000,28,291000000,,0.00288139974615,-0.00992235728206,0.0183428401144,0.0,0.0,0.0
301000000,29,301000000,,-0.0394791688491,0.0200282709809,0.0265148538418,0.0,0.0,0.0
312000000,30,312000000,,0.0281179015022,0.0136991576212,-0.0160660876185,0.0,0.0,0.0
323000000,31,323000000,,-0.0431418558869,0.00653028183888,-0.0289507827597,0.0,0.0,0.0
331000000,32,331000000,,-0.00134330509949,0.0528856046412,-0.0319975362293,0.0,0.0,0.0
341000000,33,341000000,,-0.01602910445,-0.00238949100729,-0.00251011846509,0.0,0.0,0.0
351000000,34,351000000,,-0.0271754270433,-0.0261806097606,-0.0114578885045,0.0,0.0,0.0
361000000,35,361000000,,0.0150395845653,0.0262432103262,-0.0115413012255,0.0,0.0,0.0
371000000,36,371000000,,-0.0013272909291,-0.00235614364255,0.0357294298199,0.0,0.0,0.0
381000000,37,381000000,,-0.0201770775574,-0.0114725287687,-0.00712310617178,0.0,0.0,0.0
391000000,38,391000000,,0.0228495408715,0.0605500242432,0.0260592045875,0.0,0.0,0.0
401000000,39,401000000,,0.00206975671056,0.0241376968509,0.0307008335766,0.0,0.0,0.0
412000000,40,412000000,,0.00389420212533,0.0291248401226,-0.0105961426382,0.0,0.0,0.0
421000000,41,421000000,,-0.00676919114159,-0.00856795456856,-0.00265038512266,0.0,0.0,0.0
432000000,42,432000000,,0.0204551592924,-0.0266581477518,0.00978866825685,0.0,0.0,0.0
441000000,43,441000000,,-0.0131013452554,0.0161151560578,0.0172723621295,0.0,0.0,0.0
458000000,44,458000000,,-0.0165086394691,0.0259543323946,0.0184204172846,0.0,0.0,0.0
463000000,45,463000000,,-0.0272189433069,0.0128667937753,0.0371231119552,0.0,0.0,0.0
472000000,46,472000000,,0.00831285688006,0.0109084578222,0.0281605677442,0.0,0.0,0.0
483000000,47,483000000,,-0.00920308889133,-0.0403995025871,0.0201062695308,0.0,0.0,0.0
492000000,48,492000000,,-0.000692163179811,-0.0170120420724,0.0158878642567,0.0,0.0,0.0
501000000,49,501000000,,-0.0278101092219,0.0193766577922,0.00647846504481,0.0,0.0,0.0
511000000,50,511000000,,-0.00778708319094,0.0129095897968,-0.00653237809774,0.0,0.0,0.0
528000000,51,528000000,,-0.0543635865721,-0.00149032418466,0.0738504952757,0.0,0.0,0.0
543000000,52,543000000,,0.0135036369063,-0.0369228491793,0.0430265131116,0.0,0.0,0.0
546000000,53,546000000,,-0.0145830141313,-0.0511194683764,0.0523740428361,0.0,0.0,0.0
551000000,54,551000000,,0.00641586105574,0.0340105572454,0.101224608972,0.0,0.0,0.0
562000000,55,562000000,,0.00676575223999,0.017481679244,0.135638872968,0.0,0.0,0.0
572000000,56,572000000,,-0.0216591494446,-0.00793316500639,0.168418706354,0.0,0.0,0.0
581000000,57,581000000,,0.0130239638944,-0.00702405224232,0.201224474886,0.0,0.0,0.0
591000000,58,591000000,,0.00945334232209,-0.00342296246972,0.185633607402,0.0,0.0,0.0
602000000,59,602000000,,-0.0192900270364,0.000956101605754,0.27265337834,0.0,0.0,0.0
611000000,60,611000000,,0.00237257311443,0.00305766277456,0.301975149655,0.0,0.0,0.0
621000000,61,621000000,,0.00709373006033,-0.0324699913539,0.321755392139,0.0,0.0,0.0
631000000,62,631000000,,0.0234865702497,0.00265508363591,0.365249482739,0.0,0.0,0.0
643000000,63,643000000,,-0.0196627799844,0.0187353746905,0.426340728223,0.0,0.0,0.0
651000000,64,651000000,,-0.0123973386563,0.0236005175253,0.445091132754,0.0,0.0,0.0
661000000,65,661000000,,0.0239180981995,0.0118031440067,0.518134618242,0.0,0.0,0.0
671000000,66,671000000,,-0.0147873944732,-0.0275599264979,0.562282497923,0.0,0.0,0.0
681000000,67,681000000,,-0.0175928101801,0.0169180757181,0.610566505466,0.0,0.0,0.0
691000000,68,691000000,,0.0447943823797,-0.00185296560664,0.64812630513,0.0,0.0,0.0
701000000,69,701000000,,0.00630272201179,0.0077203894385,0.718978901413,0.0,0.0,0.0
712000000,70,712000000,,0.0295668941795,-0.0196161276843,0.808357336539,0.0,0.0,0.0
721000000,71,721000000,,-0.0268839478985,0.0322277125772,0.879084291974,0.0,0.0,0.0
731000000,72,731000000,,-0.0345320875671,-0.0212934333715,0.908243004741,0.0,0.0,0.0
742000000,73,742000000,,0.0198177354362,0.0313998952284,0.97926059098,0.0,0.0,0.0
754000000,74,754000000,,0.0279743714375,-0.0212410817656,1.04406269944,0.0,0.0,0.0
765000000,75,765000000,,-0.00793712823057,-0.0164925982348,1.07803464733,0.0,0.0,0.0
771000000,76,771000000,,0.0190586036962,-0.000652076425963,1.09407479625,0.0,0.0,0.0
781000000,77,781000000,,-0.049817272556,-0.025018919782,1.20169217056,0.0,0.0,0.0
792000000,78,792000000,,-0.0208643678826,0.0197031538124,1.27629094429,0.0,0.0,0.0
802000000,79,802000000,,-0.0396019697063,-0.0198141253393,1.28518739183,0.0,0.0,0.0
813000000,80,813000000,,-0.046998671839,0.0206407254497,1.34725271708,0.0,0.0,0.0
821000000,81,821000000,,-0.0444766885055,-0.013153273762,1.39214688778,0.0,0.0,0.0
832000000,82,832000000,,0.00502406971085,0.000353706098946,1.41810742584,0.0,0.0,0.0
841000000,83,841000000,,0.00921692936707,-0.00483227272118,1.45261753825,0.0,0.0,0.0
851000000,84,851000000,,-0.032132208232,0.00942376860764,1.45263844302,0.0,0.0,0.0
862000000,85,862000000,,-0.00375914299824,-0.00176756993303,1.51071419889,0.0,0.0,0.0
871000000,86,871000000,,-0.0356312026845,0.0123504415845,1.5721944915,0.0,0.0,0.0
887000000,87,887000000,,-0.0210943324829,0.0118502992997,1.56488108245,0.0,0.0,0.0
891000000,88,891000000,,0.0181386706747,-0.000844094449438,1.59254782285,0.0,0.0,0.0
903000000,89,903000000,,-0.0615138146835,0.0123403648211,1.63033999481,0.0,0.0,0.0
911000000,90,911000000,,-0.0353595413387,0.02211660165,1.64537057701,0.0,0.0,0.0
921000000,91,921000000,,-0.0243916466965,0.0120938607834,1.69790794147,0.0,0.0,0.0
931000000,92,931000000,,0.00594923328017,-0.0163439833334,1.65554179245,0.0,0.0,0.0
941000000,93,941000000,,0.0106023298762,-0.0110437097181,1.63946072169,0.0,0.0,0.0
954000000,94,954000000,,0.0265293384941,-0.00674306712097,1.66740606427,0.0,0.0,0.0
961000000,95,961000000,,0.010889743996,-0.0398364006893,1.65954676386,0.0,0.0,0.0
971000000,96,971000000,,0.0118201901531,-0.0208265101879,1.64759540376,0.0,0.0,0.0
981000000,97,981000000,,0.0126883502423,0.0021154973744,1.66774905038,0.0,0.0,0.0
994000000,98,994000000,,0.0165017062305,0.00422002671943,1.66990295822,0.0,0.0,0.0
1006000000,99,1006000000,,0.0170840363974,0.035282881382,1.64937093426,0.0,0.0,0.0
1013000000,100,1013000000,,-0.00479899010578,0.00707454989117,1.62672215351,0.0,0.0,0.0
1021000000,101,1021000000,,-0.00706110209051,-0.0474663830921,1.6379739768,0.0,0.0,0.0
1031000000,102,1031000000,,-0.00669368025629,0.0289650654166,1.60007138231,0.0,0.0,0.0
1041000000,103,1041000000,,-0.00139601899394,0.018044166643,1.63495849411,0.0,0.0,0.0
1051000000,104,1051000000,,-0.0195971834588,-0.00763025474701,1.58020708033,0.0,0.0,0.0
1062000000,105,1062000000,,0.0454538952428,-0.0117236501545,1.59405352331,0.0,0.0,0.0
1074000000,106,1074000000,,-0.0129696849852,0.0383487520296,1.584753933,0.0,0.0,0.0
1081000000,107,1081000000,,-0.0456713824201,-0.0525562302304,1.60646879168,0.0,0.0,0.0
1092000000,108,1092000000,,0.0250133483692,-0.0164238359069,1.58014134778,0.0,0.0,0.0
1104000000,109,1104000000,,-0.023108764002,-0.0113384347552,1.58989385645,0.0,0.0,0.0
1111000000,110,1111000000,,0.0386153186709,0.00460719677363,1.52755886815,0.0,0.0,0.0
1121000000,111,1121000000,,0.0290071350497,-0.0368829665259,1.55170339194,0.0,0.0,0.0
1131000000,112,1131000000,,0.0189563274302,-0.0149269880939,1.52593674146,0.0,0.0,0.0
1141000000,113,1141000000,,0.031608748694,0.0197028236621,1.48723258594,0.0,0.0,0.0
1152000000,114,1152000000,,-0.0122249660086,-0.00895449460174,1.49497567888,0.0,0.0,0.0
1162000000,115,1162000000,,0.0439769545644,-0.0221286176411,1.47488054903,0.0,0.0,0.0
1171000000,116,1171000000,,0.00250872386552,0.00865427943681,1.44431605137,0.0,0.0,0.0
1182000000,117,1182000000,,0.00900513112222,0.037738683953,1.46120801788,0.0,0.0,0.0
1195000000,118,1195000000,,-0.00240921493555,-0.0250991221402,1.41458293527,0.0,0.0,0.0
1201000000,119,1201000000,,-0.0176010490988,-0.00302190464253,1.4220498593,0.0,0.0,0.0
1212000000,120,1212000000,,-0.0276463579377,0.00480677755157,1.39018263642,0.0,0.0,0.0
1223000000,121,1223000000,,0.0119035578015,0.0725793166149,1.34512361918,0.0,0.0,0.0
1232000000,122,1232000000,,-0.00658299421731,-0.0113823497359,1.39685417121,0.0,0.0,0.0
1243000000,123,1243000000,,-0.0100475656243,-0.0153906656969,1.29262243429,0.0,0.0,0.0
1251000000,124,1251000000,,-0.0250140661725,0.0136800921063,1.28918412815,0.0,0.0,0.0
1262000000,125,1262000000,,-0.0223084332118,-0.00757667260733,1.2939461058,0.0,0.0,0.0
1272000000,126,1272000000,,0.00489616549321,-0.0215636826702,1.28319789947,0.0,0.0,0.0
1282000000,127,1282000000,,0.0175604428226,-0.029152401671,1.30060496109,0.0,0.0,0.0
1292000000,128,1292000000,,0.0140753059821,-0.0224168880827,1.25979061791,0.0,0.0,0.0
1301000000,129,1301000000,,-0.00405681020062,-0.00844858842028,1.28167533194,0.0,0.0,0.0
1311000000,130,1311000000,,0.00667592321375,-0.0118524943754,1.23601881774,0.0,0.0,0.0
1321000000,131,1321000000,,-0.0197696487706,0.00833453106515,1.2990336358,0.0,0.0,0.0
1331000000,132,1331000000,,-0.00334140778261,-0.0150399746442,1.25171100139,0.0,0.0,0.0
1345000000,133,1345000000,,0.0154930812846,0.00317125647327,1.24734061707,0.0,0.0,0.0
1351000000,134,1351000000,,0.00996846086056,0.0295650836971,1.30320923699,0.0,0.0,0.0
1360000000,135,1360000000,,-0.0390072074904,-0.0154663802405,1.28849375598,0.0,0.0,0.0
1372000000,136,1372000000,,-0.0199559491673,-0.00231402360564,1.2652588216,0.0,0.0,0.0
1383000000,137,1383000000,,0.0174314861456,0.00480086764984,1.28760804643,0.0,0.0,0.0
1391000000,138,1391000000,,-0.00780605411961,-0.0249059595409,1.2564756364,0.0,0.0,0.0
1401000000,139,1401000000,,0.0201873578079,-0.0100774517383,1.27071595808,0.0,0.0,0.0
1413000000,140,1413000000,,-0.000433139547783,0.0379629374294,1.26936948577,0.0,0.0,0.0
1425000000,141,1425000000,,0.0115328605996,0.00306699040501,1.26449909205,0.0,0.0,0.0
1436000000,142,1436000000,,-0.0155277167652,-0.00904036390398,1.29817715668,0.0,0.0,0.0
1441000000,143,1441000000,,-0.00485263715552,0.0291172704069,1.27757320413,0.0,0.0,0.0
1451000000,144,1451000000,,-0.0213614871527,0.0142226807168,1.28490934695,0.0,0.0,0.0
1464000000,145,1464000000,,-0.0120610662431,0.0237248758318,1.25898969667,0.0,0.0,0.0
1471000000,146,1471000000,,0.0193320311816,0.0119182968839,1.3101992773,0.0,0.0,0.0
1482000000,147,1482000000,,0.0242894631857,0.0108845931097,1.28045360625,0.0,0.0,0.0
1491000000,148,1491000000,,0.0159995053861,-0.0263790296238,1.26474922159,0.0,0.0,0.0
1504000000,149,1504000000,,-0.00919143547834,0.00161680064942,1.2609148346,0.0,0.0,0.0
1512000000,150,1512000000,,-0.00871659773649,-0.00255601903936,1.28844418814,0.0,0.0,0.0
1521000000,151,1521000000,,0.0260308949158,-0.0176894166139,1.29663313542,0.0,0.0,0.0
1533000000,152,1533000000,,-0.0340199763548,0.0169798605468,1.25403765776,0.0,0.0,0.0
1541000000,153,1541000000,,0.0220055406471,0.0112908720249,1.28599417624,0.0,0.0,0.0
1551000000,154,1551000000,,-0.0121016763055,-0.0150640291657,1.30052741696,0.0,0.0,0.0
1562000000,155,1562000000,,-0.0461740944096,-0.00391879383604,1.26007606775,0.0,0.0,0.0
1571000000,156,1571000000,,0.0308242756568,-0.0051201050787,1.27916860826,0.0,0.0,0.0
1581000000,157,1581000000,,0.00446982854356,-0.0363265188413,1.27990658706,0.0,0.0,0.0
1591000000,158,1591000000,,0.00289256971057,-0.00417427252095,1.28957128215,0.0,0.0,0.0
1600000000,159,1600000000,,0.00851106045752,-0.0174329136479,1.24348324951,0.0,0.0,0.0
1614000000,160,1614000000,,-0.0126167094545,0.0183614203059,1.25979165887,0.0,0.0,0.0
1622000000,161,1622000000,,-0.0234637910654,-0.00834144273852,1.26663530778,0.0,0.0,0.0
1631000000,162,1631000000,,-0.00030571881864,-0.0205361014308,1.23003937526,0.0,0.0,0.0
1643000000,163,1643000000,,0.0255965523384,0.00723971932259,1.21906844899,0.0,0.0,0.0
1652000000,164,1652000000,,-0.0269735104896,0.0133810562569,1.26096249071,0.0,0.0,0.0
1663000000,165,1663000000,,-0.0257334209864,-0.0381635199216,1.21652047046,0.0,0.0,0.0
1672000000,166,1672000000,,0.00018045383448,-0.0204835994065,1.19987615127,0.0,0.0,0.0
1682000000,167,1682000000,,0.00154794741953,0.00375740337046,1.18636913467,0.0,0.0,0.0
1691000000,168,1691000000,,-0.00713093318396,0.0560084063473,1.21113878119,0.0,0.0,0.0
1703000000,169,1703000000,,0.0183572033382,-0.0404611217826,1.14458378327,0.0,0.0,0.0
1712000000,170,1712000000,,0.011867700673,0.00739107811402,1.16233535464,0.0,0.0,0.0
1720000000,171,1720000000,,-0.0067281583074,0.00805412035604,1.12823553677,0.0,0.0,0.0
1731000000,172,1731000000,,-0.0288513779343,0.0218337647998,1.14741580077,0.0,0.0,0.0
1741000000,173,1741000000,,0.0251354511221,0.00579824350254,1.10921859745,0.0,0.0,0.0
1753000000,174,1753000000,,-0.00248495265936,0.0162312515957,1.08345559014,0.0,0.0,0.0
1764000000,175,1764000000,,0.00412749795431,-0.0119676561992,1.03091299072,0.0,0.0,0.0
1771000000,176,1771000000,,0.0167315741315,-0.00092185771171,1.05746060832,0.0,0.0,0.0
1782000000,177,1782000000,,-0.00605954995108,-0.0258413368175,1.0426407972,0.0,0.0,0.0
1792000000,178,1792000000,,0.0492702771219,-0.0157596249336,1.030903251,0.0,0.0,0.0
1801000000,179,1801000000,,-0.00206594729275,0.0198306304192,1.00006385058,0.0,0.0,0.0
1812000000,180,1812000000,,-0.0227821302194,0.00543909123807,0.998492574193,0.0,0.0,0.0
1821000000,181,1821000000,,-0.00378951291513,-0.00824932955171,0.995830818332,0.0,0.0,0.0
1830000000,182,1830000000,,0.0130100707586,0.0117769535461,0.999624847654,0.0,0.0,0.0
1843000000,183,1843000000,,-0.0481042449606,0.0153152070133,0.985548416097,0.0,0.0,0.0
1852000000,184,1852000000,,0.00710202452465,0.013952512588,0.96107708135,0.0,0.0,0.0
1861000000,185,1861000000,,0.00789767072473,0.0105821597941,0.952938924098,0.0,0.0,0.0
1873000000,186,1873000000,,0.0152777444547,0.0133330647605,0.952355804804,0.0,0.0,0.0
1881000000,187,1881000000,,0.0080859129515,0.0125113921168,0.935372433781,0.0,0.0,0.0
1893000000,188,1893000000,,0.00482340736931,0.0130811023807,0.879277594332,0.0,0.0,0.0
1901000000,189,1901000000,,0.0254439514114,0.0369658102906,0.904796409855,0.0,0.0,0.0
1911000000,190,1911000000,,0.0213498822796,-0.0205244695753,0.896201928072,0.0,0.0,0.0
1922000000,191,1922000000,,0.0258938063787,0.0112381393809,0.878481713269,0.0,0.0,0.0
1931000000,192,1931000000,,0.0177959594525,-0.0339029437027,0.904679872658,0.0,0.0,0.0
1941000000,193,1941000000,,0.00239816986213,-0.00348157784368,0.872871626181,0.0,0.0,0.0
1956000000,194,1956000000,,0.0246867349244,-0.0344371409686,0.874518412986,0.0,0.0,0.0
1961000000,195,1961000000,,0.0111582509972,-0.0143900251981,0.802707149017,0.0,0.0,0.0
1971000000,196,1971000000,,-0.00176519499299,-0.00518628927335,0.821940414591,0.0,0.0,0.0
1981000000,197,1981000000,,-0.0192974416755,0.00407784378108,0.822446606648,0.0,0.0,0.0
1995000000,198,1995000000,,0.0214235045214,0.00442304802276,0.785369044758,0.0,0.0,0.0
2001000000,199,2001000000,,-0.0245324690987,-0.0247678345906,0.784137716589,0.0,0.0,0.0
2011000000,200,2011000000,,-0.0355612398457,0.00943479098123,0.7978272716,0.0,0.0,0.0
2023000000,201,2023000000,,0.0101506645947,0.0218459354623,0.794633342833,0.0,0.0,0.0
2033000000,202,2033000000,,0.0199767401269,0.0079282457858,0.73963410681,0.0,0.0,0.0
2041000000,203,2041000000,,0.0249724140593,0.0343678005549,0.736237811115,0.0,0.0,0.0
2052000000,204,2052000000,,-0.0122302907563,-0.00157124594003,0.75882467108,0.0,0.0,0.0
2061000000,205,2061000000,,0.00339920764076,0.00126862519611,0.754552665152,0.0,0.0,0.0
2073000000,206,2073000000,,-0.0163335193118,0.010695920226,0.766528845387,0.0,0.0,0.0
2082000000,207,2082000000,,-0.0217441136153,-0.0135561685499,0.740498435159,0.0,0.0,0.0
2092000000,208,2092000000,,-0.00331845923768,-0.0184587964387,0.737928987978,0.0,0.0,0.0
2101000000,209,2101000000,,0.000804903730389,0.00127321148968,0.734904904691,0.0,0.0,0.0
2112000000,210,2112000000,,-0.00371679180461,-0.00494769795974,0.709347980281,0.0,0.0,0.0
2122000000,211,2122000000,,-0.00625059400712,0.0260181400738,0.728344541137,0.0,0.0,0.0
2132000000,212,2132000000,,0.00276552817199,-0.00227648052244,0.727735261936,0.0,0.0,0.0
2142000000,213,2142000000,,0.0243434851671,-0.00726336150327,0.715778845293,0.0,0.0,0.0
2152000000,214,2152000000,,0.0272354749881,-0.0259365698426,0.715387646927,0.0,0.0,0.0
2162000000,215,2162000000,,-0.0430997874896,-0.0484103612885,0.726423398409,0.0,0.0,0.0
2171000000,216,2171000000,,0.0124728093714,-0.0158267870737,0.714162600801,0.0,0.0,0.0
2182000000,217,2182000000,,0.00546292880307,-0.0135648566723,0.724556484906,0.0,0.0,0.0
2192000000,218,2192000000,,0.00235329958568,0.0194326285277,0.652996917799,0.0,0.0,0.0
2201000000,219,2201000000,,-0.00285364041785,-0.0186644915059,0.683208179468,0.0,0.0,0.0
2214000000,220,2214000000,,-0.00530569685851,-0.02460286928,0.684696148342,0.0,0.0,0.0
2221000000,221,2221000000,,0.0144657578214,-0.0340206592552,0.667518178825,0.0,0.0,0.0
2231000000,222,2231000000,,0.0158289825649,0.00686779198354,0.677013487543,0.0,0.0,0.0
2243000000,223,2243000000,,-0.0101217272124,-0.0218528523995,0.639128862448,0.0,0.0,0.0
2251000000,224,2251000000,,0.00438525759437,-0.0183017269938,0.629982429302,0.0,0.0,0.0
2262000000,225,2262000000,,-0.0232803656109,-0.00358116209625,0.655099112615,0.0,0.0,0.0
2272000000,226,2272000000,,-0.00799335004944,-0.0342184026928,0.6368613115,0.0,0.0,0.0
2281000000,227,2281000000,,0.00593351552416,0.00817596814726,0.626433191398,0.0,0.0,0.0
2292000000,228,2292000000,,0.00109263995568,0.000640240733406,0.646043609076,0.0,0.0,0.0
2302000000,229,2302000000,,0.00655334078385,0.00736152911029,0.600413596406,0.0,0.0,0.0
2311000000,230,2311000000,,0.0397947533035,-0.00050316668289,0.572905065307,0.0,0.0,0.0
2324000000,231,2324000000,,-0.00248536111379,0.021000119378,0.592143696157,0.0,0.0,0.0
2332000000,232,2332000000,,-0.0423575467251,0.00131838828005,0.567719625886,0.0,0.0,0.0
2341000000,233,2341000000,,-0.0127553003461,-0.00663846941012,0.531546318393,0.0,0.0,0.0
2353000000,234,2353000000,,0.0120734710495,0.0274615745593,0.592734655501,0.0,0.0,0.0
2360000000,235,2360000000,,-0.00871727744696,-0.0107754646185,0.595106750612,0.0,0.0,0.0
2372000000,236,2372000000,,-0.0279954765196,-0.00482797648293,0.522321490351,0.0,0.0,0.0
2382000000,237,2382000000,,-0.0193334826581,-0.0132406206063,0.544784507614,0.0,0.0,0.0
2391000000,238,2391000000,,0.0160314700102,0.0176604089298,0.536178465104,0.0,0.0,0.0
2399000000,239,2399000000,,-0.0128807247807,-0.0302390013969,0.454188737659,0.0,0.0,0.0
2411000000,240,2411000000,,-0.00779324530725,0.0111772115676,0.513350944879,0.0,0.0,0.0
2421000000,241,2421000000,,0.0218603038472,-0.0561231042649,0.523127215294,0.0,0.0,0.0
2431000000,242,2431000000,,1.64595413098e-05,-0.00728996543792,0.48558556114,0.0,0.0,0.0
2442000000,243,2442000000,,0.000896072228661,-0.00560198387401,0.477375470847,0.0,0.0,0.0
2451000000,244,2451000000,,-0.00599661841618,-0.0084541670411,0.45419506763,0.0,0.0,0.0
2462000000,245,2462000000,,-0.0277550767884,0.00884092704203,0.451627488708,0.0,0.0,0.0
2471000000,246,2471000000,,-0.0280849179781,-0.0152886882267,0.433764554592,0.0,0.0,0.0
2481000000,247,2481000000,,-0.000800646790498,0.0109611286273,0.425645470612,0.0,0.0,0.0
2496000000,248,2496000000,,0.0184789221963,-0.0203467904599,0.418943759054,0.0,0.0,0.0
2501000000,249,2501000000,,0.000285993345712,-0.0119026825489,0.437357743183,0.0,0.0,0.0
2511000000,250,2511000000,,-0.00651091917715,-0.0105345061232,0.424449238347,0.0,0.0,0.0
2522000000,251,2522000000,,-0.00588983288832,0.0426737075367,0.409876679224,0.0,0.0,0.0
2532000000,252,2532000000,,0.0201368129561,0.0162428541414,0.418779596182,0.0,0.0,0.0
2542000000,253,2542000000,,0.00458657650853,0.00130409149073,0.385065283736,0.0,0.0,0.0
2551000000,254,2551000000,,-0.00315350160337,0.00921716229948,0.38845762146,0.0,0.0,0.0
2560000000,255,2560000000,,-0.024288886523,-0.0114499358619,0.428719922368,0.0,0.0,0.0
2571000000,256,2571000000,,-0.0192047266525,0.00582226012815,0.386269107273,0.0,0.0,0.0
2581000000,257,2581000000,,0.00595028796119,-0.0132781264469,0.345837814858,0.0,0.0,0.0
2591000000,258,2591000000,,-0.00150181342387,0.0209893028429,0.349049069628,0.0,0.0,0.0
2600000000,259,2600000000,,-0.0099076092781,-0.00879408544404,0.396960883142,0.0,0.0,0.0
2611000000,260,2611000000,,0.00311780874255,0.0121597008456,0.36234810427,0.0,0.0,0.0
2621000000,261,2621000000,,-0.0110192176479,-0.0163795076736,0.366336292639,0.0,0.0,0.0
2632000000,262,2632000000,,-0.0149867608619,-0.012743380395,0.334705807244,0.0,0.0,0.0
2642000000,263,2642000000,,0.0379818482509,-0.0205315495161,0.379275707438,0.0,0.0,0.0
2651000000,264,2651000000,,0.0147198298778,0.0126277771667,0.35780823167,0.0,0.0,0.0
2662000000,265,2662000000,,0.00215266167965,0.0183069255186,0.358763038977,0.0,0.0,0.0
2671000000,266,2671000000,,-0.0446839910118,-0.0472828118733,0.362524114602,0.0,0.0,0.0
2683000000,267,2683000000,,-0.0195003337805,-0.00427580590881,0.33793450077,0.0,0.0,0.0
2699000000,268,2699000000,,0.00821372621725,0.0224506539686,0.370950992925,0.0,0.0,0.0
2711000000,269,2711000000,,0.00529357172763,0.00576942213031,0.352542968695,0.0,0.0,0.0
2711000000,270,2711000000,,-0.00431352256788,-0.00563512178695,0.343262058231,0.0,0.0,0.0
2727000000,271,2727000000,,-0.00356026725015,0.0329095025436,0.335299452408,0.0,0.0,0.0
2731000000,272,2731000000,,-0.0388825885549,-0.0158466557849,0.331071360146,0.0,0.0,0.0
2741000000,273,2741000000,,-0.0120186415999,0.00369618857148,0.342564691671,0.0,0.0,0.0
2756000000,274,2756000000,,0.018445520971,-0.000674718745546,0.30102432561,0.0,0.0,0.0
2761000000,275,2761000000,,-0.0312696116764,-6.87501054059e-05,0.339848593138,0.0,0.0,0.0
2773000000,276,2773000000,,0.000255819473716,0.0382004042464,0.27433880732,0.0,0.0,0.0
2781000000,277,2781000000,,0.0136553462698,-0.014383291793,0.302531151068,0.0,0.0,0.0
2792000000,278,2792000000,,0.00327626404525,-0.00235365815238,0.35705964742,0.0,0.0,0.0
2801000000,279,2801000000,,0.00860513992633,-0.0309989433012,0.293983903498,0.0,0.0,0.0
2812000000,280,2812000000,,-0.00767076498293,0.00763376999583,0.291083129368,0.0,0.0,0.0
2820000000,281,2820000000,,-0.0170287045975,0.0113699593263,0.285470944591,0.0,0.0,0.0
2831000000,282,2831000000,,0.0191516718832,0.0273066045489,0.286484414777,0.0,0.0,0.0
2841000000,283,2841000000,,0.00745556205412,0.00775102422029,0.238764984224,0.0,0.0,0.0
2852000000,284,2852000000,,-0.0179197552838,-0.0128426666695,0.267840407754,0.0,0.0,0.0
2862000000,285,2862000000,,0.00177740054618,-0.0138006999653,0.306404383811,0.0,0.0,0.0
2872000000,286,2872000000,,0.0122015741927,0.0191929516233,0.260845569615,0.0,0.0,0.0
2882000000,287,2882000000,,-0.0345099675311,0.0115987083644,0.268153533925,0.0,0.0,0.0
2892000000,288,2892000000,,0.0298676256952,-0.0176512882208,0.266845296366,0.0,0.0,0.0
2901000000,289,2901000000,,0.00932334871695,0.0296363537168,0.299428185456,0.0,0.0,0.0
2912000000,290,2912000000,,0.0291284523322,0.00254414141188,0.272838509266,0.0,0.0,0.0
2928000000,291,2928000000,,-0.00631085103508,-0.0166541710374,0.258244759423,0.0,0.0,0.0
2941000000,292,2941000000,,0.00366970361395,0.0282017698558,0.207036537434,0.0,0.0,0.0
2948000000,293,2948000000,,0.0143350044975,0.0123500456717,0.235594350234,0.0,0.0,0.0
2951000000,294,2951000000,,-0.0324440535043,0.00629561946816,0.213244262457,0.0,0.0,0.0
2960000000,295,2960000000,,0.00187788694861,-0.0397617976727,0.202008135712,0.0,0.0,0.0
2972000000,296,2972000000,,0.0283671802464,-0.00405609491529,0.211488292101,0.0,0.0,0.0
2981000000,297,2981000000,,-0.00318575361596,0.00582251181329,0.258740471159,0.0,0.0,0.0
2991000000,298,2991000000,,0.00847963003477,-0.0281003120618,0.246286610933,0.0,0.0,0.0
3001000000,299,3001000000,,0.0192175793231,-0.00347693273695,0.19052490035,0.0,0.0,0.0
3011000000,300,3011000000,,0.000491349263483,-0.0436573924691,0.20491183927,0.0,0.0,0.0
3021000000,301,3021000000,,-0.0105740853668,-0.002851964005,0.184265958098,0.0,0.0,0.0
3032000000,302,3032000000,,0.0292131121086,-0.00676383956952,0.202955793878,0.0,0.0,0.0
3042000000,303,3042000000,,-0.0208559504019,0.0404783644395,0.169718466267,0.0,0.0,0.0
3051000000,304,3051000000,,-0.0233877033055,0.0087606158132,0.210184951825,0.0,0.0,0.0
3061000000,305,3061000000,,0.0118867671216,-0.0201502471799,0.162755845774,0.0,0.0,0.0
3072000000,306,3072000000,,-0.0388249585095,0.007581988325,0.183886349414,0.0,0.0,0.0
3082000000,307,3082000000,,-0.0192348687715,0.00161160879752,0.206424609213,0.0,0.0,0.0
3091000000,308,3091000000,,-0.0270287013847,-0.00338384701322,0.175819027768,0.0,0.0,0.0
3102000000,309,3102000000,,-0.000595569777043,0.00698137317444,0.163956499579,0.0,0.0,0.0
3112000000,310,3112000000,,-0.0186565904696,-0.0118078397849,0.184204357484,0.0,0.0,0.0
3122000000,311,3122000000,,0.0306630895308,0.00525213880371,0.125597148265,0.0,0.0,0.0
3132000000,312,3132000000,,-0.00117432850272,-0.0400939646814,0.143742033564,0.0,0.0,0.0
3142000000,313,3142000000,,-0.0108660728664,-0.00943066659581,0.154753355041,0.0,0.0,0.0
3151000000,314,3151000000,,0.0174832882668,0.00991022542521,0.118846663866,0.0,0.0,0.0
3162000000,315,3162000000,,-0.00118611396048,-0.0252348266967,0.123813447907,0.0,0.0,0.0
3172000000,316,3172000000,,0.0071477731077,-0.0455698211306,0.159774420031,0.0,0.0,0.0
3182000000,317,3182000000,,0.0049913612551,0.0036342431566,0.179249643392,0.0,0.0,0.0
3192000000,318,3192000000,,-0.0398005563438,0.0244946659918,0.114757865332,0.0,0.0,0.0
3202000000,319,3202000000,,-0.00767576326689,-0.00646545566724,0.150088996895,0.0,0.0,0.0
3212000000,320,3212000000,,-0.0160101348868,-0.00355443968329,0.134339389191,0.0,0.0,0.0
3221000000,321,3221000000,,-0.00990541160611,0.00883636564792,0.110772821453,0.0,0.0,0.0
3231000000,322,3231000000,,0.0239165253356,-0.0270727295754,0.153554630165,0.0,0.0,0.0
3241000000,323,3241000000,,0.0167297112207,-0.00443650675057,0.159181582172,0.0,0.0,0.0
3251000000,324,3251000000,,-0.00559524896855,-0.00200536979741,0.104663626987,0.0,0.0,0.0
3262000000,325,3262000000,,0.00377217708437,-0.00177057977399,0.132517540017,0.0,0.0,0.0
3273000000,326,3273000000,,0.00831500701759,0.0135713692456,0.125555485679,0.0,0.0,0.0
3289000000,327,3289000000,,-0.00116469921533,0.0222102178123,0.170787698799,0.0,0.0,0.0
3296000000,328,3296000000,,-0.0119516447826,-0.0158512317766,0.0923909297858,0.0,0.0,0.0
3306000000,329,3306000000,,-0.0422240724636,-0.0222778666761,0.124209932938,0.0,0.0,0.0
3314000000,330,3314000000,,-0.0142380466686,0.00446056870532,0.0971437697236,0.0,0.0,0.0
3322000000,331,3322000000,,-0.0174509467315,0.00146145828376,0.117881813773,0.0,0.0,0.0
3334000000,332,3334000000,,-0.0177037835381,-0.011546058015,0.150045486994,0.0,0.0,0.0
3341000000,333,3341000000,,-0.0422334250803,-0.0266971403129,0.153012024685,0.0,0.0,0.0
3351000000,334,3351000000,,0.0148345224378,0.0140317416644,0.124001944824,0.0,0.0,0.0
3362000000,335,3362000000,,0.0295850374631,-0.0168370262539,0.1514659669,0.0,0.0,0.0
3375000000,336,3375000000,,0.0160313138132,-0.0565088006977,0.124045656718,0.0,0.0,0.0
3381000000,337,3381000000,,0.0230479181143,0.0414645005512,0.14704286707,0.0,0.0,0.0
3394000000,338,3394000000,,0.00194119561409,0.0115585022835,0.15284015432,0.0,0.0,0.0
3403000000,339,3403000000,,0.023572340934,-0.00760394576694,0.120409637182,0.0,0.0,0.0
3413000000,340,3413000000,,-0.0113808952375,0.0424039519343,0.133330711348,0.0,0.0,0.0
3427000000,341,3427000000,,0.0212079431743,-0.0203544325928,0.119182579631,0.0,0.0,0.0
3431000000,342,3431000000,,0.012500436934,-0.00927853827241,0.108279541467,0.0,0.0,0.0
3442000000,343,3442000000,,0.0470899735531,-0.00285654625495,0.154897945566,0.0,0.0,0.0
3451000000,344,3451000000,,-0.0235204443399,-0.0253956354052,0.13277237527,0.0,0.0,0.0
3462000000,345,3462000000,,0.0146492531567,0.00231478793372,0.173559983742,0.0,0.0,0.0
3472000000,346,3472000000,,0.0272400272125,0.00730410739943,0.191815115371,0.0,0.0,0.0
3481000000,347,3481000000,,-0.0188645576401,0.0205854672425,0.165515968702,0.0,0.0,0.0
3494000000,348,3494000000,,-0.00293474737076,-0.00381773683276,0.140439065219,0.0,0.0,0.0
3501000000,349,3501000000,,-0.012182895704,-0.00180187754194,0.156824603635,0.0,0.0,0.0
3511000000,350,3511000000,,-0.0178105851905,0.0366993258515,0.141461405384,0.0,0.0,0.0
3522000000,351,3522000000,,0.00298504122357,-0.0159050430422,0.132829550028,0.0,0.0,0.0
3532000000,352,3532000000,,-0.0144632637579,0.0201546517685,0.145945448038,0.0,0.0,0.0
3541000000,353,3541000000,,-0.05316306515,-0.0117311404203,0.141005049227,0.0,0.0,0.0
3551000000,354,3551000000,,0.00206591706022,0.0311442809007,0.123674211167,0.0,0.0,0.0
3562000000,355,3562000000,,0.0145012395349,-0.0126144129789,0.123110609092,0.0,0.0,0.0
3571000000,356,3571000000,,-0.0520752977118,0.00627171478563,0.13998750969,0.0,0.0,0.0
3581000000,357,3581000000,,0.0279112350675,-0.00208047447929,0.128195902437,0.0,0.0,0.0
3591000000,358,3591000000,,0.003920634898,0.00796669887197,0.121647308556,0.0,0.0,0.0
3600000000,359,3600000000,,0.0183038601766,0.0100689448308,0.162749379625,0.0,0.0,0.0
3613000000,360,3613000000,,0.0267302470543,0.0528321722552,0.109218688666,0.0,0.0,0.0
3621000000,361,3621000000,,-0.00784556458567,-0.0487520372348,0.143138751489,0.0,0.0,0.0
3631000000,362,3631000000,,0.0100293542998,0.0117076162688,0.0978758374355,0.0,0.0,0.0
3641000000,363,3641000000,,-0.000290269443098,-0.010234955969,0.104436273192,0.0,0.0,0.0
3652000000,364,3652000000,,0.0364430526744,-0.00325737504278,0.133757513198,0.0,0.0,0.0
3661000000,365,3661000000,,0.00969074666174,0.0201776548252,0.0890815066416,0.0,0.0,0.0
3672000000,366,3672000000,,0.0158810585017,0.00403664336711,0.114045604825,0.0,0.0,0.0
3681000000,367,3681000000,,0.0173072956407,-0.00973656513763,0.106536729769,0.0,0.0,0.0
3691000000,368,3691000000,,0.0110126806393,0.042962033574,0.107784714966,0.0,0.0,0.0
3701000000,369,3701000000,,0.0229698159159,-0.028823501362,0.0960508311562,0.0,0.0,0.0
3712000000,370,3712000000,,0.0154917673901,-0.0214837752941,0.0850242738705,0.0,0.0,0.0
3722000000,371,3722000000,,0.00932104671715,0.017548630551,0.0783906520653,0.0,0.0,0.0
3731000000,372,3731000000,,0.0018870304226,-0.000883310957528,0.0726681794289,0.0,0.0,0.0
3741000000,373,3741000000,,-0.0338538040165,0.0122433112946,0.051775552651,0.0,0.0,0.0
3751000000,374,3751000000,,0.0446874813722,0.0121498522955,0.0868932913225,0.0,0.0,0.0
3762000000,375,3762000000,,-0.0137900989415,-0.00939832874154,0.0742052571771,0.0,0.0,0.0
3771000000,376,3771000000,,-0.00406157177199,0.0126562569924,0.109423302672,0.0,0.0,0.0
3781000000,377,3781000000,,-0.0134253729576,-0.0319800296387,0.0383410497374,0.0,0.0,0.0
3791000000,378,3791000000,,-0.000349063541945,0.00979621210172,0.0763330218432,0.0,0.0,0.0
3803000000,379,3803000000,,-0.0303504829464,-0.0256177941949,0.0324327325085,0.0,0.0,0.0
3813000000,380,3813000000,,0.000428330939174,0.00371869693596,0.0425312132827,0.0,0.0,0.0
3823000000,381,3823000000,,0.0374166173572,0.0191597733286,0.0896819361706,0.0,0.0,0.0
3831000000,382,3831000000,,0.00398130036264,-0.0108725634093,0.0703200774913,0.0,0.0,0.0
3843000000,383,3843000000,,-0.0135475030507,-0.0208007486324,0.0466678009031,0.0,0.0,0.0
3851000000,384,3851000000,,0.00446091403124,-0.0112278407417,0.0617859502251,0.0,0.0,0.0
3863000000,385,3863000000,,-0.0384806041652,-0.0176967730425,0.0834534193846,0.0,0.0,0.0
3872000000,386,3872000000,,-0.00503488631339,0.0198410058184,0.0370655005487,0.0,0.0,0.0
3882000000,387,3882000000,,0.016335695096,-0.0133802881576,0.0509014576081,0.0,0.0,0.0
3892000000,388,3892000000,,-0.0126279674081,-0.017244556938,0.0386831621054,0.0,0.0,0.0
3902000000,389,3902000000,,-0.0320825534748,0.0296607536775,0.0291773686677,0.0,0.0,0.0
3913000000,390,3913000000,,0.0290849604404,-0.0139482022995,0.0570318793189,0.0,0.0,0.0
3921000000,391,3921000000,,0.0150841226286,-0.0303369127564,0.0181964066074,0.0,0.0,0.0
3931000000,392,3931000000,,0.00611658364721,0.0333825490483,0.00752094517241,0.0,0.0,0.0
3942000000,393,3942000000,,0.00777782007797,0.00779334725167,0.0473662571666,0.0,0.0,0.0
3951000000,394,3951000000,,0.0237633516027,0.0171495771666,0.0639896129055,0.0,0.0,0.0
3962000000,395,3962000000,,-0.0368862048835,0.0180378417489,0.0132638748285,0.0,0.0,0.0
3971000000,396,3971000000,,-0.0377841712533,-0.0102558899936,0.0207368479471,0.0,0.0,0.0
3981000000,397,3981000000,,0.00122861937538,-0.00164005730022,0.0420424949865,0.0,0.0,0.0
3992000000,398,3992000000,,-0.0235228280627,0.0220628543424,0.03683288705,0.0,0.0,0.0
4001000000,399,4001000000,,0.0110514634627,-0.00184975481216,0.0425976202796,0.0,0.0,0.0
4012000000,400,4012000000,,0.00414491828649,-0.0016069642093,0.0234024113914,0.0,0.0,0.0
4022000000,401,4022000000,,-0.0300631549533,0.0183458852888,0.0354005382298,0.0,0.0,0.0
4036000000,402,4036000000,,-0.0290189411585,0.00363538952845,0.0400652873907,0.0,0.0,0.0
4045000000,403,4045000000,,0.0257854613078,-0.00212324437498,0.0223403247728,0.0,0.0,0.0
4052000000,404,4052000000,,0.0193232760891,0.0022272818854,-0.0233655903823,0.0,0.0,0.0
4062000000,405,4062000000,,0.00773736554537,-0.0129733153981,0.0677526669396,0.0,0.0,0.0
4072000000,406,4072000000,,-0.0394007490619,-0.00676847874827,0.00258545071338,0.0,0.0,0.0
4088000000,407,4088000000,,-0.0151373888517,0.00148673317206,0.0156817435353,0.0,0.0,0.0
4096000000,408,4096000000,,-0.029466942284,-0.00878008283336,0.0565269637287,0.0,0.0,0.0
4103000000,409,4103000000,,0.0121134446472,-0.0266902486707,0.0308119086768,0.0,0.0,0.0
4111000000,410,4111000000,,0.0281041999526,0.00663543525653,0.0324100306647,0.0,0.0,0.0
4127000000,411,4127000000,,-0.00265619156446,-0.00911303743751,0.0022972876115,0.0,0.0,0.0
4131000000,412,4131000000,,-0.0255257144651,0.00269388560554,0.0768828234183,0.0,0.0,0.0
4141000000,413,4141000000,,0.0157977488303,-0.0206474197346,0.0473689755186,0.0,0.0,0.0
4153000000,414,4153000000,,0.0128291183281,-0.0224148127474,0.0556624306131,0.0,0.0,0.0
4166000000,415,4166000000,,0.0201730721662,-0.0270470991487,0.0554865564486,0.0,0.0,0.0
4173000000,416,4173000000,,-0.0114865180283,-0.0228532146465,0.0111818257093,0.0,0.0,0.0
4181000000,417,4181000000,,-0.00570185432351,0.0306037506758,0.0166871127047,0.0,0.0,0.0
4194000000,418,4194000000,,-0.00179932187198,-0.0298494720141,0.0397140971661,0.0,0.0,0.0
4203000000,419,4203000000,,-0.0129992254237,-0.0354577450781,0.0552404321546,0.0,0.0,0.0
4211000000,420,4211000000,,-0.0214273464857,-0.00566252990582,0.0308307897322,0.0,0.0,0.0
4223000000,421,4223000000,,-0.00436895029835,-0.0186674852445,0.0564003667178,0.0,0.0,0.0
4235000000,422,4235000000,,0.0231317240369,-0.02234425143,0.0258076440954,0.0,0.0,0.0
4242000000,423,4242000000,,0.0284188075641,-0.0217893925559,0.0249972747233,0.0,0.0,0.0
4252000000,424,4252000000,,0.00568355551618,0.0154958026898,0.0270290061221,0.0,0.0,0.0
4261000000,425,4261000000,,-0.0160461127247,-0.0235219090193,0.0538852380054,0.0,0.0,0.0
4272000000,426,4272000000,,0.0174009060036,0.00501049001903,0.0605079960741,0.0,0.0,0.0
4282000000,427,4282000000,,-0.0254248827756,-0.00813137270056,0.0633926328015,0.0,0.0,0.0
4291000000,428,4291000000,,0.00613664097128,0.0382353596958,0.037061011288,0.0,0.0,0.0
4302000000,429,4302000000,,-0.00766401163125,0.0344220026831,0.0538301260001,0.0,0.0,0.0
4311000000,430,4311000000,,0.0173340677696,0.0273806969382,0.0416464454417,0.0,0.0,0.0
4322000000,431,4322000000,,-0.0109830583619,-0.0176037788775,0.0531396401079,0.0,0.0,0.0
4331000000,432,4331000000,,0.00856907751115,0.0158247952614,0.0127343500614,0.0,0.0,0.0
4342000000,433,4342000000,,0.00414230144355,-0.0241332538619,0.0426378861184,0.0,0.0,0.0
4352000000,434,4352000000,,0.0137573607527,-0.0341625316237,0.0250938748912,0.0,0.0,0.0
4361000000,435,4361000000,,-0.0129631119017,-0.0254882288819,0.0669075176098,0.0,0.0,0.0
4371000000,436,4371000000,,-0.0157428837071,-0.0219483430157,0.0461556698076,0.0,0.0,0.0
4381000000,437,4381000000,,-0.0253518653404,-0.00196682475516,0.0487106463144,0.0,0.0,0.0
4391000000,438,4391000000,,-0.0374941648099,0.0118667851154,0.0568639593748,0.0,0.0,0.0
4401000000,439,4401000000,,0.0277059009735,-0.00525331744816,0.0489177001361,0.0,0.0,0.0
4412000000,440,4412000000,,-0.0141287350877,0.0400815080491,0.0612362349139,0.0,0.0,0.0
4421000000,441,4421000000,,0.00851464292917,0.017264968014,0.0103961207085,0.0,0.0,0.0
4432000000,442,4432000000,,0.00592906733348,-0.0260538235026,0.0265035384183,0.0,0.0,0.0
4442000000,443,4442000000,,-0.0129797804377,-0.0138943496418,0.0287950905607,0.0,0.0,0.0
4451000000,444,4451000000,,0.01217128761,0.018211046979,0.0433582699032,0.0,0.0,0.0
4461000000,445,4461000000,,0.0233572012857,0.00964174090703,0.0259939790415,0.0,0.0,0.0
4471000000,446,4471000000,,0.00881943399491,0.0169047266796,0.000366215512865,0.0,0.0,0.0
4481000000,447,4481000000,,-0.0291690825218,-0.00450120527718,0.00707230265253,0.0,0.0,0.0
4491000000,448,4491000000,,0.0251891363895,0.0286372045203,0.0547895681547,0.0,0.0,0.0
4501000000,449,4501000000,,0.0245439074704,-0.0472255335127,0.0522264816017,0.0,0.0,0.0
4511000000,450,4511000000,,-0.0224035291746,-0.00889295902408,0.0631617299547,0.0,0.0,0.0
4521000000,451,4521000000,,-0.00812984320738,-0.00490718795521,0.0524047478477,0.0,0.0,0.0
4531000000,452,4531000000,,0.00849638807172,-0.0104695387159,0.0306621947214,0.0,0.0,0.0
4544000000,453,4544000000,,-0.0324840228789,-0.00261266446166,-0.0104857441798,0.0,0.0,0.0
4554000000,454,4554000000,,0.00328811093195,-0.00486696152267,-0.00550230801135,0.0,0.0,0.0
4576000000,456,4576000000,,0.0137105618893,0.00540272676796,0.00863342697345,0.0,0.0,0.0
4581000000,457,4581000000,,-0.00923429727257,0.0255807587085,-0.0105252271434,0.0,0.0,0.0
4595000000,458,4595000000,,0.0011033433057,-0.000281566061154,0.0180157241507,0.0,0.0,0.0
4601000000,459,4601000000,,-0.0301281771131,0.018815762162,0.0564069379073,0.0,0.0,0.0
4612000000,460,4612000000,,0.0402240086466,0.0197885403695,0.0367005679694,0.0,0.0,0.0
4621000000,461,4621000000,,-0.0214088459698,-0.0143152930083,0.0129989862405,0.0,0.0,0.0
4632000000,462,4632000000,,0.00119915118383,0.0310603323325,-0.00297537663634,0.0,0.0,0.0
4641000000,463,4641000000,,-0.00333343911867,-0.0345059349211,-0.0113445279612,0.0,0.0,0.0
4652000000,464,4652000000,,0.00261514486088,0.0289191038186,-0.0306783790851,0.0,0.0,0.0
4663000000,465,4663000000,,0.0100548540316,0.0107944476382,-0.0191530957054,0.0,0.0,0.0
4671000000,466,4671000000,,-0.00996821499506,0.00265974372881,0.0052503246455,0.0,0.0,0.0
4682000000,467,4682000000,,-0.01287368805,-0.028567194294,-0.0112717828591,0.0,0.0,0.0
4692000000,468,4692000000,,0.0278934899744,0.00124786933321,-0.0185162517165,0.0,0.0,0.0
4702000000,469,4702000000,,-0.00605485891958,0.00106922311427,0.0230321346675,0.0,0.0,0.0
4711000000,470,4711000000,,0.00218128793236,0.0187981007302,0.0120694180028,0.0,0.0,0.0
4722000000,471,4722000000,,0.0135248182514,-0.00841952823637,-0.00675022321993,0.0,0.0,0.0
4731000000,472,4731000000,,-0.0366832721146,0.00202931312938,0.0276918442095,0.0,0.0,0.0
4741000000,473,4741000000,,0.0290569360028,0.0143466838432,0.0060173593534,0.0,0.0,0.0
4754000000,474,4754000000,,-0.00270315986328,0.0163271316178,-0.0169058773487,0.0,0.0,0.0
4761000000,475,4761000000,,0.0283802555389,0.00426660093711,-0.0117749893447,0.0,0.0,0.0
4772000000,476,4772000000,,0.0108361887198,-0.00620271132454,-0.00302531646259,0.0,0.0,0.0
4782000000,477,4782000000,,-0.00538958428277,0.0478863792421,-0.00222803039645,0.0,0.0,0.0
4793000000,478,4793000000,,-0.0265564094621,0.0366039989383,0.0206062355287,0.0,0.0,0.0
4802000000,479,4802000000,,0.0153441211598,-0.0197314729748,-0.0160316445476,0.0,0.0,0.0
4812000000,480,4812000000,,0.00596813283122,0.0311198409606,0.0278110413095,0.0,0.0,0.0
4821000000,481,4821000000,,-0.0132471151463,0.0234371040054,-0.0189401658839,0.0,0.0,0.0
4832000000,482,4832000000,,-0.00612036287604,-0.0223664219767,0.0114021292678,0.0,0.0,0.0
4842000000,483,4842000000,,-0.00755940109747,0.029103650579,-0.00722018418093,0.0,0.0,0.0
4851000000,484,4851000000,,-0.00592324996623,0.0232800965088,-0.0208888858921,0.0,0.0,0.0
4862000000,485,4862000000,,-0.0176662184991,0.00580418414617,0.0287015335518,0.0,0.0,0.0
4873000000,486,4873000000,,-0.0201805465355,0.00923068087414,-0.0324520089527,0.0,0.0,0.0
4883000000,487,4883000000,,0.00428499532196,-0.0104655747071,0.00933668124889,0.0,0.0,0.0
4893000000,488,4893000000,,0.0045377892615,0.0179234393857,0.0220356450868,0.0,0.0,0.0
4903000000,489,4903000000,,-0.0148514840752,-0.0496192510969,0.0383813935254,0.0,0.0,0.0
4912000000,490,4912000000,,-0.000464761168892,0.00287674155874,0.0199287543732,0.0,0.0,0.0
4921000000,491,4921000000,,0.0019186257451,0.000721655859797,0.0227756834492,0.0,0.0,0.0
4931000000,492,4931000000,,0.00603793171133,0.0017259198688,0.0363248352241,0.0,0.0,0.0
4941000000,493,4941000000,,-0.0120944105577,0.0323669636566,0.00502153684273,0.0,0.0,0.0
4952000000,494,4952000000,,-0.0149295836522,0.0224941330997,0.0228690468788,0.0,0.0,0.0
4963000000,495,4963000000,,0.00795982828855,-0.0203949871226,0.00337764673212,0.0,0.0,0.0
4973000000,496,4973000000,,-0.0237070958875,0.0403077055018,0.0416527810142,0.0,0.0,0.0
4983000000,497,4983000000,,-0.000770502903761,0.00708048321574,0.017581624594,0.0,0.0,0.0
4992000000,498,4992000000,,0.0201729451225,0.014522251802,0.0343846360799,0.0,0.0,0.0
5006000000,499,5006000000,,-0.00972023385704,0.00202839944223,0.0581950230583,0.0,0.0,0.0
5012000000,500,5012000000,,0.0258620112936,-0.0132209085928,0.0343307302913,0.0,0.0,0.0
5021000000,501,5021000000,,0.0252299444277,0.00689268063098,0.0170844159667,0.0,0.0,0.0
5032000000,502,5032000000,,-0.00364991358023,0.00718750696225,0.00817092028882,0.0,0.0,0.0
5043000000,503,5043000000,,-0.00113768644671,0.00858284847264,0.0274602129935,0.0,0.0,0.0
5053000000,504,5053000000,,0.00211163271095,0.0345383842957,0.0317787872899,0.0,0.0,0.0
5062000000,505,5062000000,,-0.00114284043554,0.00391813824188,0.0456095517132,0.0,0.0,0.0
5071000000,506,5071000000,,-0.0115861377404,-0.0130062583743,0.0248928690459,0.0,0.0,0.0
5081000000,507,5081000000,,-0.0163581676026,0.00762909135893,0.0513218548035,0.0,0.0,0.0
5094000000,508,5094000000,,0.00662379072357,0.0305234694282,-0.00669660347011,0.0,0.0,0.0
5101000000,509,5101000000,,-0.00613955070582,-0.0232276388225,0.0291866107713,0.0,0.0,0.0
5111000000,510,5111000000,,0.0253497660672,0.0187203465818,0.0089935158807,0.0,0.0,0.0
5121000000,511,5121000000,,0.0133500060867,-0.00174505424288,0.0302780815344,0.0,0.0,0.0
5131000000,512,5131000000,,0.0131114129488,-0.0106746523062,0.0111559716412,0.0,0.0,0.0
5141000000,513,5141000000,,-0.0107800302669,0.0283216580637,0.00818979175526,0.0,0.0,0.0
5152000000,514,5152000000,,0.0226833766573,-0.0122268219363,-0.0167892426715,0.0,0.0,0.0
5162000000,515,5162000000,,-0.00569020169784,-0.00635586512828,0.000139607066004,0.0,0.0,0.0
5172000000,516,5172000000,,-0.0231315592055,0.027470187612,0.0223633935159,0.0,0.0,0.0
5182000000,517,5182000000,,-0.0391180345465,-0.0288523989964,-0.0071693907835,0.0,0.0,0.0
5191000000,518,5191000000,,0.00134481460558,-0.00999387587887,0.0289547948489,0.0,0.0,0.0
5202000000,519,5202000000,,0.0189688297358,-0.0177733219209,0.0268764402069,0.0,0.0,0.0
5213000000,520,5213000000,,0.00751575007175,0.0112813521778,0.0457095864341,0.0,0.0,0.0
5222000000,521,5222000000,,-0.00611529401635,-0.0167151198539,0.0272562684915,0.0,0.0,0.0
5232000000,522,5232000000,,0.00709412741006,-0.0438888116085,-0.00853920833826,0.0,0.0,0.0
5242000000,523,5242000000,,-0.0187535666333,0.0288518445834,0.000265407680557,0.0,0.0,0.0
5251000000,524,5251000000,,-0.00578953128631,-0.00346205984387,0.0197282205378,0.0,0.0,0.0
5262000000,525,5262000000,,-0.00682922079608,-0.00473136729978,-0.0304173844279,0.0,0.0,0.0
5272000000,526,5272000000,,0.00327471674762,0.0308962888464,-0.0167310540811,0.0,0.0,0.0
5282000000,527,5282000000,,0.00437049374752,0.0200556411726,-0.0269871600107,0.0,0.0,0.0
5292000000,528,5292000000,,0.00606546281987,-0.0187998595165,0.000982264101179,0.0,0.0,0.0
5302000000,529,5302000000,,0.0215384018063,0.00907347764589,-0.0119886602467,0.0,0.0,0.0
5312000000,530,5312000000,,-0.0201635083525,-0.00490940404226,-0.0157783399994,0.0,0.0,0.0
5321000000,531,5321000000,,0.0192229849203,0.0029682249977,-0.0290265720095,0.0,0.0,0.0
5331000000,532,5331000000,,-0.0183099192478,-0.0218739347092,0.0380713677467,0.0,0.0,0.0
5341000000,533,5341000000,,-0.00492666296387,-0.0138128096701,-0.0411119796375,0.0,0.0,0.0
5353000000,534,5353000000,,0.0421691915721,0.0246416532877,-0.00390452512556,0.0,0.0,0.0
5368000000,535,5368000000,,-0.0217317583717,0.00708445415098,-0.0210242985105,0.0,0.0,0.0
5377000000,536,5377000000,,0.00688979004813,0.0332781698732,0.00074213837166,0.0,0.0,0.0
5383000000,537,5383000000,,0.0599722840414,0.00747561066636,-0.00720670105492,0.0,0.0,0.0
5391000000,538,5391000000,,-0.00643334772421,-0.00261150225184,0.0113230709635,0.0,0.0,0.0
5401000000,539,5401000000,,-0.00433772464578,-0.0103994203434,-0.0161252322483,0.0,0.0,0.0
5411000000,540,5411000000,,0.0101197853444,-0.00238421713522,-0.00810889079108,0.0,0.0,0.0
5421000000,541,5421000000,,0.0185083804259,-0.0142532594513,0.0010460989444,0.0,0.0,0.0
5431000000,542,5431000000,,0.016819646685,-0.0163757864083,0.00508126621746,0.0,0.0,0.0
5442000000,543,5442000000,,-0.0365708551943,0.00295662131712,0.0104441028511,0.0,0.0,0.0
5450000000,544,5450000000,,-0.0255653239304,0.00827465270827,-0.0211288620462,0.0,0.0,0.0
5461000000,545,5461000000,,-0.014996743365,0.00818120392253,-0.0334071912498,0.0,0.0,0.0
5471000000,546,5471000000,,-0.00123197368267,0.00186406216789,-0.0177441247358,0.0,0.0,0.0
5481000000,547,5481000000,,-0.00902966745538,-0.00511456246745,-0.0204751556499,0.0,0.0,0.0
5491000000,548,5491000000,,-0.0130455253994,-0.0343537235831,-0.0308828594271,0.0,0.0,0.0
5502000000,549,5502000000,,0.0114221715203,0.00772075196513,-0.0238504104333,0.0,0.0,0.0
5511000000,550,5511000000,,-0.00630296378747,0.00906301629751,-0.0311131467752,0.0,0.0,0.0
5522000000,551,5522000000,,-0.00658445068585,-0.0110813701393,-0.00767721209641,0.0,0.0,0.0
5532000000,552,5532000000,,-0.0231927285401,-0.013560460121,0.00252693457868,0.0,0.0,0.0
5542000000,553,5542000000,,-0.0043480403073,-0.0168378554148,0.015722074697,0.0,0.0,0.0
5552000000,554,5552000000,,-0.00692465599166,-0.00765341006491,-0.00484464663772,0.0,0.0,0.0
5562000000,555,5562000000,,-0.0323218149183,0.0176435948193,-0.00367783891679,0.0,0.0,0.0
5571000000,556,5571000000,,0.0287095008239,-0.00481310591048,-0.0173620471392,0.0,0.0,0.0
5581000000,557,5581000000,,0.0049870204403,-0.0177644749934,0.00373164785644,0.0,0.0,0.0
5592000000,558,5592000000,,0.0210074181262,-0.0151898285487,0.00604042388181,0.0,0.0,0.0
5602000000,559,5602000000,,0.0408053838738,-0.000549970380097,-0.0136116427857,0.0,0.0,0.0
5611000000,560,5611000000,,0.0103113207125,0.00780272291762,0.0166267715897,0.0,0.0,0.0
5621000000,561,5621000000,,-0.0183052397747,-0.0165344345498,0.016894275113,0.0,0.0,0.0
5631000000,562,5631000000,,0.0159576272493,-0.0198472912214,0.0120290747695,0.0,0.0,0.0
5641000000,563,5641000000,,0.0148567236017,-0.0177277977101,0.00114428201769,0.0,0.0,0.0
5651000000,564,5651000000,,0.0420914484021,0.0149929388182,-0.0179372431425,0.0,0.0,0.0
5661000000,565,5661000000,,-0.0108305866772,-0.0303813358638,0.011903398831,0.0,0.0,0.0
5671000000,566,5671000000,,0.0297067359,0.0024053509112,0.00444404752083,0.0,0.0,0.0
5682000000,567,5682000000,,0.00682647758358,0.0220760652456,0.00835356130365,0.0,0.0,0.0
5692000000,568,5692000000,,-0.0108522533671,-0.0066681060911,0.0185181727484,0.0,0.0,0.0
5701000000,569,5701000000,,-0.000365153411931,-0.00737471910273,0.0457326154161,0.0,0.0,0.0
5712000000,570,5712000000,,-0.0308198510143,0.0200968886495,0.0360904186893,0.0,0.0,0.0
5722000000,571,5722000000,,-0.0214569357327,-0.0361493766904,0.0548610578711,0.0,0.0,0.0
5732000000,572,5732000000,,0.0119654753755,0.0139482258066,0.0260518873943,0.0,0.0,0.0
5741000000,573,5741000000,,-0.00778043301481,0.0182061976165,0.0407765055942,0.0,0.0,0.0
5751000000,574,5751000000,,-0.027544560604,-0.000706705708307,0.0362256347009,0.0,0.0,0.0
5761000000,575,5761000000,,0.0250769671526,-0.0315259284978,0.0383662779061,0.0,0.0,0.0
5772000000,576,5772000000,,0.0102264978618,0.0193063093344,0.0593194269051,0.0,0.0,0.0
5781000000,577,5781000000,,-0.0408779098509,0.00687761170707,0.0681935840765,0.0,0.0,0.0
5792000000,578,5792000000,,0.0231435962683,-0.0182421418759,0.0518865021421,0.0,0.0,0.0
5802000000,579,5802000000,,-0.0137738737327,0.0137045215332,0.00822342342376,0.0,0.0,0.0
5819000000,580,5819000000,,0.0129297768364,0.0183534476242,0.00300907149463,0.0,0.0,0.0
5828000000,581,5828000000,,-0.000999175000375,-0.0171163599157,0.0339227691742,0.0,0.0,0.0
5831000000,582,5831000000,,0.000713416549077,0.0128483737635,-0.000747036230324,0.0,0.0,0.0
5842000000,583,5842000000,,-0.0181700366883,-0.00513503191685,0.0251491561611,0.0,0.0,0.0
5853000000,584,5853000000,,-0.0138328312745,-0.00821620477079,0.0259805227213,0.0,0.0,0.0
5861000000,585,5861000000,,0.0138523335892,-0.0243846393152,0.0126978138654,0.0,0.0,0.0
5872000000,586,5872000000,,-0.0417346755545,0.0248579480457,-0.000894768908236,0.0,0.0,0.0
5881000000,587,5881000000,,-0.0018982423989,-0.0265571807974,0.0258405098815,0.0,0.0,0.0
5892000000,588,5892000000,,-0.00285465736624,-0.0258672031658,0.0305334412295,0.0,0.0,0.0
5900000000,589,5900000000,,0.00665751506204,-0.0129972496818,0.0223685259463,0.0,0.0,0.0
5911000000,590,5911000000,,-0.0173883661947,-0.0294974967013,0.0333742304847,0.0,0.0,0.0
5921000000,591,5921000000,,-0.000682214230282,-0.0256001753704,-0.014868208443,0.0,0.0,0.0
5939000000,592,5939000000,,-0.00711912923182,-0.000857397663205,0.0381805988713,0.0,0.0,0.0
5947000000,593,5947000000,,0.0219123630757,-0.0192284597202,0.031692157008,0.0,0.0,0.0
5952000000,594,5952000000,,0.0119236336463,-0.0127879680459,0.0128753425772,0.0,0.0,0.0
5962000000,595,5962000000,,0.046370364092,-0.0209505006922,0.041010700776,0.0,0.0,0.0
5971000000,596,5971000000,,0.000782473886858,0.00682230115467,-0.0105414625301,0.0,0.0,0.0
5981000000,597,5981000000,,-0.0262263212768,-0.00984845120596,0.00401091472442,0.0,0.0,0.0
5991000000,598,5991000000,,-0.000113795090327,-0.00986107202599,-0.0233234310427,0.0,0.0,0.0
6003000000,599,6003000000,,-0.0188528127927,0.0118254302978,-0.0193552565547,0.0,0.0,0.0
6011000000,600,6011000000,,0.0183764164745,-0.0379577161159,0.0219640713837,0.0,0.0,0.0
6022000000,601,6022000000,,-0.0145143803382,0.0239090462284,0.0220905325127,0.0,0.0,0.0
6032000000,602,6032000000,,-0.00378558435974,-0.0191467873787,0.00354793732899,0.0,0.0,0.0
6046000000,603,6046000000,,0.0245472643362,-0.0637492530401,-0.040762039242,0.0,0.0,0.0
6052000000,604,6052000000,,0.0093647467841,-0.00752098182422,0.0113998164406,0.0,0.0,0.0
6062000000,605,6062000000,,-0.0226986444455,0.027182756364,-0.0055664953841,0.0,0.0,0.0
6072000000,606,6072000000,,-0.0156053764917,-0.00521293386186,-0.00684377734316,0.0,0.0,0.0
6081000000,607,6081000000,,0.0344459015216,-0.0205895727554,0.00826014940061,0.0,0.0,0.0
6091000000,608,6091000000,,-0.0125461834873,-0.00188869087606,-0.020853287128,0.0,0.0,0.0
6101000000,609,6101000000,,0.0155783794141,-0.0305452074504,-0.0070146069065,0.0,0.0,0.0
6111000000,610,6111000000,,0.00736502099943,-0.0138103598747,-0.0220913658987,0.0,0.0,0.0
6122000000,611,6122000000,,-0.0080901491037,0.00603300500611,-0.0281667890933,0.0,0.0,0.0
6133000000,612,6133000000,,-0.0435885584254,-0.00303248566379,-0.00982836082112,0.0,0.0,0.0
6141000000,613,6141000000,,0.00128518369862,-0.00779920901596,-0.0315696798934,0.0,0.0,0.0
6151000000,614,6151000000,,0.00509223271088,0.0119233598795,-0.000578895335824,0.0,0.0,0.0
6161000000,615,6161000000,,-0.00497583756495,0.00414931610222,0.0202903727393,0.0,0.0,0.0
6171000000,616,6171000000,,0.0151655551778,0.0167893361304,0.0167437292663,0.0,0.0,0.0
6181000000,617,6181000000,,-0.0308110306567,0.00020670407608,-0.000925457784967,0.0,0.0,0.0
6191000000,618,6191000000,,0.00841839945282,-0.0200386121884,-0.0220528118265,0.0,0.0,0.0
6200000000,619,6200000000,,0.0162101772665,-0.0541314589801,-0.0391608183,0.0,0.0,0.0
6211000000,620,6211000000,,0.0168822788139,-0.0226450430297,0.0361117791673,0.0,0.0,0.0
6221000000,621,6221000000,,-0.0351690511032,-0.00306674159662,-0.0103069595502,0.0,0.0,0.0
6231000000,622,6231000000,,-0.00578612504679,0.00806901442836,-0.00422870420353,0.0,0.0,0.0
6243000000,623,6243000000,,0.0191807706297,0.0134009823552,0.0289912523191,0.0,0.0,0.0
6253000000,624,6253000000,,-0.00380446519903,-0.016991303518,0.0138904117121,0.0,0.0,0.0
6261000000,625,6261000000,,-0.00363771846245,-0.0211620267106,-0.0035484632878,0.0,0.0,0.0
6271000000,626,6271000000,,0.00672000313153,-0.0144438033342,-0.00655019412128,0.0,0.0,0.0
6284000000,627,6284000000,,0.00855681930324,0.0221685022165,-0.0301161178222,0.0,0.0,0.0
6292000000,628,6292000000,,-0.00639176661051,-0.00403054516481,0.0143633899793,0.0,0.0,0.0
6301000000,629,6301000000,,0.00748298876419,0.015230066656,0.00589376053448,0.0,0.0,0.0
6313000000,630,6313000000,,0.0175583121835,0.0148605716699,0.0350125212347,0.0,0.0,0.0
6326000000,631,6326000000,,-0.0491984108621,-0.0141574673042,-0.0119631192677,0.0,0.0,0.0
6332000000,632,6332000000,,-0.00604067364579,0.0051451381569,0.00200978552847,0.0,0.0,0.0
6346000000,633,6346000000,,-0.000674469969418,0.0171044983104,0.00307785165641,0.0,0.0,0.0
6353000000,634,6353000000,,-0.0196093509542,-0.0169856576198,-0.00036961500106,0.0,0.0,0.0
6361000000,635,6361000000,,-0.0333915107282,-0.00385281297922,0.0109930653807,0.0,0.0,0.0
6371000000,636,6371000000,,-0.00928741830779,-0.00386672322257,0.0114080103342,0.0,0.0,0.0
6381000000,637,6381000000,,0.0170275797802,-0.0249067979603,-0.0148178953954,0.0,0.0,0.0
6392000000,638,6392000000,,-0.0128808726238,-0.0561868850517,0.0141848272799,0.0,0.0,0.0
6403000000,639,6403000000,,0.0655137811472,-0.00560675513595,-0.00193500272486,0.0,0.0,0.0
6412000000,640,6412000000,,-0.0229535997237,0.00544144966985,0.0215926516315,0.0,0.0,0.0
6422000000,641,6422000000,,-0.003067291873,0.00702713184462,0.0127771928939,0.0,0.0,0.0
6432000000,642,6432000000,,-0.0259759076461,0.0170835196319,-0.00508108725844,0.0,0.0,0.0
6439000000,643,6439000000,,-0.0280445712752,-0.0180286436983,0.0258955117266,0.0,0.0,0.0
6452000000,644,6452000000,,-0.0167079885967,-0.0248614539349,0.022628512324,0.0,0.0,0.0
6462000000,645,6462000000,,-0.0172480506436,0.0139489870914,-0.0161901489784,0.0,0.0,0.0
6471000000,646,6471000000,,-0.0165472666069,0.0381652687018,0.0143710664658,0.0,0.0,0.0
6481000000,647,6481000000,,0.00360230698234,0.0352412807678,-0.00991966713129,0.0,0.0,0.0
6492000000,648,6492000000,,-0.0288397658533,-0.00876474828252,0.0377790425679,0.0,0.0,0.0
6501000000,649,6501000000,,0.0073318171136,-0.0208458850171,0.00834754140222,0.0,0.0,0.0
6511000000,650,6511000000,,0.0525437814976,-0.0347389285904,-0.007986649021,0.0,0.0,0.0
6522000000,651,6522000000,,-0.0123594064915,0.000987239715197,-0.00799147653286,0.0,0.0,0.0
6531000000,652,6531000000,,-0.00950789158926,-0.0614538566111,0.00282928090991,0.0,0.0,0.0
6542000000,653,6542000000,,0.00608540701327,0.0246053917845,0.0257519695068,0.0,0.0,0.0
6552000000,654,6552000000,,-0.0130006790601,-0.00325762930196,0.0461983187411,0.0,0.0,0.0
6564000000,655,6564000000,,-0.0136169852902,-0.00891521340082,-0.0193629271778,0.0,0.0,0.0
6571000000,656,6571000000,,-0.032418262411,0.00385410577997,0.0361454115316,0.0,0.0,0.0
6582000000,657,6582000000,,-0.00311589770089,-0.0137680097952,0.0195626764423,0.0,0.0,0.0
6592000000,658,6592000000,,-0.00541212198656,-0.0236493774744,0.0155597093024,0.0,0.0,0.0
6601000000,659,6601000000,,0.00530217074602,-0.0270172260901,-0.00589435323446,0.0,0.0,0.0
6611000000,660,6611000000,,0.00683340594475,0.0013900998969,-0.0197873085713,0.0,0.0,0.0
6621000000,661,6621000000,,0.0133694421434,0.0251798852805,0.0160288718399,0.0,0.0,0.0
6632000000,662,6632000000,,-0.0658115501999,0.0221654991664,-0.0351095507778,0.0,0.0,0.0
6641000000,663,6641000000,,0.0193427122022,-0.0423035301645,0.0273990003703,0.0,0.0,0.0
6651000000,664,6651000000,,-0.0314858452095,-0.0393646239405,0.0155402222627,0.0,0.0,0.0
6661000000,665,6661000000,,0.0175488542673,-0.0344703990364,-0.0118111176701,0.0,0.0,0.0
6671000000,666,6671000000,,0.010234365885,-0.00165566764838,-0.0321319770193,0.0,0.0,0.0
6681000000,667,6681000000,,-0.0383362745703,0.0259737653231,-0.0162213566241,0.0,0.0,0.0
6691000000,668,6691000000,,0.0460714268304,0.0287030324043,-0.0157334990626,0.0,0.0,0.0
6701000000,669,6701000000,,0.0168487538173,0.0579549203087,-0.00115991570333,0.0,0.0,0.0
6710000000,670,6710000000,,-0.0152565855126,-0.0393257165104,-0.0201862744069,0.0,0.0,0.0
6722000000,671,6722000000,,-0.00477858799855,-0.0137150732079,-0.0290008788105,0.0,0.0,0.0
6735000000,672,6735000000,,-0.0148537430496,-0.00293446224542,-0.0289236506867,0.0,0.0,0.0
6749000000,673,6749000000,,0.0251969784627,0.0277896571498,-0.0184059563111,0.0,0.0,0.0
6759000000,674,6759000000,,-0.0366397641648,0.00149549465344,-0.0148387441477,0.0,0.0,0.0
6763000000,675,6763000000,,-0.0560830687321,0.0079532588315,-0.0136062974954,0.0,0.0,0.0
6777000000,676,6777000000,,0.00973384089547,-0.00310112928976,-0.0293809852838,0.0,0.0,0.0
6782000000,677,6782000000,,0.0113771229753,-0.00638902847206,-0.000734747337303,0.0,0.0,0.0
6791000000,678,6791000000,,-0.0444635329749,-0.0179454280708,-0.0105494665483,0.0,0.0,0.0
6800000000,679,6800000000,,0.0270725781814,-0.00112426985406,0.0190296838831,0.0,0.0,0.0
6812000000,680,6812000000,,-0.00290191200495,0.00748687128573,0.016645566389,0.0,0.0,0.0
6822000000,681,6822000000,,0.0224681562136,-0.0079035423222,0.013376361793,0.0,0.0,0.0
6830000000,682,6830000000,,0.00266062226578,-0.00792749022558,-0.0163490437021,0.0,0.0,0.0
6842000000,683,6842000000,,-0.0244459765878,-0.0209147371211,-0.0219567696326,0.0,0.0,0.0
6851000000,684,6851000000,,-0.0034495351169,0.0198508712027,0.00460748739396,0.0,0.0,0.0
