%time,field.header.seq,field.header.stamp,field.header.frame_id,field.roll,field.pitch,field.jaw,field.roll_dot,field.pitch_dot,field.jaw_dot
1560000000,38,1560000000,,-0.000419082585722,4.83562289446e-05,6.75964911352e-05,-1.03541042407e-09,1.2300774288e-10,4.01589143884e-11
1600000000,39,1600000000,,-0.000474645959912,5.48724201508e-05,6.98155199643e-05,-8.204120161e-10,9.70723154636e-11,3.56215473785e-11
1640000000,40,1640000000,,-0.000520999426953,6.04398519499e-05,7.20297539374e-05,-5.36997613043e-10,6.3262936556e-11,2.87429472584e-11
1680000000,41,1680000000,,-0.000557391438633,6.48047207505e-05,7.42356933188e-05,-2.73287031893e-10,3.37132023687e-11,2.04683596461e-11
1720000000,42,1720000000,,-0.000580215652008,6.77027710481e-05,7.64916476328e-05,-6.95837970577e-11,8.88110852221e-12,1.03149129863e-11
1760000000,43,1760000000,,-0.000586119596846,6.87973370077e-05,7.86295277067e-05,6.32192648925e-13,3.07950144334e-13,1.82429483846e-12
1800000000,44,1800000000,,-0.000577548635192,6.82979080011e-05,8.08170589153e-05,1.04304204163e-10,-8.99820669364e-12,1.2516084523e-11
1840000000,45,1840000000,,-0.000548022333533,6.57642012811e-05,8.29962009448e-05,5.03525665607e-10,-4.79106962437e-11,2.73904458142e-11
1880000000,46,1880000000,,-0.000499235407915,6.10633724136e-05,8.50715441629e-05,1.24082899511e-09,-1.1767385677e-10,4.3234305025e-11
1921000000,47,1921000000,,-0.000419354910264,5.38244748896e-05,8.73785465956e-05,0.00219842512161,-0.000206560842344,5.51025659661e-05
1960000000,48,1960000000,,-0.000304129847791,4.29085957876e-05,8.95858829608e-05,0.00337371812202,-0.00030628911918,5.51917255507e-05
2001000000,49,2001000000,,-0.000153821179993,2.92758231808e-05,9.1907044407e-05,0.0036064949818,-0.000340059283189,5.53701102035e-05
2042000000,50,2042000000,,-1.28578021759e-05,1.61814950843e-05,9.41229518503e-05,0.00341524300165,-0.00029978150269,5.54101752641e-05
2080000000,51,2080000000,,0.00011775886378,4.20864625994e-06,9.62837075349e-05,0.00313367578201,-0.000298456492601,5.54335820198e-05
2120000000,52,2120000000,,0.000230696779909,-6.56259771858e-06,9.84405196505e-05,0.00265237828717,-0.000241637171712,5.5175714806e-05
2161000000,53,2161000000,,0.000327893940266,-1.59362934937e-05,0.000100753597508,0.00202054088004,-0.000204337906325,5.49729957129e-05
2201000000,54,2201000000,,0.000395952782128,-2.29687902902e-05,0.000102888450783,1.0891250124e-09,-1.14352742553e-10,4.03864997001e-11
2240000000,55,2240000000,,0.000432592001744,-2.74014473689e-05,0.000105014354631,1.65111979644e-10,-2.45313162145e-11,1.57747009899e-11
2280000000,56,2280000000,,0.000455229950603,-3.08858907374e-05,0.000107238331111,1.66483410391e-10,-2.66032716689e-11,1.57359490022e-11
2320000000,57,2320000000,,0.000475212407764,-3.46146953234e-05,0.00010929263226,1.38584088649e-10,-2.82137594537e-11,1.43669555419e-11
2360000000,58,2360000000,,0.000493871455546,-3.87224390579e-05,0.000111502537038,7.61376933722e-11,-1.99330604106e-11,1.0736055274e-11
2402000000,59,2402000000,,0.000506064796355,-4.30595173384e-05,0.000113817150122,2.1094343286e-11,-1.09543901727e-11,5.88254445155e-12
2443000000,60,2443000000,,0.00050926260883,-4.63680335088e-05,0.000115802831715,-6.92906398491e-13,-4.4060180851e-12,2.64979292848e-12
2480000000,61,2480000000,,0.000503777817357,-4.9618029152e-05,0.000117892566777,-3.47536097123e-11,-1.05140332204e-11,7.25823784756e-12
2520000000,62,2520000000,,0.000487232377054,-5.21745569131e-05,0.000120081982459,-1.41278697074e-10,-1.56821344105e-11,1.42637915368e-11
2560000000,63,2560000000,,0.00045917899115,-5.40100045328e-05,0.00012221308134,-3.97254340534e-10,-1.3762501555e-11,2.37193615443e-11
2600000000,64,2600000000,,0.000416930561187,-5.4720298067e-05,0.000124336133013,-7.26821602903e-10,-4.3296690018e-12,3.1990264604e-11
2640000000,65,2640000000,,0.00035916318302,-5.42886773474e-05,0.000126505838125,-1.29333066479e-09,2.90410976517e-11,4.24874545268e-11
2681000000,66,2681000000,,0.000288516894216,-5.23487724422e-05,0.000128615021822,-1.84426629524e-09,6.0970860305e-11,5.06249799026e-11
2720000000,67,2720000000,,0.000205273288884,-4.91403625347e-05,0.000130663378513,-0.00231574149802,0.000103681115434,5.241231338e-05
2760000000,68,2760000000,,8.62923479872e-05,-4.33786335634e-05,0.000132803921588,-0.00310237519443,0.000161807154655,5.20704015798e-05
2800000000,69,2800000000,,-3.915740308e-05,-3.62963255611e-05,0.000134876012453,-0.00305922888219,0.000188138670637,5.15882820764e-05
2840000000,70,2840000000,,-0.000147879385622,-2.87296206807e-05,0.000136879476486,-0.00251970114186,0.000192782681552,5.11402904522e-05
2880000000,71,2880000000,,-0.000237631553318,-2.09750851354e-05,0.000138961710036,-1.66962321746e-09,1.68817751445e-10,4.62564084258e-11
2923000000,72,2923000000,,-0.000288468931103,-1.44251052916e-05,0.000141125259688,-1.91855337173e-10,3.77548027564e-11,1.56667196577e-11
2961000000,73,2961000000,,-0.000313437514706,-9.00069881027e-06,0.0001430142147,-1.76132858298e-10,4.64041756409e-11,1.49554917062e-11
3002000000,74,3002000000,,-0.000333455041982,-2.28223302656e-06,0.000145032463479,-1.02631410315e-10,4.04827525669e-11,1.15105988976e-11
3040000000,75,3040000000,,-0.000346878485288,4.77646790387e-06,0.000146886784933,-4.74427129527e-11,3.38879965756e-11,8.33259416327e-12
3080000000,76,3080000000,,-0.00035373668652,1.27649500428e-05,0.000148780440213,-1.02217453252e-11,2.40784440997e-11,5.58401805698e-12
3120000000,77,3120000000,,-0.000353484443622,1.92345742107e-05,0.000150229418068,1.27323542334e-11,2.68168872525e-11,5.92563628374e-12
3160000000,78,3160000000,,-0.000338328332873,2.95635545626e-05,0.000152681517648,1.36018071806e-10,4.57410151422e-11,1.28487134127e-11
3201000000,79,3201000000,,-0.000308880058583,3.42900530086e-05,0.000154645007569,4.25819379757e-10,3.17114459691e-11,2.21479189155e-11
3240000000,80,3240000000,,-0.000266057817498,3.68137953046e-05,0.000156503956532,7.89563858739e-10,4.07028924454e-11,2.98724378567e-11
3280000000,81,3280000000,,-0.000209504418308,3.89628512494e-05,0.000158399896463,1.25302768161e-09,3.63143647097e-11,3.74431076422e-11
3320000000,82,3320000000,,-0.000140262971399,4.05130340368e-05,0.000160236784723,1.83048920466e-09,2.93277520325e-11,4.49569756422e-11
3360000000,83,3360000000,,-5.82715219934e-05,4.11193213949e-05,0.000162112744874,0.00222412799485,2.53828170571e-06,4.67662976007e-05
3400000000,84,3400000000,,4.68921280117e-05,4.08682026318e-05,0.00016397665604,0.00311434851028,-1.60840845638e-05,4.64658223791e-05
3440000000,85,3440000000,,0.00017359785852,3.94493035856e-05,0.000165831486811,0.00309246173128,-5.38662498002e-05,4.62122698082e-05
3480000000,86,3480000000,,0.000287968694465,3.67678439943e-05,0.000167720092577,0.00242860172875,-8.4068007709e-05,4.59235125163e-05
3523000000,87,3523000000,,0.000365649408195,3.29827307723e-05,0.000169458493474,1.44630540877e-09,-9.37767433151e-11,3.87445180106e-11
3560000000,88,3560000000,,0.000419085845351,2.83672943624e-05,0.000171360603417,4.89346861643e-11,-1.46194514827e-11,7.23677411399e-12
3600000000,89,3600000000,,0.00041992997285,2.45571209234e-05,0.000173167412868,-1.93930115022e-11,-9.76340275988e-12,4.73996146153e-12
3642000000,90,3642000000,,0.00041787783266,1.93621544895e-05,0.000175002292963,1.92957334139e-11,-1.86991672146e-11,5.18568955138e-12
3682000000,91,3682000000,,0.000419500953285,1.29200661831e-05,0.00017668910732,-6.95954882265e-12,-1.65821401749e-11,4.27613847109e-12
3723000000,92,3723000000,,0.000409751490224,4.37218841398e-06,0.000178633214091,-8.12475919876e-11,-4.55298090896e-11,9.54132692993e-12
3772000000,93,3772000000,,0.00038032795419,-5.53303425477e-06,0.000180785194971,-3.35406924457e-10,-8.49711273565e-11,1.82323427189e-11
3800000000,94,3800000000,,0.000354674033588,-1.12265861389e-05,0.000181967145181,-6.01595939731e-10,-1.1655469645e-10,2.41946202656e-11
3840000000,95,3840000000,,0.000303385488223,-1.92702918866e-05,0.00018370928592,-1.05094233316e-09,-1.46806025669e-10,3.16615587914e-11
3880000000,96,3880000000,,0.000236479463638,-2.78958632407e-05,0.000185487398994,-1.68593228267e-09,-1.90752330598e-10,3.98102280308e-11
3920000000,97,3920000000,,0.000155591260409,-3.57060162059e-05,0.000187212164747,-0.00217247125693,-0.000200122987735,4.30193649663e-05
3961000000,98,3961000000,,5.41717963642e-05,-4.42238670075e-05,0.000188883728697,-0.00317230797373,-0.000237365820794,4.25722173532e-05
4001000000,99,4001000000,,-7.61810006225e-05,-5.28068921994e-05,0.000190666163689,-0.00319290021434,-0.000188234771485,4.22617704317e-05
4040000000,100,4040000000,,-0.000198600871954,-5.83369401284e-05,0.00019230307953,-0.00296957255341,-8.66990230861e-05,4.1730083467e-05
4080000000,101,4080000000,,-0.000295743811876,-5.9601970861e-05,0.000193963162019,-1.91732851818e-09,1.74634733757e-11,4.04711125723e-11
4120000000,102,4120000000,,-0.000343896768754,-5.70527627133e-05,0.000195611879462,-1.84109158474e-10,3.19721957243e-11,1.25710240828e-11
4160000000,103,4160000000,,-0.000366414053133,-5.198008148e-05,0.000197244793526,-1.51885115596e-10,4.15246448338e-11,1.13852720654e-11
4221000000,104,4221000000,,-0.00039113938692,-4.06381623179e-05,0.000199696834898,-4.81828917043e-11,3.95433581712e-11,7.07784742274e-12
4262000000,105,4262000000,,-0.000401932717068,-3.06446963805e-05,0.000201327275136,-2.79142368942e-11,4.27779305034e-11,6.35730877663e-12
4291000000,106,4291000000,,-0.000406349892728,-2.25305066124e-05,0.000202432594961,-1.12215488637e-11,4.87848199338e-11,6.27375451936e-12
4322000000,107,4322000000,,-0.000404791528126,-1.23231448015e-05,0.000203650793992,3.66671970564e-11,6.73050365441e-11,7.670883026e-12
4360000000,108,4360000000,,-0.000391905487049,1.34063498081e-06,0.00020513459458,1.48551809742e-10,1.15259954359e-10,1.1958050869e-11
4403000000,109,4403000000,,-0.000362888386007,1.83924585144e-05,0.000206843396882,3.84541537501e-10,1.81188439252e-10,1.78387148803e-11
4440000000,110,4440000000,,-0.000326299137669,3.34106698574e-05,0.000208271172596,6.93339718971e-10,2.5743970844e-10,2.34311927499e-11
4480000000,111,4480000000,,-0.000272527977359,5.02756884089e-05,0.000209805497434,1.21301413358e-09,3.32451677298e-10,3.03216965425e-11
4520000000,112,4520000000,,-0.000206356693525,6.67828426231e-05,0.000211293066968,1.78246573057e-09,4.02679750655e-10,3.64171748313e-11
4560000000,113,4560000000,,-0.000123063407955,8.30393619253e-05,0.000212809303775,0.00224208505824,0.000389224442188,3.78064505639e-05
4600000000,114,4600000000,,-9.32237162488e-06,0.000101240410004,0.000214343090192,0.00309351994656,0.000446797290351,3.71604401153e-05
4640000000,115,4640000000,,0.000112981550046,0.000115921524412,0.000215786742046,0.00304862088524,0.000310114352033,3.69400841009e-05
4681000000,116,4681000000,,0.000221295689698,0.000123963080114,0.000217226188397,0.00253545749001,0.000101523924968,3.67904831364e-05
4720000000,117,4720000000,,0.000311989395414,0.000123813209939,0.000218764835154,1.52462453773e-09,-1.0054844457e-10,3.18592478787e-11
4761000000,118,4761000000,,0.00035839600605,0.000116578601592,0.000220155736315,1.58940041683e-10,-7.60792331911e-11,1.09839030232e-11
4801000000,119,4801000000,,0.000375284027541,0.000104091894173,0.00022165683913,1.14066998902e-10,-9.94758303507e-11,9.98095790045e-12
4842000000,120,4842000000,,0.000387871870771,8.75760379131e-05,0.000223093753448,5.57869965501e-11,-1.10109345253e-10,8.86578744447e-12
4880000000,121,4880000000,,0.000396937743062,6.66179985274e-05,0.000224538671318,5.51328496745e-11,-1.77789213907e-10,1.06813845963e-11
4920000000,122,4920000000,,0.00039862623089,4.26324149885e-05,0.000225894138566,-4.56143040006e-11,-2.15010745319e-10,1.14874654927e-11
4960000000,123,4960000000,,0.00038730961387,1.43584293255e-05,0.000227274736972,-1.82350690103e-10,-3.25910909371e-10,1.48905696801e-11
5000000000,124,5000000000,,0.000362325052265,-1.95563588932e-05,0.000228707925999,-4.18537565716e-10,-4.66920613285e-10,1.90296910174e-11
5040000000,125,5040000000,,0.000327415182255,-5.34429163963e-05,0.000230031393585,-7.23832271898e-10,-6.11412087625e-10,2.32836337016e-11
5085000000,126,5085000000,,0.000279136613244,-8.76322374097e-05,0.000231345795328,-1.15693676861e-09,-7.51079864969e-10,2.78865472381e-11
5120000000,127,5120000000,,0.000218814631808,-0.000123132223962,0.000232654623687,-1.72766789763e-09,-9.15714004623e-10,3.29634618212e-11
5160000000,128,5160000000,,0.000139527284773,-0.000160088020493,0.00023401856015,-0.00208744453266,-0.000930942071136,3.31293376803e-05
5201000000,129,5201000000,,2.66448168986e-05,-0.000205415970413,0.000235380546656,-0.00288341799751,-0.00099113502074,3.22885789501e-05
5240000000,130,5240000000,,-8.58368439367e-05,-0.000238936845562,0.000236634528846,-0.00268794596195,-0.000707881641574,3.2307645597e-05
5280000000,131,5280000000,,-0.000183871306945,-0.000257654028246,0.000237924628891,-0.00219540228136,-0.000246241601417,3.22319137922e-05
5320000000,132,5320000000,,-0.000255358841969,-0.000258528394625,0.000239174521994,-1.15192999584e-09,1.33493868737e-10,2.43066261563e-11
5362000000,133,5362000000,,-0.000302962318528,-0.000245634932071,0.000240449036937,-1.27555771501e-10,1.48679624168e-10,1.03699297413e-11
5400000000,134,5400000000,,-0.000310088624246,-0.000221721551497,0.000241765199462,6.35981371733e-12,2.45533288146e-10,1.15278168955e-11
5440000000,135,5440000000,,-0.000318240723573,-0.000190526610822,0.000243044429226,-1.59812510447e-10,4.07386568924e-10,1.46705252113e-11
5480000000,136,5480000000,,-0.000328354944941,-0.000148156919749,0.000244257447775,-1.02734556973e-10,7.62640284258e-10,1.81117742332e-11
5520000000,137,5520000000,,-0.000331213785103,-8.90166993486e-05,0.000245404051384,3.05630347419e-11,1.36175382082e-09,2.2219946369e-11
5562000000,138,5562000000,,-0.000325303873979,-2.04333809961e-05,0.000246423151111,2.38652403395e-10,1.64908287026e-09,2.31576528786e-11
5601000000,139,5601000000,,-0.000308780145133,5.81865460845e-05,0.000247458665399,0.000520172470715,0.0019893378485,2.3972692361e-05
5640000000,140,5640000000,,-0.000281680229818,0.000141587152029,0.00024835721706,0.000952017086092,0.00260221515782,2.1162619305e-05
5683000000,141,5683000000,,-0.000234368490055,0.000255640363321,0.00024918030249,0.00129885564093,0.00278714182787,1.9374254407e-05
5720000000,142,5720000000,,-0.000184047254152,0.000342393730534,0.000249917269684,1.30536714771e-09,1.44987954975e-09,1.94739554343e-11
5760000000,143,5760000000,,-0.000132336572278,0.00037820043508,0.000250757555477,4.35790431519e-10,-2.09019440645e-10,1.10267307438e-11
5803000000,144,5803000000,,-9.92702480289e-05,0.000352658651536,0.000251604040386,5.57121182521e-10,-4.86193751925e-10,1.32804366462e-11
5840000000,145,5840000000,,-5.33535203431e-05,0.000328372552758,0.000252423138591,1.1401851685e-09,-9.78263303697e-11,1.39165406629e-11
5880000000,146,5880000000,,1.23816362247e-05,0.000319703802234,0.000253141974099,1.52472301451e-09,-2.7825364235e-10,1.5539281667e-11
5921000000,147,5921000000,,8.50587166497e-05,0.000301775027765,0.00025383810862,0.00193051958922,-0.000600921455771,1.71038973349e-05
5961000000,148,5961000000,,0.000166086931131,0.000273675192147,0.000254475075053,0.00262250448577,-0.00100464373827,1.43797751662e-05
6001000000,149,6001000000,,0.000274612219073,0.000228694989346,0.000254995567957,0.00292262458242,-0.00125407637097,1.22485680549e-05
6040000000,150,6040000000,,0.000378578115487,0.000176498971996,0.000255524093518,0.0016425299691,-0.00115318095777,1.28690899146e-05
6080000000,151,6080000000,,0.00042046760791,0.000133127963636,0.000256038212683,1.93860358322e-10,-5.26439725146e-10,6.83919370789e-12
6121000000,152,6121000000,,0.000418409035774,0.000101221688965,0.000256578729022,-1.44694506377e-10,-3.1651392618e-10,5.87831129259e-12
6160000000,153,6160000000,,0.00039969800855,6.95190101396e-05,0.00025708132307,-3.14951092983e-10,-5.14092768356e-10,6.75383360349e-12
6200000000,154,6200000000,,0.000371064408682,2.73232726613e-05,0.000257551320828,-6.10975880999e-10,-8.40435832039e-10,8.09469765523e-12
6240000000,155,6240000000,,0.000327264337102,-2.37854274019e-05,0.000258003914496,-1.07404818372e-09,-1.14591802713e-09,9.22557516492e-12
6281000000,156,6281000000,,0.000271994707873,-7.967332931e-05,0.000258409767412,-0.00155275373254,-0.00144419784192,9.90856642602e-06
6320000000,157,6320000000,,0.000189376878552,-0.000149311003042,0.000258785847109,-0.00225514196791,-0.00184893817641,8.77590719028e-06
6360000000,158,6360000000,,9.84622092801e-05,-0.000218225934077,0.000259126536548,-0.0024217183236,-0.00162192550488,8.60015279613e-06
6401000000,159,6401000000,,5.50464847038e-06,-0.000272395322099,0.000259468797594,-0.00214566732757,-0.00113499944564,8.59516967466e-06
6440000000,160,6440000000,,-7.46071018511e-05,-0.000305916881189,0.000259817461483,-1.64354740928e-09,-4.92902108018e-10,7.80060217809e-12
6481000000,161,6481000000,,-0.000132935485453,-0.000317871308653,0.000260146567598,-3.09155590017e-10,5.22557691562e-11,3.84275337245e-12
6521000000,162,6521000000,,-0.000160677154781,-0.000306117319269,0.000260521192104,-2.43606884665e-10,1.64032065708e-10,3.38145136891e-12
6561000000,163,6561000000,,-0.000182097850484,-0.000284355162876,0.000260883418377,-2.50796688972e-10,2.4420626632e-10,3.56777671642e-12
6600000000,164,6600000000,,-0.000223728158744,-0.000267594616162,0.000261169741862,-9.98475191416e-10,2.97655455839e-10,5.00144023419e-12
6641000000,165,6641000000,,-0.000278331892332,-0.000244796538027,0.000261458160821,-6.43496811392e-10,5.0217036085e-10,4.47379069554e-12
6682000000,166,6682000000,,-0.000312201387715,-0.000209315810935,0.000261722656433,-5.18442400121e-10,6.95140833784e-10,4.52045996122e-12
6720000000,167,6720000000,,-0.000344270200003,-0.00016480711929,0.000261988752754,-6.04753136457e-10,8.05131850079e-10,4.499729582e-12
6760000000,168,6760000000,,-0.000375714851543,-0.000114946189569,0.000262243876932,-4.90288920574e-10,9.85743264792e-10,4.53149497093e-12
6800000000,169,6800000000,,-0.000397017836804,-6.03098596912e-05,0.000262478279183,-3.55473206426e-10,1.1061423999e-09,4.41752320487e-12
6840000000,170,6840000000,,-0.000410263775848,1.7062528741e-06,0.000262704154011,-1.43759074089e-10,1.34012267949e-09,4.61468493626e-12
6881000000,171,6881000000,,-0.000410088017816,6.7610257247e-05,0.000262921443209,1.58453652976e-10,1.31247379631e-09,4.38109401188e-12
6920000000,172,6920000000,,-0.000392665853724,0.0001344668417,0.000263143563643,5.77981884575e-10,1.45116652028e-09,4.8040382436e-12
6961000000,173,6961000000,,-0.000359511934221,0.000198344394448,0.000263345253188,9.9418873134e-10,1.5158779787e-09,4.93114750422e-12
7005000000,174,7005000000,,-0.000311077368679,0.000261470122496,0.000263542809989,0.00144375290256,0.00156940391753,5.11636926603e-06
7044000000,175,7044000000,,-0.000262606481556,0.000305681256577,0.000263697409537,0.00176408630796,0.00139727280475,5.22480786458e-06
7080000000,176,7080000000,,-0.000144793608342,0.000388894812204,0.00026387599064,0.0026740685571,0.00147396139801,3.37605297318e-06
7121000000,177,7121000000,,-2.83812769339e-05,0.000440177420387,0.000264014175627,0.00266173412092,0.000929711444769,3.62883770322e-06
7169000000,178,7169000000,,9.22887484194e-05,0.000464519951493,0.000264213595074,0.00226590246893,8.03296497907e-05,4.35996798842e-06
7200000000,179,7200000000,,0.00015826355957,0.000454471970443,0.000264329719357,0.00197770004161,-0.000747596437577,3.07290474666e-06
7240000000,180,7240000000,,0.000228675227845,0.000413848174503,0.000264457368758,0.00154705694877,-0.001398260938,2.40341842073e-06
7280000000,181,7280000000,,0.000278186722426,0.000347329914803,0.000264551548753,0.00100265885703,-0.00177194771823,2.64129835159e-06
7320000000,182,7320000000,,0.000307502719807,0.00028385000769,0.00026466185227,4.93466989493e-10,-1.384354964e-09,2.89757302353e-12
7361000000,183,7361000000,,0.000318085832987,0.00024667053367,0.000264741887804,2.98063657089e-10,-1.34187938539e-09,2.95874132486e-12
7405000000,184,7405000000,,0.000318665057421,0.000172397179995,0.000265035545453,-8.61810900421e-11,-9.66806856795e-10,3.28450851586e-12
7442000000,185,7442000000,,0.000311063457048,0.000108204054413,0.000265209033387,-2.27709018308e-10,-1.66141123081e-09,3.57397054659e-12
7480000000,186,7480000000,,0.000296620331937,2.77520957752e-05,0.000265362556092,-0.00042599713197,-0.002105796244,3.3793030525e-06
7520000000,187,7520000000,,0.000273665500572,-7.70819897298e-05,0.000265460985247,-0.000704245758243,-0.00287025794387,2.14596298065e-06
7562000000,188,7562000000,,0.00024772278266,-0.000168624159414,0.000265531678451,-0.000840259424876,-0.00272720889188,2.15180102714e-06
7600000000,189,7600000000,,0.000224979536142,-0.000237927015405,0.000265595561359,-0.000849684583955,-0.00237898994237,2.53045186582e-06
7641000000,190,7641000000,,0.000169418111909,-0.000349610607373,0.000265760842012,-7.16171233428e-10,-1.02944364144e-09,2.24069309114e-12
7680000000,191,7680000000,,0.000137429946335,-0.000380103330826,0.000265889364528,-2.2338605965e-10,-4.62537404211e-11,1.4047075135e-12
7720000000,192,7720000000,,0.00010863233183,-0.000383857695851,0.000266043003649,-2.953260414e-10,-6.98981801259e-12,1.40453089697e-12
7761000000,193,7761000000,,7.47071535443e-05,-0.000381057383493,0.000266178947641,-4.40954134318e-10,5.11112020762e-11,1.47325500324e-12
7800000000,194,7800000000,,3.65884443454e-05,-0.000373467162717,0.000266297196504,-5.6556814787e-10,1.44131317992e-10,1.54858038285e-12
7840000000,195,7840000000,,-9.59610861173e-06,-0.000358483288437,0.000266407907475,-7.47783057697e-10,2.97045221753e-10,1.63321212023e-12
7880000000,196,7880000000,,-5.79362822464e-05,-0.000335042481311,0.00026650831569,-8.93218332632e-10,4.90342433324e-10,1.69500275361e-12
7920000000,197,7920000000,,-0.000108595006168,-0.000304233137285,0.000266595860012,-1.01592434465e-09,7.10065450882e-10,1.71014201064e-12
7960000000,198,7960000000,,-0.000161016461789,-0.000263271707809,0.000266677554464,-1.13835763038e-09,9.51746126354e-10,1.63852568666e-12
8000000000,199,8000000000,,-0.000213106599404,-0.000214659317862,0.000266749382718,-1.16608755985e-09,1.23910415262e-09,1.56315628844e-12
8040000000,200,8040000000,,-0.000262656540144,-0.000157312882948,0.000266811519396,-1.21904830674e-09,1.46487233454e-09,1.30599166464e-12
8080000000,201,8080000000,,-0.000310809409712,-9.05883134692e-05,0.000266860472038,-0.00109325663652,0.00174115761183,1.10912742457e-06
8122000000,202,8122000000,,-0.000360705394996,-5.24925553691e-06,0.000266859919066,-0.00120818347204,0.00222312449478,-5.92465198679e-07
8162000000,203,8162000000,,-0.00039940312854,7.92178616393e-05,0.000266829185421,-0.000746873847675,0.00195380277,-1.09968095785e-06
8200000000,204,8200000000,,-0.000420761032728,0.000148623046698,0.000266755523626,-2.63783356269e-10,1.32762212335e-09,-1.86991849956e-12
8240000000,205,8240000000,,-0.000417148519773,0.000189030251931,0.000266718532657,1.55382581801e-10,2.09626468961e-10,-1.17448395844e-13
8280000000,206,8280000000,,-0.000392019865103,0.000211149963434,0.000266667106189,3.96493282651e-10,2.67537547671e-10,-1.03908656852e-12
8320000000,207,8320000000,,-0.000351877009962,0.000230730787735,0.000266562070465,8.25689849826e-10,2.97465357901e-10,-2.16815389427e-12
8360000000,208,8360000000,,-0.000289378484013,0.000246259005507,0.00026640665601,1.47484513491e-09,2.63025379255e-10,-3.54252716571e-12
8402000000,209,8402000000,,-0.000209443765925,0.000254634011071,0.000266227405518,0.00219367234968,0.000111175046186,-4.66246547148e-06
8440000000,210,8440000000,,-0.000101985009678,0.00025684555294,0.000266001268756,0.00322561943904,-1.82834937732e-05,-6.68390975989e-06
8480000000,211,8480000000,,3.28429996443e-05,0.000250304350629,0.000265724229394,0.00343673024327,-0.000291690375889,-7.1394670158e-06
8520000000,212,8520000000,,0.000160019131727,0.00040899895248,0.000265592854703,0.00300653488375,0.00334459776059,-2.47361731454e-06
8562000000,213,8562000000,,0.000261330744252,0.000450381019618,0.000265497015789,0.00244200788438,-0.00114022183698,-2.92879030894e-06
8602000000,214,8602000000,,0.000341160804965,0.000551245000679,0.000266771705355,0.00170836888719,0.00413209246472,6.20602004346e-05
8641000000,215,8641000000,,0.000400921097025,0.000381053308956,0.000268924428383,0.000945911277086,-0.00930226314813,5.29852404725e-05
8680000000,216,8680000000,,0.000425909674959,-0.000369254325051,0.000270965101663,0.000267263851129,-0.0259633306414,6.38601559331e-05
8720000000,217,8720000000,,0.000426198908826,-0.00189348496497,0.000272838224191,-0.000226346281124,-0.0491546317935,2.82590990537e-05
8760000000,218,8760000000,,0.000409549073083,-0.00433817366138,0.00027340039378,-0.000598208745942,-0.0709306299686,4.34581488662e-06
8800000000,219,8800000000,,0.000379773613531,-0.00759773142636,0.00027323528775,-0.000873779179528,-0.0927323400974,-1.3856152691e-05
8840000000,220,8840000000,,0.000341196544468,-0.0116945747286,0.000272505858447,-0.00100131658837,-0.106631435454,-2.42226487899e-05
8883000000,221,8883000000,,0.000299917563098,-0.0162145029753,0.000271425902611,-0.00108755775727,-0.123884230852,-3.1998664781e-05
8920000000,222,8920000000,,0.000258211657638,-0.0211754608899,0.000270103802904,-0.00108996138442,-0.131613463163,-3.23160966218e-05
8961000000,223,8961000000,,0.000211085149203,-0.0271718800068,0.000268665025942,-0.00110650761053,-0.147408917546,-2.92415443255e-05
9000000000,224,9000000000,,0.000169389255461,-0.032912183553,0.000267567811534,-0.00101811438799,-0.147776097059,-2.78223924397e-05
9041000000,225,9041000000,,0.000131707405671,-0.0386348553002,0.000266545248451,-0.000932869093958,-0.150605276227,-2.4635985028e-05
9080000000,226,9080000000,,9.59579629125e-05,-0.0446293838322,0.000265611684881,-0.0008240849711,-0.147061601281,-2.0789080736e-05
9120000000,227,9120000000,,6.68096981826e-05,-0.0500909388065,0.000264926085947,-0.000729291758034,-0.145003080368,-1.59856972459e-05
9160000000,228,9160000000,,3.85645180359e-05,-0.0561117753386,0.000264305708697,-0.000629029003903,-0.138863995671,-1.39430576382e-05
9200000000,229,9200000000,,1.5856592654e-05,-0.0616479702294,0.000263825204456,-0.000474782602396,-0.128326535225,-9.97927145363e-06
9240000000,230,9240000000,,-1.10397184017e-06,-0.0666837096214,0.000263440073468,-0.000387075328035,-0.124486245215,-8.60318777995e-06
9281000000,231,9281000000,,-1.29250902319e-05,-0.0712372288108,0.000263174035354,-0.000247875665082,-0.113463625312,-6.65593461235e-06
9320000000,232,9320000000,,-2.24455670832e-05,-0.075901851058,0.000262877059868,-0.00018168988754,-0.108005106449,-6.73389831718e-06
9360000000,233,9360000000,,-2.67056529992e-05,-0.0798243433237,0.00026263660402,-7.04351696186e-05,-0.0952308103442,-6.95770540915e-06
9400000000,234,9400000000,,-2.78294737655e-05,-0.0835804566741,0.000262423593085,1.30349708343e-05,-0.0901997610927,-5.02557531945e-06
9440000000,235,9440000000,,-2.63177280431e-05,-0.0868486389518,0.000262188812485,5.60505177418e-05,-0.0798413679004,-6.90257411406e-06
9484000000,236,9484000000,,-2.39847868215e-05,-0.0899059176445,0.000261893350398,9.02707251953e-05,-0.0713215172291,-6.98616713635e-06
9520000000,237,9520000000,,-1.97348763322e-05,-0.0925230681896,0.000261569890426,0.000105953389721,-0.0619953386486,-9.03914769879e-06
9560000000,238,9560000000,,-1.41169975905e-05,-0.0949493199587,0.000261226232396,0.000157903399668,-0.0521748885512,-8.16169631435e-06
9600000000,239,9600000000,,-7.7730146586e-06,-0.0967787653208,0.000260897359112,0.000158264185302,-0.0453284792602,-8.87510213943e-06
9640000000,240,9640000000,,-5.22574964634e-07,-0.0984751880169,0.000260530796368,0.000188334102859,-0.0368196368217,-9.40923928283e-06
9680000000,241,9680000000,,7.18661431165e-06,-0.0998552814126,0.000260153261479,0.000187928628293,-0.0311059951782,-9.25278436625e-06
9720000000,242,9720000000,,1.46685897562e-05,-0.100941210985,0.000259780441411,0.000193260915694,-0.0246618911624,-9.72722500592e-06
9761000000,243,9761000000,,2.22295457206e-05,-0.101823329926,0.000259403430391,0.000189745027456,-0.0198919232935,-9.48261731537e-06
9800000000,244,9800000000,,2.95955142064e-05,-0.102507919073,0.000259019026998,0.000177102410817,-0.0148534299806,-9.72256020759e-06
9840000000,245,9840000000,,3.61341881217e-05,-0.102991446853,0.000258663552813,0.000169443053892,-0.0109966108575,-9.38975972531e-06
9881000000,246,9881000000,,4.27766390203e-05,-0.10336510092,0.000258262967691,0.000151815504069,-0.00694811483845,-9.31240174395e-06
9920000000,247,9920000000,,4.87112629344e-05,-0.103576444089,0.000257896666881,0.000144696241478,-0.00336193921976,-8.76209833223e-06
9966000000,248,9966000000,,5.37213491043e-05,-0.103645734489,0.000257578445598,3.13108219907e-11,-1.11957651483e-10,-2.0007459231e-12
10002000000,249,10002000000,,5.88073198742e-05,-0.103606559336,0.000257207284449,7.72558632889e-05,0.00229620118625,-7.96109907242e-06
10041000000,250,10041000000,,6.22315201326e-05,-0.103485479951,0.000256904866546,0.000125436883536,0.00424758298323,-7.71136365074e-06
10082000000,251,10082000000,,6.71202142257e-05,-0.103275805712,0.000256581610302,9.65223807725e-05,0.00563434278592,-7.57809812058e-06
10122000000,252,10122000000,,6.92516259733e-05,-0.103035539389,0.00025630989694,1.55295037985e-05,0.00696633383632,-6.62266529616e-06
10160000000,253,10160000000,,6.88263389748e-05,-0.102742828429,0.00025605323026,-2.56877774518e-05,0.00751244230196,-6.38072879156e-06
10200000000,254,10200000000,,6.79624063196e-05,-0.102509357035,0.000255700753769,-1.6828711523e-05,0.00263164262287,-1.2148228052e-05
10240000000,255,10240000000,,6.74299517414e-05,-0.10241330415,0.00025517179165,5.96093487071e-13,1.11247240586e-10,-3.83375362706e-12
10280000000,256,10280000000,,6.83506004862e-05,-0.102325454354,0.000254494545516,3.46290216839e-05,0.00587472319603,-1.63841177709e-05
10322000000,257,10322000000,,7.01908065821e-05,-0.101814009249,0.000253919191891,6.57115742797e-05,0.0198198705912,-1.17364397738e-05
10362000000,258,10362000000,,7.30146712158e-05,-0.100638084114,0.000253561884165,7.36347283237e-05,0.037266202271,-4.9352051974e-06
10403000000,259,10403000000,,7.63741336414e-05,-0.0986126959324,0.000253450649325,9.68120366451e-05,0.0592981986701,-5.33151592208e-07
10440000000,260,10440000000,,7.98083347036e-05,-0.0961632803082,0.000253609585343,7.94717489043e-05,0.0751782953739,8.70895291882e-06
10480000000,261,10480000000,,8.35152241052e-05,-0.092649884522,0.000253973790677,8.97198915482e-05,0.0952257215977,8.52441280585e-06
10522000000,262,10522000000,,8.59794308781e-05,-0.0883390977979,0.00025444291532,4.14505411754e-05,0.111277990043,1.59014398378e-05
10560000000,263,10560000000,,8.82562380866e-05,-0.083754144609,0.000255078164628,4.0477472794e-05,0.127599999309,1.63903259818e-05
10600000000,264,10600000000,,8.86076813913e-05,-0.0784856528044,0.000255884020589,1.75806803782e-06,0.136905431747,2.09776553675e-05
10641000000,265,10641000000,,8.94419354154e-05,-0.0734950602055,0.000256603962043,-3.11452185997e-06,0.146701857448,2.0956100343e-05
10680000000,266,10680000000,,8.77945421962e-05,-0.0670699775219,0.000257488718489,-7.5696229942e-06,0.152059108019,2.38601805904e-05
10720000000,267,10720000000,,8.73281896929e-05,-0.0607249028981,0.000258450163528,-5.61512897548e-05,0.152907922864,2.41626039497e-05
10760000000,268,10760000000,,8.49722855492e-05,-0.05459343642,0.000259388354607,-1.53923228936e-05,0.156858250499,2.4351707907e-05
10801000000,269,10801000000,,8.25346360216e-05,-0.0484753996134,0.000260217377217,-0.000110354740173,0.14636130631,1.8179152903e-05
10840000000,270,10840000000,,8.02118884167e-05,-0.042463041842,0.000261143170064,-4.66504425276e-05,0.150930404663,2.36228079302e-05
10880000000,271,10880000000,,7.71070917835e-05,-0.0368141420186,0.000261979323113,-0.000100187506177,0.139351531863,2.11615406442e-05
10921000000,272,10921000000,,7.43106356822e-05,-0.0310687813908,0.000262787682004,-7.12215260137e-05,0.132766783237,1.65877208929e-05
10961000000,273,10961000000,,7.09132582415e-05,-0.0264305993915,0.00026334906579,-9.16235439945e-05,0.121164113283,1.54935733008e-05
11001000000,274,11001000000,,6.84765691403e-05,-0.021381540224,0.000263949594228,-6.52213639114e-05,0.111692525446,1.17852505355e-05
11055000000,275,11055000000,,6.44796018605e-05,-0.0160488821566,0.000264513364527,-3.77529649995e-05,0.0977761670947,1.02787944343e-05
11082000000,276,11082000000,,6.31456932751e-05,-0.0133039494976,0.000264802423771,-5.86718051636e-05,0.089681327343,9.36971991905e-06
11121000000,277,11121000000,,6.07256079093e-05,-0.0100302444771,0.000265151000349,-3.31480696332e-05,0.0802222788334,8.82884978637e-06
11160000000,278,11160000000,,5.88118018641e-05,-0.00718463258818,0.000265441805823,-7.7346136095e-05,0.0679647475481,6.62377215122e-06
11200000000,279,11200000000,,5.5827149481e-05,-0.00482856063172,0.000265705632046,-5.69534058741e-05,0.0606774277985,7.64608466852e-06
11247000000,280,11247000000,,5.1164010074e-05,-0.00220742751844,0.000266039220151,-0.000115970244224,0.0473713688552,7.16467548045e-06
11282000000,281,11282000000,,4.75953092973e-05,-0.000611477822531,0.000266285001999,-9.39043748076e-05,0.0413557365537,6.64747358314e-06
11322000000,282,11322000000,,4.34919493273e-05,0.000704814039636,0.000266507762717,-0.000123189209262,0.0325630679727,5.71233340452e-06
11360000000,283,11360000000,,3.88453845517e-05,0.00199125753716,0.000266782270046,-0.000106205632619,0.0265821553767,6.03150101597e-06
11408000000,284,11408000000,,3.3579130104e-05,0.00308040995151,0.000267104420345,-0.000100869590824,0.0208210647106,7.75492571847e-06
11440000000,285,11440000000,,3.05481116811e-05,0.0036857733503,0.000267350667855,-9.68714812188e-05,0.0171037912369,7.86736381997e-06
11480000000,286,11480000000,,2.66124479822e-05,0.00426224432886,0.000267673400231,-9.31662216317e-05,0.0132078817114,8.87716305442e-06
11522000000,287,11522000000,,2.27793407248e-05,0.00475761387497,0.000268083414994,-9.42953192862e-05,0.00903226155788,9.54633469519e-06
11560000000,288,11560000000,,1.94323456526e-05,0.00503306416795,0.000268446863629,-8.21978028398e-05,0.00600450392812,1.00246670627e-05
11600000000,289,11600000000,,1.61766147357e-05,0.00521229347214,0.000268859410426,-8.34219754324e-05,0.00305586867034,1.05674553197e-05
11640000000,290,11640000000,,1.30700900627e-05,0.00528559181839,0.000269301643129,-2.03449652958e-11,1.63824023791e-10,3.27005479986e-12
11681000000,291,11681000000,,1.08644508146e-05,0.00526869110763,0.000269684824161,-3.98770322318e-11,-1.1485123963e-09,7.65975043809e-12
11721000000,292,11721000000,,8.2970418589e-06,0.00516551872715,0.000270221353276,-5.67612441955e-05,-0.00305254640989,1.27663215608e-05
11761000000,293,11761000000,,5.60580883757e-06,0.00501948548481,0.000270741496934,-7.6496413385e-05,-0.00448771752417,1.38757495733e-05
11801000000,294,11801000000,,2.01074203687e-06,0.00478986930102,0.000271276949206,-9.399838018e-05,-0.00664623826742,1.45725525726e-05
11840000000,295,11840000000,,-2.72355327979e-06,0.00446383422241,0.00027188268723,-0.00010741972801,-0.00832881592214,1.4600990653e-05
11880000000,296,11880000000,,-6.43576959192e-06,0.00412326399237,0.000272487144684,-8.29970085761e-05,-0.00845813658088,1.53980545292e-05
11920000000,297,11920000000,,-9.26806387724e-06,0.00379788083956,0.000273101148196,-5.91659663769e-05,-0.0085318358615,1.59241390065e-05
11960000000,298,11960000000,,-1.11247636596e-05,0.00345015688799,0.000273770827334,-3.81382269552e-05,-0.00822355411947,1.65006204043e-05
12000000000,299,12000000000,,-1.23098880067e-05,0.00312149501406,0.000274446909316,-1.92652914848e-05,-0.00833667721599,1.719005013e-05
12041000000,300,12041000000,,-1.26926288431e-05,0.00278678070754,0.000275159458397,-4.76053628518e-06,-0.0079542407766,1.74396263901e-05
12080000000,301,12080000000,,-1.27002831505e-05,0.00238239276223,0.000275705708191,1.00476236184e-05,-0.0133493710309,9.405691344e-06
12120000000,302,12120000000,,-1.21765169752e-05,0.00181674282067,0.000275941070868,1.61314492289e-05,-0.0145247327164,2.45345404437e-06
12160000000,303,12160000000,,-1.14115246106e-05,0.00135223625693,0.000276030827081,2.77862636722e-05,-0.00941801164299,8.80402296843e-07
12200000000,304,12200000000,,-1.03720749394e-05,0.00123179156799,0.000276131118881,2.75924612652e-05,0.00330794090405,3.50278173755e-06
12241000000,305,12241000000,,-8.96053097676e-06,0.00178133649752,0.000276405829936,3.18120764859e-05,0.0228198766708,9.52672053245e-06
12280000000,306,12280000000,,-8.0822592281e-06,0.003074365668,0.000276938517345,3.0162926123e-05,0.0440349020064,1.71784540726e-05
12320000000,307,12320000000,,-6.92273670211e-06,0.00515771051869,0.000277680490399,1.53681558004e-05,0.0642186924815,2.271716221e-05
12360000000,308,12360000000,,-7.45097077015e-06,0.00786788295954,0.0002785846591,-1.08632348201e-05,0.0844622030854,2.72310389846e-05
12400000000,309,12400000000,,-1.02836902443e-05,0.0120274620131,0.000279706262518,-0.000146810198203,0.101114310324,2.35338829953e-05
12440000000,310,12440000000,,-1.57116992341e-05,0.0164721272886,0.000280650070636,-0.000136968868901,0.121688336134,2.31087451539e-05
12483000000,311,12483000000,,-2.22470516746e-05,0.0215174332261,0.0002816071501,-0.000176546061994,0.131710529327,2.86021768261e-05
12520000000,312,12520000000,,-2.74135763902e-05,0.0269644670188,0.000282716471702,-0.000118358511827,0.144541248679,2.65324360953e-05
12560000000,313,12560000000,,-3.24485044985e-05,0.0329056754708,0.00028385350015,-0.000110360480903,0.146074607968,2.81640386675e-05
12600000000,314,12600000000,,-3.48823014065e-05,0.0390443131328,0.000284968671622,-5.51049161004e-05,0.14911454916,2.45537939918e-05
12640000000,315,12640000000,,-3.7289741158e-05,0.0447227619588,0.00028594705509,-2.85650967271e-05,0.146091967821,2.54986643995e-05
12680000000,316,12680000000,,-3.7040663301e-05,0.0506988540292,0.000286938680802,-5.07762797497e-06,0.141272351146,2.28311619139e-05
12720000000,317,12720000000,,-3.74032788386e-05,0.0561928264797,0.000287874543574,5.26570838701e-05,0.13658362627,2.3112159397e-05
12760000000,318,12760000000,,-3.61226375389e-05,0.0613847672939,0.000288725248538,1.47756043134e-06,0.126332432032,2.16971820919e-05
12800000000,319,12800000000,,-3.55287884304e-05,0.0659545511007,0.000289528892608,4.03813246521e-05,0.122110173106,2.23153674597e-05
12840000000,320,12840000000,,-3.50089358108e-05,0.0708645060658,0.000290437979857,-1.12533462016e-05,0.110491491854,2.2049924155e-05
12880000000,321,12880000000,,-3.44272848452e-05,0.0754118040204,0.000291373522487,7.6654687291e-06,0.105213738978,2.22002563532e-05
12921000000,322,12921000000,,-3.48231042153e-05,0.0791956633329,0.000292232056381,-1.86268207472e-05,0.0953023582697,2.33660302911e-05
12960000000,323,12960000000,,-3.45818225469e-05,0.0829915255308,0.000293183489703,-4.35262836618e-06,0.0882588326931,2.24655286729e-05
13000000000,324,13000000000,,-3.55231240974e-05,0.0862693637609,0.000294093799312,-2.18415643758e-05,0.0780799090862,2.31029989664e-05
13040000000,325,13040000000,,-3.56853270205e-05,0.089336283505,0.000295026664389,-1.39924450195e-05,0.069979518652,2.22404105443e-05
13081000000,326,13081000000,,-3.67822140106e-05,0.0920424759388,0.000295968551654,-2.86324393528e-06,0.0613935478032,2.26902775466e-05
13120000000,327,13120000000,,-3.72211325157e-05,0.0941797867417,0.000296787999105,-2.83056724584e-05,0.0531676635146,2.21198370127e-05
13162000000,328,13162000000,,-3.86451865779e-05,0.0960972607136,0.000297664228128,-2.58464278886e-05,0.0462797023356,2.28473090829e-05
13200000000,329,13200000000,,-4.03569538321e-05,0.0977915972471,0.000298567116261,-6.41243168502e-05,0.0377791710198,2.26022821153e-05
13240000000,330,13240000000,,-4.30645231972e-05,0.0992405489087,0.000299529667245,-6.39902282273e-05,0.0316480249166,2.30409004871e-05
13280000000,331,13280000000,,-4.60070841655e-05,0.100339435041,0.000300425366731,-8.47879928187e-05,0.0250452645123,2.30438708968e-05
13320000000,332,13320000000,,-4.92174985993e-05,0.10123975575,0.000301351770759,-7.86959353718e-05,0.0201070513576,2.31009107665e-05
13360000000,333,13360000000,,-5.27313277416e-05,0.101931385696,0.000302274944261,-8.95153716556e-05,0.0149587737396,2.3084694476e-05
13402000000,334,13402000000,,-5.57410094189e-05,0.102437362075,0.000303155917209,-7.71384002292e-05,0.0115664228797,2.31603225984e-05
13440000000,335,13440000000,,-5.99178383709e-05,0.10279238224,0.000304147251882,-9.41773687373e-05,0.0063841631636,2.31075828196e-05
13484000000,336,13484000000,,-6.33457675576e-05,0.102985113859,0.000305049383314,-9.39320671023e-05,0.00327201373875,2.30436344282e-05
13521000000,337,13521000000,,-6.72393725836e-05,0.103064723313,0.000306019297568,-2.11626879215e-11,1.14340245605e-10,5.57814775273e-12
13560000000,338,13560000000,,-6.98966250638e-05,0.103032208979,0.000306866772007,-5.84982548513e-11,-1.40436562379e-09,1.84815600324e-11
13600000000,339,13600000000,,-7.29396633687e-05,0.102942809463,0.000307765672915,-8.12530633993e-05,-0.0027694592718,2.29210218095e-05
13640000000,340,13640000000,,-7.67299279687e-05,0.102801427245,0.000308684975607,-0.000129689564346,-0.00473057338968,2.32735892496e-05
13681000000,341,13681000000,,-8.19163469714e-05,0.102579958737,0.000309616239974,-0.000133330773679,-0.00646968884394,2.33787595789e-05
13720000000,342,13720000000,,-8.72779128258e-05,0.102304048836,0.000310539966449,-0.000127353763673,-0.00723168440163,2.28894969041e-05
13762000000,343,13762000000,,-9.1511872597e-05,0.102021992207,0.000311372568831,-9.77372474154e-05,-0.00771271204576,2.20912024815e-05
13800000000,344,13800000000,,-9.53140915954e-05,0.101693630219,0.000312316784402,-7.11482498446e-05,-0.00765800615773,2.09100362554e-05
13840000000,345,13840000000,,-9.74133363343e-05,0.101389892399,0.000313118594931,-4.43429598818e-05,-0.00788991525769,2.01278071472e-05
13881000000,346,13881000000,,-9.88554456853e-05,0.101067528129,0.000313945056405,-2.23664828809e-05,-0.00771712837741,1.92994757526e-05
13922000000,347,13922000000,,-9.91988054011e-05,0.100779183209,0.000314667529892,-5.1407500905e-06,-0.00739875622094,1.86123797903e-05
13960000000,348,13960000000,,-9.91636843537e-05,0.100485481322,0.00031539920019,9.16252520256e-06,-0.00734193855897,1.80466813617e-05
14000000000,349,14000000000,,-9.84923244687e-05,0.100204989314,0.00031609024154,1.85097615031e-05,-0.0068703466095,1.73704338522e-05
14042000000,350,14042000000,,-9.75460134214e-05,0.0999260619283,0.000316790741635,3.05616813421e-05,-0.00678425142542,1.68916703842e-05
14085000000,351,14085000000,,-9.63142956607e-05,0.0996633321047,0.000317451776937,2.96797497867e-05,-0.00632728077471,1.62292817549e-05
14121000000,352,14121000000,,-9.50090179686e-05,0.0994140654802,0.000318091508234,3.58336183126e-05,-0.00612119678408,1.57826962095e-05
14160000000,353,14160000000,,-9.37979566515e-05,0.0991807729006,0.000318709528074,2.82678756776e-05,-0.00563578680158,1.51896274474e-05
14202000000,354,14202000000,,-9.31605827645e-05,0.099046304822,0.000319071288686,2.95159825328e-05,-0.00551253277808,1.50046225826e-05
14240000000,355,14240000000,,-9.1710666311e-05,0.0987809672952,0.000319845712511,2.21780246648e-05,-0.0047825332731,1.4286682017e-05
14280000000,356,14280000000,,-9.07096400624e-05,0.0985789522529,0.000320465653203,1.7485303033e-05,-0.00425323052332,1.3791686797e-05
14320000000,357,14320000000,,-9.00459854165e-05,0.0984229147434,0.000320996477967,1.89064994629e-05,-0.00385746709071,1.34789006552e-05
14362000000,358,14362000000,,-8.92140451469e-05,0.0982681363821,0.000321566418279,1.52247794176e-05,-0.00326108653098,1.3027642126e-05
14400000000,359,14400000000,,-8.87040805537e-05,0.0981490910053,0.000322054722346,1.94576223294e-05,-0.00295260339044,1.27624862216e-05
14440000000,360,14440000000,,-8.80925435922e-05,0.0980425179005,0.000322543492075,1.15775364975e-05,-0.00251042935997,1.23662612168e-05
14480000000,361,14480000000,,-8.75585901667e-05,0.0979482680559,0.000323032698361,1.37335591717e-05,-0.0022301338613,1.20764152598e-05
14520000000,362,14520000000,,-8.72826421983e-05,0.097927108407,0.000323484448018,9.76602450464e-07,0.00378370960243,9.47728858591e-06
14560000000,363,14560000000,,-8.72114324011e-05,0.0981171578169,0.000323834858136,-4.45573459729e-06,0.00693689705804,7.33343722459e-06
14602000000,364,14602000000,,-8.78743012436e-05,0.0983234941959,0.0003241157101,-1.76037483202e-11,1.56762791637e-09,6.42981197799e-12
14640000000,365,14640000000,,-8.86265697773e-05,0.0981475040317,0.000324438035022,-2.19664852921e-05,-0.0118764899671,9.16937005968e-06
14681000000,366,14681000000,,-8.97882564459e-05,0.097294010222,0.000324894179357,-3.90068125853e-05,-0.0302148964256,1.30299777084e-05
14721000000,367,14721000000,,-9.10658854991e-05,0.0956668630242,0.000325528439134,-2.13784005609e-05,-0.0489116311073,1.70918920048e-05
14760000000,368,14760000000,,-9.19737285585e-05,0.0934249386191,0.000326204957673,-2.72767483693e-05,-0.069237396121,1.89200127352e-05
14800000000,369,14800000000,,-9.20430175029e-05,0.0902244225144,0.000327042274876,1.01505156636e-05,-0.0859326422215,2.26090760407e-05
14840000000,370,14840000000,,-9.19259691727e-05,0.0863732099533,0.000327943766024,2.30569476116e-05,-0.105419330299,2.30376099353e-05
14882000000,371,14882000000,,-9.0160567197e-05,0.0815757662058,0.000328965223162,4.58302856714e-05,-0.119805365801,2.52375484706e-05
14920000000,372,14920000000,,-8.88828653842e-05,0.0766930952668,0.000329960312229,5.38961940038e-05,-0.133788913488,2.6830652132e-05
14960000000,373,14960000000,,-8.60610161908e-05,0.0712497085333,0.000331043236656,5.89779592701e-05,-0.1408008039,2.65813614533e-05
15000000000,374,15000000000,,-8.40002685436e-05,0.065438196063,0.000332122377586,6.9392081059e-05,-0.146355062723,2.69917745754e-05
15040000000,375,15040000000,,-8.0704659922e-05,0.059577897191,0.000333190342644,3.63656254194e-05,-0.149320915341,2.52482004726e-05
15080000000,376,15080000000,,-7.82035931479e-05,0.0539299473166,0.000334139651386,8.26087707537e-05,-0.14651183784,2.6044455808e-05
15121000000,377,15121000000,,-7.49728278606e-05,0.0476133599877,0.000335230724886,4.71906787425e-05,-0.147523626685,2.44456969085e-05
15160000000,378,15160000000,,-7.16999493307e-05,0.0420538373291,0.000336144730682,0.00010156454664,-0.136580377817,2.23299939535e-05
15200000000,379,15200000000,,-6.847215991e-05,0.036778666079,0.000336958444677,8.65584952408e-05,-0.133453682065,2.032593693e-05
15240000000,380,15240000000,,-6.48782079224e-05,0.031912997365,0.000337704317644,9.52304108068e-05,-0.123275160789,1.89034744835e-05
15281000000,381,15281000000,,-6.1934835685e-05,0.0265869423747,0.000338479818311,7.32598346076e-05,-0.117142684758,1.72504005604e-05
15320000000,382,15320000000,,-5.92399374e-05,0.022576931864,0.000339074496878,6.54098839732e-05,-0.10810148716,1.58722032211e-05
15361000000,383,15361000000,,-5.73530742258e-05,0.0181718245149,0.000339707767125,5.13695486006e-05,-0.0998430550098,1.46265347212e-05
15400000000,384,15400000000,,-5.52242272533e-05,0.0147184273228,0.000340212282026,4.42984091933e-05,-0.0900366529822,1.28032852444e-05
15440000000,385,15440000000,,-5.38206331839e-05,0.0109850792214,0.000340767321177,3.86842802982e-05,-0.0807566046715,1.22385008581e-05
15480000000,386,15480000000,,-5.22268419445e-05,0.00796658918262,0.000341229111655,1.92181978491e-05,-0.0725716277957,1.11256713353e-05
15521000000,387,15521000000,,-5.06256437802e-05,0.00513261882588,0.000341692415532,4.95780877827e-05,-0.0612021535635,1.05153203549e-05
15563000000,388,15563000000,,-4.89858975925e-05,0.00304713775404,0.000342059123795,4.47104794148e-05,-0.0549895390868,1.02153089756e-05
15600000000,389,15600000000,,-4.64195363747e-05,0.000941262347624,0.000342487619491,6.1875092797e-05,-0.0454170815647,9.76737828751e-06
15641000000,390,15641000000,,-4.40213698312e-05,-0.000844188209157,0.00034289600444,6.77836942486e-05,-0.0386908389628,9.65137769526e-06
15680000000,391,15680000000,,-4.13415837102e-05,-0.00215376168489,0.000343267020071,7.33900451451e-05,-0.0308759659529,9.78440311883e-06
15720000000,392,15720000000,,-3.85411040043e-05,-0.00325533351861,0.000343652092852,7.84114090493e-05,-0.0256797634065,1.03106949609e-05
15760000000,393,15760000000,,-3.54838921339e-05,-0.00415264768526,0.000344072293956,7.44103599573e-05,-0.0199024993926,1.06316329038e-05
15800000000,394,15800000000,,-3.23747153743e-05,-0.00486180000007,0.000344508473063,7.70682891016e-05,-0.0147104626521,1.07261530502e-05
15840000000,395,15840000000,,-2.92972126772e-05,-0.00535895489156,0.000344952655723,7.34216009732e-05,-0.0100542008877,1.08978138087e-05
15880000000,396,15880000000,,-2.62689645751e-05,-0.00566825503483,0.000345380220097,7.49543614802e-05,-0.00596683332697,1.10172668428e-05
15929000000,397,15929000000,,-2.33987793763e-05,-0.00583450356498,0.000345815700712,7.52166015445e-05,-0.00268526631407,1.12923162305e-05
15963000000,398,15963000000,,-2.05506239581e-05,-0.00588880525902,0.00034624375985,1.28090611035e-11,-6.21653839517e-11,2.09995866182e-12
16001000000,399,16001000000,,-1.76240228029e-05,-0.00581324845552,0.000346754852217,6.10628776485e-05,0.00325059401803,1.06554080048e-05
16042000000,400,16042000000,,-1.48846738739e-05,-0.00565660512075,0.000347185385181,8.27233088785e-05,0.00489730434492,1.19960041047e-05
16080000000,401,16080000000,,-1.12092538984e-05,-0.00542360730469,0.000347691442585,9.8239412182e-05,0.00644929008558,1.25484766613e-05
16120000000,402,16120000000,,-7.70114547777e-06,-0.00516174966469,0.000348171277437,8.84945111466e-05,0.00737268663943,1.27430566863e-05
16163000000,403,16163000000,,-3.28406304106e-06,-0.00483644334599,0.000348707020748,0.000128432206111,0.00818719249219,1.34632664412e-05
16200000000,404,16200000000,,3.64639777217e-06,-0.00449534738436,0.000349310226738,0.00020719585882,0.0086817573756,1.58473485499e-05
16240000000,405,16240000000,,1.1287252164e-05,-0.00417575612664,0.000349887588527,0.00021684425883,0.00899174809456,1.62817777891e-05
16280000000,406,16280000000,,1.96083601622e-05,-0.00379122560844,0.000350588583387,0.000175215362106,0.00918168481439,1.63417844306e-05
16320000000,407,16320000000,,2.55615123024e-05,-0.00341459922493,0.000351249240339,0.000110748449515,0.00890884548426,1.59596238518e-05
16360000000,408,16360000000,,2.88363899017e-05,-0.00306558911689,0.000351872062311,5.49105316168e-05,0.00905972532928,1.5824491129e-05
16402000000,409,16402000000,,2.98516388284e-05,-0.00269447034225,0.000352531147655,-8.65465244715e-06,0.00860666297376,1.56178011821e-05
16442000000,410,16442000000,,2.88808168989e-05,-0.00234205788001,0.000353175972123,-4.52354688605e-05,0.0085133202374,1.5569061361e-05
16480000000,411,16480000000,,2.63396796072e-05,-0.00203887280077,0.000353750598151,-8.42141307658e-05,0.0080049475655,1.55643556354e-05
16520000000,412,16520000000,,2.28056524065e-05,-0.00172423175536,0.000354377378244,-9.66147126746e-05,0.0076074898243,1.56448295456e-05
16560000000,413,16560000000,,1.83384345291e-05,-0.00143000099342,0.000355021300493,-0.000109587577754,0.00696234824136,1.5827750758e-05
16600000000,414,16600000000,,1.43821789607e-05,-0.00117340194993,0.000355626136297,-0.00010920544446,0.00642537605017,1.5865691239e-05
16640000000,415,16640000000,,9.6818930615e-06,-0.000920540187508,0.000356295873644,-0.000100035329524,0.00582110742107,1.61047446454e-05
