%time,field.header.seq,field.header.stamp,field.header.frame_id,field.angular_velocities0,field.angular_velocities1,field.angular_velocities2,field.angular_velocities3
1900000000,19,1900000000,,422.054606464,422.054979189,422.054606464,422.054979189
2001000000,20,2001000000,,416.30445805,416.329638746,416.30445805,416.329638746
2101000000,21,2101000000,,457.450509459,457.459258684,457.450509459,457.459258684
2200000000,22,2200000000,,415.798017392,415.781749569,415.798017392,415.781749569
2300000000,23,2300000000,,418.308610896,418.309094799,418.308610896,418.309094799
2402000000,24,2402000000,,414.646470433,414.64695434,414.646470433,414.64695434
2500000000,25,2500000000,,425.013044288,425.013528201,425.013044288,425.013528201
2600000000,26,2600000000,,412.642018791,412.642502711,412.642018791,412.642502711
2702000000,27,2702000000,,422.528245169,422.552087217,422.528245169,422.552087217
2800000000,28,2800000000,,433.802202956,433.810262021,433.802202956,433.810262021
2900000000,29,2900000000,,425.559797893,425.544906819,425.559797893,425.544906819
3002000000,30,3002000000,,431.087647622,431.088235614,431.087647622,431.088235614
3109000000,31,3109000000,,442.519885712,442.520473709,442.519885712,442.520473709
3201000000,32,3201000000,,426.464130269,426.464718275,426.464130269,426.464718275
3300000000,33,3300000000,,419.527819447,419.528407458,419.527819447,419.528407458
3400000000,34,3400000000,,424.788089207,424.809633098,424.788089207,424.809633098
3501000000,35,3501000000,,424.443786241,424.430619114,424.443786241,424.430619114
3600000000,36,3600000000,,434.490254612,434.490889064,434.490254612,434.490889064
3700000000,37,3700000000,,431.719822876,431.72045734,431.719822876,431.72045734
3800000000,38,3800000000,,436.279094448,436.27972892,436.279094448,436.27972892
3906000000,39,3906000000,,426.418960153,426.438309271,426.418960153,426.438309271
4001000000,40,4001000000,,443.400335461,443.40712607,443.400335461,443.40712607
4100000000,41,4100000000,,423.487516726,423.475430449,423.487516726,423.475430449
4201000000,42,4201000000,,433.620656473,433.621376784,433.620656473,433.621376784
4302000000,43,4302000000,,418.323333472,418.324053784,418.323333472,418.324053784
4403000000,44,4403000000,,450.376950925,450.377671243,450.376950925,450.377671243
4500000000,45,4500000000,,424.512134921,424.512855244,424.512134921,424.512855244
4600000000,46,4600000000,,425.591373754,425.608868053,425.591373754,425.608868053
4701000000,47,4701000000,,436.755930639,436.762085253,436.755930639,436.762085253
4801000000,48,4801000000,,422.082024605,422.071808217,422.082024605,422.071808217
4901000000,49,4901000000,,441.563645309,441.564439886,441.563645309,441.564439886
5001000000,50,5001000000,,435.678508383,435.679302964,435.678508383,435.679302964
5102000000,51,5102000000,,427.481720285,427.482514868,427.481720285,427.482514868
5201000000,52,5201000000,,431.320487661,431.335941897,431.320487661,431.335941897
5301000000,53,5301000000,,415.037953542,415.029093523,415.037953542,415.029093523
5400000000,54,5400000000,,440.920321844,440.921148381,440.920321844,440.921148381
5501000000,55,5501000000,,435.797641303,435.79846785,435.797641303,435.79846785
5600000000,56,5600000000,,442.60902718,442.620771439,442.60902718,442.620771439
5700000000,57,5700000000,,435.15852396,435.160892852,435.15852396,435.160892852
5800000000,58,5800000000,,421.75908357,421.754144476,421.75908357,421.754144476
5900000000,59,5900000000,,431.430015636,431.430885349,431.430015636,431.430885349
6001000000,60,6001000000,,433.800422911,433.806780462,433.800422911,433.806780462
6101000000,61,6101000000,,434.133735818,434.130943331,434.133735818,434.130943331
6200000000,62,6200000000,,437.971174783,437.972056867,437.971174783,437.972056867
6300000000,63,6300000000,,429.744162547,429.748960161,429.744162547,429.748960161
6401000000,64,6401000000,,422.439142182,422.441305141,422.439142182,422.441305141
6500000000,65,6500000000,,435.854946291,435.853241141,435.854946291,435.853241141
6600000000,66,6600000000,,435.615693687,435.616593133,435.615693687,435.616593133
6701000000,67,6701000000,,436.423019734,436.423919179,436.423019734,436.423919179
6800000000,68,6800000000,,427.26623708,427.267136525,427.26623708,427.267136525
6904000000,69,6904000000,,424.028781454,424.029680899,424.028781454,424.029680899
7005000000,70,7005000000,,436.04385588,436.047047659,436.04385588,436.047047659
7103000000,71,7103000000,,432.284084417,432.28489788,432.284084417,432.28489788
7200000000,72,7200000000,,431.632884617,431.634208638,431.632884617,431.634208638
7302000000,73,7302000000,,444.448884549,444.44889151,444.448884549,444.44889151
7405000000,74,7405000000,,428.722028088,428.722938844,428.722028088,428.722938844
7500000000,75,7500000000,,422.853459415,422.855346515,422.853459415,422.855346515
7600000000,76,7600000000,,425.682792889,425.684259687,425.682792889,425.684259687
7700000000,77,7700000000,,441.462319674,441.462449044,441.462319674,441.462449044
7801000000,78,7801000000,,418.000125273,418.001040636,418.000125273,418.001040636
7900000000,79,7900000000,,436.367245475,436.368160838,436.367245475,436.368160838
8000000000,80,8000000000,,436.238189343,436.239104706,436.238189343,436.239104706
8100000000,81,8100000000,,428.521011936,428.521556357,428.521011936,428.521556357
8200000000,82,8200000000,,441.872787372,441.873948657,441.872787372,441.873948657
8301000000,83,8301000000,,423.316104249,423.317018789,423.316104249,423.317018789
8400000000,84,8400000000,,421.728402096,421.72721523,421.728402096,421.72721523
8500000000,85,8500000000,,428.062922772,428.063908796,428.062922772,428.063908796
8602000000,86,8602000000,,433.54784432,433.549607297,433.54784432,433.549607297
8702000000,87,8702000000,,436.491660323,436.51279825,436.491660323,436.51279825
8800000000,88,8800000000,,436.80047578,436.781362012,436.80047578,436.781362012
8904000000,89,8904000000,,432.591464515,432.581033493,432.591464515,432.581033493
9000000000,90,9000000000,,439.063789305,439.062737881,439.063789305,439.062737881
9100000000,91,9100000000,,428.254936045,428.256004682,428.254936045,428.256004682
9200000000,92,9200000000,,426.578187615,426.579973127,426.578187615,426.579973127
9300000000,93,9300000000,,430.696919312,430.697508681,430.696919312,430.697508681
9400000000,94,9400000000,,432.490979931,432.491711176,432.490979931,432.491711176
9502000000,95,9502000000,,436.075296107,436.074240763,436.075296107,436.074240763
9600000000,96,9600000000,,438.856991752,438.856078799,438.856991752,438.856078799
9701000000,97,9701000000,,430.657726881,430.656940201,430.657726881,430.656940201
9800000000,98,9800000000,,447.633110937,447.6323745,447.633110937,447.6323745
9901000000,99,9901000000,,423.047984685,423.047479613,423.047984685,423.047479613
10002000000,100,10002000000,,430.990958334,430.99095837,430.990958334,430.99095837
10102000000,101,10102000000,,425.941978972,425.941741793,425.941978972,425.941741793
10200000000,102,10200000000,,441.621855782,441.619377108,441.621855782,441.619377108
10300000000,103,10300000000,,435.767061677,435.765274438,435.767061677,435.765274438
10402000000,104,10402000000,,439.198665697,439.203152574,439.198665697,439.203152574
10503000000,105,10503000000,,435.370536715,435.375148031,435.370536715,435.375148031
10600000000,106,10600000000,,421.654135436,421.662049757,421.654135436,421.662049757
10700000000,107,10700000000,,416.215500924,416.219290643,416.215500924,416.219290643
10800000000,108,10800000000,,428.839694963,428.842488315,428.839694963,428.842488315
10901000000,109,10901000000,,436.978083481,436.982174633,436.978083481,436.982174633
11005000000,110,11005000000,,441.293955044,441.294256957,441.293955044,441.294256957
11100000000,111,11100000000,,436.754337087,436.755883046,436.754337087,436.755883046
11200000000,112,11200000000,,436.842512902,436.844034561,436.842512902,436.844034561
11300000000,113,11300000000,,427.884680809,427.88624848,427.884680809,427.88624848
11406000000,114,11406000000,,430.951630172,430.953964615,430.951630172,430.953964615
11500000000,115,11500000000,,431.46920446,431.472114142,431.46920446,431.472114142
11604000000,116,11604000000,,428.759893759,428.762729528,428.759893759,428.762729528
11701000000,117,11701000000,,431.718776498,431.721881808,431.718776498,431.721881808
11801000000,118,11801000000,,431.71546699,431.719352877,431.71546699,431.719352877
11900000000,119,11900000000,,424.688204502,424.691900757,424.688204502,424.691900757
12000000000,120,12000000000,,446.224099322,446.228043046,446.224099322,446.228043046
12100000000,121,12100000000,,429.97822069,429.979018075,429.97822069,429.979018075
12200000000,122,12200000000,,434.889270841,434.88849526,434.889270841,434.88849526
12300000000,123,12300000000,,428.232904764,428.241525606,428.232904764,428.241525606
12400000000,124,12400000000,,435.416718984,435.422537234,435.416718984,435.422537234
12500000000,125,12500000000,,433.976605463,433.983854851,433.976605463,433.983854851
12600000000,126,12600000000,,438.250210439,438.253485104,438.250210439,438.253485104
12701000000,127,12701000000,,429.76900033,429.773328173,429.76900033,429.773328173
12801000000,128,12801000000,,433.228706151,433.23263596,433.228706151,433.23263596
12900000000,129,12900000000,,426.728354269,426.732841999,426.728354269,426.732841999
13001000000,130,13001000000,,431.403341794,431.40820661,431.403341794,431.40820661
13100000000,131,13100000000,,442.588674426,442.592829284,442.588674426,442.592829284
13200000000,132,13200000000,,435.694323013,435.699121227,435.694323013,435.699121227
13301000000,133,13301000000,,438.917947311,438.922836014,438.917947311,438.922836014
13402000000,134,13402000000,,433.610146829,433.614857287,433.610146829,433.614857287
13500000000,135,13500000000,,429.19382429,429.198552084,429.19382429,429.198552084
13601000000,136,13601000000,,420.003820103,420.008496796,420.003820103,420.008496796
13704000000,137,13704000000,,429.073283904,429.078102437,429.073283904,429.078102437
13800000000,138,13800000000,,435.42635697,435.430163052,435.42635697,435.430163052
13904000000,139,13904000000,,439.912656255,439.916428505,439.912656255,439.916428505
14003000000,140,14003000000,,443.599685996,443.60309756,443.599685996,443.60309756
14102000000,141,14102000000,,433.363733212,433.367100752,433.363733212,433.367100752
14212000000,142,14212000000,,432.779124175,432.782346642,432.779124175,432.782346642
14300000000,143,14300000000,,426.726739613,426.729925358,426.726739613,426.729925358
14401000000,144,14401000000,,435.278602958,435.281660734,435.278602958,435.281660734
14501000000,145,14501000000,,425.798448503,425.796056915,425.798448503,425.796056915
14600000000,146,14600000000,,435.482644901,435.484079441,435.482644901,435.484079441
14700000000,147,14700000000,,439.506059055,439.514987679,439.506059055,439.514987679
14800000000,148,14800000000,,423.308767503,423.315430375,423.308767503,423.315430375
14900000000,149,14900000000,,432.693525937,432.700532907,432.693525937,432.700532907
15001000000,150,15001000000,,446.297637444,446.303599112,446.297637444,446.303599112
15100000000,151,15100000000,,422.327768212,422.332553033,422.327768212,422.332553033
15200000000,152,15200000000,,436.93435303,436.937305584,436.93435303,436.937305584
15300000000,153,15300000000,,430.100942926,430.103649344,430.100942926,430.103649344
15400000000,154,15400000000,,433.610442108,433.61291773,433.610442108,433.61291773
15500000000,155,15500000000,,428.809031759,428.811802085,428.809031759,428.811802085
15600000000,156,15600000000,,438.666067818,438.668793215,438.666067818,438.668793215
15700000000,157,15700000000,,427.894125911,427.897241159,427.894125911,427.897241159
15800000000,158,15800000000,,432.208040538,432.21157203,432.208040538,432.21157203
15901000000,159,15901000000,,438.719009008,438.722552788,438.719009008,438.722552788
16000000000,160,16000000000,,423.574311228,423.577350592,423.574311228,423.577350592
16100000000,161,16100000000,,432.664357687,432.66849717,432.664357687,432.66849717
16200000000,162,16200000000,,433.154122448,433.159172365,433.154122448,433.159172365
16301000000,163,16301000000,,438.083157245,438.087459282,438.083157245,438.087459282
16402000000,164,16402000000,,435.011550293,435.015410948,435.011550293,435.015410948
16500000000,165,16500000000,,432.37456081,432.37873924,432.37456081,432.37873924
16600000000,166,16600000000,,433.888919747,433.893077236,433.888919747,433.893077236
