%time,field.header.seq,field.header.stamp,field.header.frame_id,field.pose.position.x,field.pose.position.y,field.pose.position.z,field.pose.orientation.x,field.pose.orientation.y,field.pose.orientation.z,field.pose.orientation.w
1601000000,0,1601000000,world,-0.00120012187252,0.00098095335339,1.94322521911,-0.00023858706088,2.75775671789e-05,3.49697362752e-05,0.999999970546
1611000000,1,1611000000,world,-0.00120950234701,0.00100076027203,1.95464986911,-0.000244641802145,2.83035914302e-05,3.52469861013e-05,0.999999969053
1621000000,2,1621000000,world,-0.00121852994768,0.00102377573918,1.9660087918,-0.000250653599476,2.90306583589e-05,3.55242662127e-05,0.999999967534
1631000000,3,1631000000,world,-0.00122761547199,0.00104626454766,1.97729827208,-0.000256272400217,2.97083766292e-05,3.58013815182e-05,0.99999996608
1641000000,4,1641000000,world,-0.00123675355385,0.00106826888018,1.98851474596,-0.000261522502198,3.03303772315e-05,3.60780470987e-05,0.999999964692
1651000000,5,1651000000,world,-0.0012459373925,0.0010898445151,1.99965479576,-0.00026642494981,3.0898705331e-05,3.63543286992e-05,0.999999963371
1661000000,6,1661000000,world,-0.00125479955011,0.00111412221642,2.0107151421,-0.000271252299406,3.14818094835e-05,3.66304250827e-05,0.999999962045
1671000000,7,1671000000,world,-0.00126367398569,0.00113825870675,2.02169264318,-0.000275602710591,3.20126904971e-05,3.6906323169e-05,0.999999960828
1681000000,8,1681000000,world,-0.00127259612605,0.0011619509021,2.03258428417,-0.000279415731592,3.24809384836e-05,3.71819988999e-05,0.999999959745
1691000000,9,1691000000,world,-0.00128155918681,0.00118525682435,2.04338717306,-0.000282681593123,3.28910526852e-05,3.74575713798e-05,0.999999958803
1701000000,10,1701000000,world,-0.00129022326705,0.00121108185651,2.05409853386,-0.000285719448999,3.32782623371e-05,3.77331259112e-05,0.999999957917
1711000000,11,1711000000,world,-0.00129889633125,0.00123679166572,2.06471570682,-0.000288260146981,3.36042570394e-05,3.8008342027e-05,0.999999957166
1721000000,12,1721000000,world,-0.00130761074334,0.00126210752713,2.07523613888,-0.000290289209542,3.3863293338e-05,3.82831023769e-05,0.99999995656
1731000000,13,1731000000,world,-0.0013163601495,0.00128708584674,2.08565744484,-0.000291804711468,3.40709043239e-05,3.85575362815e-05,0.999999956101
1741000000,14,1741000000,world,-0.00132513759186,0.00131179164215,2.09597801044,-0.000292752959679,3.42467843955e-05,3.88317802074e-05,0.999999955807
1751000000,15,1751000000,world,-0.00133393412053,0.00133629310529,2.10619667862,-0.000293111997406,3.43476776549e-05,3.91057889262e-05,0.999999955688
1761000000,16,1761000000,world,-0.00134258099291,0.00136200812922,2.11631234199,-0.000293024089057,3.43942880468e-05,3.93795936194e-05,0.999999955702
1771000000,17,1771000000,world,-0.00135086128296,0.00139072056785,2.12632393698,-0.000292665277379,3.44120415948e-05,3.96533271542e-05,0.999999955795
1781000000,18,1781000000,world,-0.00135895391448,0.00142093236176,2.13623044438,-0.000291862782606,3.4381500763e-05,3.99269479938e-05,0.99999995602
1791000000,19,1791000000,world,-0.001367085827,0.00145077793477,2.14603088575,-0.00029040890732,3.42752269413e-05,4.02001491221e-05,0.999999956436
1801000000,20,1801000000,world,-0.0013752540149,0.00148028304259,2.15572432041,-0.000288300856883,3.40963147703e-05,4.04729128539e-05,0.999999957041
1811000000,21,1811000000,world,-0.00138345470238,0.00150948591385,2.16530984499,-0.000285518143173,3.38754839893e-05,4.07453832136e-05,0.999999957836
1821000000,22,1821000000,world,-0.00139172067347,0.00153803566151,2.17478659225,-0.00028201476118,3.35969668307e-05,4.10176367808e-05,0.999999958828
1831000000,23,1831000000,world,-0.00140001354568,0.0015662747929,2.1841537289,-0.000277831534541,3.32277925642e-05,4.12896424276e-05,0.99999996
1841000000,24,1841000000,world,-0.00140831661977,0.00159439708077,2.19341045479,-0.000272992539272,3.2773083559e-05,4.15614672103e-05,0.999999961337
1851000000,25,1851000000,world,-0.00141662316581,0.00162246027673,2.20255629459,-0.000267462254125,3.22368240726e-05,4.18336744887e-05,0.999999962837
1861000000,26,1861000000,world,-0.00142480419456,0.00165122855266,2.21159172301,-0.000261228622254,3.16359969253e-05,4.21064093751e-05,0.999999964493
1871000000,27,1871000000,world,-0.00143298333832,0.00168000180477,2.22051738016,-0.000254211430131,3.09594017113e-05,4.23794372084e-05,0.999999966311
1881000000,28,1881000000,world,-0.00144115606697,0.00170882034188,2.22933388078,-0.000246394418992,3.02191911783e-05,4.26527658826e-05,0.999999968279
1891000000,29,1891000000,world,-0.00144931885507,0.00173772064283,2.23804181568,-0.000237793163873,2.94576526295e-05,4.29265004613e-05,0.999999970372
1901000000,30,1901000000,world,-0.00145746651459,0.00176673341049,2.24664175269,-0.000228490390676,2.86269913818e-05,4.32006633659e-05,0.999999972553
1911000000,31,1911000000,world,-0.00146559543798,0.00179379194368,2.25513423856,-0.000218296543097,2.77047503011e-05,4.34750687428e-05,0.999999974844
1921000000,32,1921000000,world,-0.00147370135471,0.00182103302505,2.26351979666,-0.000207461053225,2.66941108021e-05,4.37499296853e-05,0.999999977167
1931000000,33,1931000000,world,-0.00148178149163,0.00184860847594,2.27179903775,-0.000195948721999,2.5601900548e-05,4.40253118161e-05,0.999999979505
1941000000,34,1941000000,world,-0.00149186127056,0.00185821521786,2.27997367341,-0.000181757972996,2.42206793072e-05,4.43008024686e-05,0.999999982207
1951000000,35,1951000000,world,-0.00150285394061,0.00185463858136,2.28804598937,-0.000165446643608,2.26822179096e-05,4.45759593621e-05,0.999999985063
1961000000,36,1961000000,world,-0.00151361068694,0.0018536044976,2.29601818792,-0.000148682802722,2.11439574808e-05,4.48512878496e-05,0.999999987717
1971000000,37,1971000000,world,-0.00152411377496,0.00185530652302,2.30389239524,-0.000131678972016,1.9644986934e-05,4.51268875914e-05,0.999999990119
1981000000,38,1981000000,world,-0.0015352479076,0.00184901384631,2.31167065899,-0.000113515278663,1.80222859226e-05,4.54025341531e-05,0.999999992364
1991000000,39,1991000000,world,-0.00154643604565,0.0018416799985,2.31935494331,-9.50618553317e-05,1.63341298628e-05,4.56783967001e-05,0.999999994305
2001000000,40,2001000000,world,-0.00155727757472,0.00183814069478,2.32694713902,-7.69112565505e-05,1.46343765709e-05,4.595464848e-05,0.999999995879
2011000000,41,2011000000,world,-0.00156777486337,0.00183837432404,2.33444906612,-5.89703448784e-05,1.29425077434e-05,4.62312728029e-05,0.999999997109
2021000000,42,2021000000,world,-0.0015779372758,0.00184227431021,2.34186247494,-4.12258596474e-05,1.12728198858e-05,4.65079834023e-05,0.999999998005
2031000000,43,2031000000,world,-0.0015877797468,0.00184966983147,2.34918904883,-2.36988575353e-05,9.64069959275e-06,4.67847142142e-05,0.999999998578
2041000000,44,2041000000,world,-0.00159732214744,0.00186034262436,2.35643040664,-6.42928983799e-06,8.09045156432e-06,4.70615270637e-05,0.999999998839
2051000000,45,2051000000,world,-0.00160706446326,0.0018700834546,2.36358804957,1.07413323397e-05,6.56237727741e-06,4.7338399811e-05,0.9999999988
2061000000,46,2061000000,world,-0.00161695892905,0.00187616133589,2.37066284082,2.79603799624e-05,5.00518301233e-06,4.76152930489e-05,0.999999998463
2071000000,47,2071000000,world,-0.00162662001592,0.00188415983651,2.37765527314,4.45568556479e-05,3.46492667807e-06,4.78922883193e-05,0.999999997855
2081000000,48,2081000000,world,-0.00163600539035,0.00189516392358,2.38456581645,6.04406302649e-05,1.95848974408e-06,4.81694530633e-05,0.999999997011
2091000000,49,2091000000,world,-0.00164513617213,0.00190894590987,2.3913949222,7.57437947037e-05,4.98976478451e-07,4.84465847037e-05,0.999999995958
2101000000,50,2101000000,world,-0.00165421734927,0.00192575676229,2.39814302437,9.04111738349e-05,-9.25314237885e-07,4.87233199538e-05,0.999999994726
2111000000,51,2111000000,world,-0.00166309872544,0.00194485537897,2.4048105398,0.00010451901408,-2.27982661908e-06,4.899971331e-05,0.999999993335
2121000000,52,2121000000,world,-0.00167178242323,0.00196591056471,2.41139786913,0.00011797630312,-3.51563905101e-06,4.9275846326e-05,0.999999991821
2131000000,53,2131000000,world,-0.00168028929991,0.00198865066663,2.41790656742,0.000130618584295,-4.69514905843e-06,4.95517108053e-05,0.999999990231
2141000000,54,2141000000,world,-0.00168852879762,0.0020123440111,2.42434284104,0.000142482667912,-5.82789349297e-06,4.98273537542e-05,0.999999988591
2151000000,55,2151000000,world,-0.00169658210926,0.00203699749602,2.43071382657,0.000153563716312,-6.91655527079e-06,5.01028121293e-05,0.99999998693
2161000000,56,2161000000,world,-0.00170453311485,0.00206265054269,2.43702640696,0.000163947312769,-7.95988115666e-06,5.03781039603e-05,0.99999998526
2171000000,57,2171000000,world,-0.00171240196606,0.00208909524993,2.44328721942,0.000173700607521,-8.95368308177e-06,5.06529098109e-05,0.999999983591
2181000000,58,2181000000,world,-0.00172024960899,0.00211670741785,2.44950266357,0.000182768490214,-9.89797050958e-06,5.09270681185e-05,0.999999981952
2191000000,59,2191000000,world,-0.00172814505873,0.00214600177624,2.45567890889,0.000191089910627,-1.07681608226e-05,5.12006274956e-05,0.999999980374
2201000000,60,2201000000,world,-0.00173600002718,0.00217543635128,2.46182190125,0.0001987052049,-1.15511237616e-05,5.14737974966e-05,0.999999978867
2211000000,61,2211000000,world,-0.00174382529118,0.00220485390933,2.46793648437,0.000205589118265,-1.23043690299e-05,5.17465256577e-05,0.999999977452
2221000000,62,2221000000,world,-0.00175053179511,0.0022446062327,2.4740225001,0.000210678260022,-1.2909135149e-05,5.20192078605e-05,0.999999976371
2231000000,63,2231000000,world,-0.00175598385817,0.00229597006928,2.48007820087,0.000213934801027,-1.33483562619e-05,5.22920794885e-05,0.99999997566
2241000000,64,2241000000,world,-0.00176159117199,0.00234549882074,2.48610190255,0.000216858252994,-1.3773793799e-05,5.25645983191e-05,0.99999997501
2251000000,65,2251000000,world,-0.00176737634411,0.00239297019502,2.49209199411,0.000219517060052,-1.4192656845e-05,5.2836528874e-05,0.99999997441
2261000000,66,2261000000,world,-0.00177335410409,0.00243824582547,2.4980469292,0.000221978385147,-1.45989027197e-05,5.31079742622e-05,0.999999973846
2271000000,67,2271000000,world,-0.00178017315371,0.00247478391996,2.50396522022,0.000224973172297,-1.50265526699e-05,5.33789960254e-05,0.999999973156
2281000000,68,2281000000,world,-0.00178726627022,0.00250831686439,2.5098454447,0.000227900152591,-1.54766247894e-05,5.3649743028e-05,0.999999972472
2291000000,69,2291000000,world,-0.00179450889229,0.00254011109516,2.515686235,0.000230648440702,-1.59446723097e-05,5.39202825191e-05,0.99999997182
2301000000,70,2301000000,world,-0.00180189198183,0.0025702686274,2.52148627752,0.000233239759853,-1.64267763511e-05,5.41907897894e-05,0.999999971196
2311000000,71,2311000000,world,-0.00180946700079,0.00259847976059,2.52724431056,0.000235752391364,-1.6924252515e-05,5.44612934058e-05,0.999999970584
2321000000,72,2321000000,world,-0.00181739684613,0.00262299518475,2.53295912296,0.000238378542326,-1.74533771978e-05,5.47314299787e-05,0.999999969938
2331000000,73,2331000000,world,-0.00182541989886,0.00264636110553,2.53862960553,0.000240842972669,-1.79797900673e-05,5.50012467967e-05,0.999999969323
2341000000,74,2341000000,world,-0.00183354238178,0.00266858594267,2.54425498199,0.000243144493018,-1.84677637664e-05,5.52709189193e-05,0.999999968742
2351000000,75,2351000000,world,-0.00184188254088,0.00268890305976,2.54983460158,0.000245343218945,-1.89505097339e-05,5.55404868859e-05,0.999999968181
2361000000,76,2361000000,world,-0.00185027583807,0.00270846254144,2.55536784026,0.000247311584862,-1.94476442446e-05,5.58099311593e-05,0.999999967672
2371000000,77,2371000000,world,-0.00185871385458,0.00272735538645,2.5608540981,0.000249045443525,-1.99522182651e-05,5.60793366447e-05,0.999999967217
2381000000,78,2381000000,world,-0.0018671899979,0.00274565717547,2.56629279889,0.000250548753688,-2.04571692644e-05,5.63488499281e-05,0.999999966816
2391000000,79,2391000000,world,-0.00187569912026,0.00276342987761,2.57168338919,0.000251827981392,-2.09574013013e-05,5.66182031141e-05,0.999999966469
2401000000,80,2401000000,world,-0.00188439301621,0.00277984455666,2.57702533691,0.00025293725854,-2.1465343174e-05,5.68871452575e-05,0.999999966163
2411000000,81,2411000000,world,-0.00189312098878,0.00279577559807,2.58231812931,0.000253767633618,-2.19450152707e-05,5.71558127609e-05,0.999999965927
2421000000,82,2421000000,world,-0.00190186278381,0.00281136118203,2.58756105115,0.000254295400918,-2.23665195533e-05,5.74243847801e-05,0.999999965768
2431000000,83,2431000000,world,-0.00191083837924,0.0028258005786,2.59275304067,0.000254600195552,-2.28109175972e-05,5.7692743248e-05,0.999999965665
2441000000,84,2441000000,world,-0.00191986482882,0.00283978810917,2.597893044,0.000254609277479,-2.32581601865e-05,5.79609570952e-05,0.999999965637
2451000000,85,2451000000,world,-0.00192888282822,0.00285355616072,2.60298004895,0.000254305387571,-2.36956196101e-05,5.82291932548e-05,0.999999965688
2461000000,86,2461000000,world,-0.00193789205033,0.00286711491081,2.60801308341,0.000253683617438,-2.41162343387e-05,5.8497418005e-05,0.999999965821
2471000000,87,2471000000,world,-0.00194689326603,0.00288046641939,2.6129912139,0.000252715736764,-2.45175569485e-05,5.87652833183e-05,0.99999996604
2481000000,88,2481000000,world,-0.00195604070794,0.0028925219707,2.61791354336,0.000251482033699,-2.49074753918e-05,5.90327334791e-05,0.999999966326
2491000000,89,2491000000,world,-0.0019651928811,0.00290430676431,2.62277921147,0.000249864042409,-2.5234054492e-05,5.92999924333e-05,0.999999966707
2501000000,90,2501000000,world,-0.00197433369445,0.00291594490761,2.62758739151,0.000247870768877,-2.55245669678e-05,5.95671133519e-05,0.99999996718
2511000000,91,2511000000,world,-0.00198371547662,0.00292629627888,2.63233728887,0.00024563112186,-2.58316121372e-05,5.98339660106e-05,0.999999967709
2521000000,92,2521000000,world,-0.00199318104764,0.00293607881775,2.63702814141,0.00024307837381,-2.61305505384e-05,6.01006942207e-05,0.999999968309
2531000000,93,2531000000,world,-0.00200262120471,0.00294579179859,2.64165928047,0.000240145255979,-2.64029036285e-05,6.03674740447e-05,0.999999968994
2541000000,94,2541000000,world,-0.00201203821287,0.00295542782096,2.64623103212,0.000236801192489,-2.66450720887e-05,6.06340147616e-05,0.999999969769
2551000000,95,2551000000,world,-0.00202143535613,0.00296497336682,2.65074444713,0.000232996012115,-2.68544488453e-05,6.090011548e-05,0.999999970641
2561000000,96,2561000000,world,-0.00203087152511,0.00297451926935,2.65520055335,0.000228686973597,-2.70186817805e-05,6.11658677229e-05,0.999999971615
2571000000,97,2571000000,world,-0.00204037390952,0.00298409207071,2.65960033878,0.000223911517387,-2.71184716176e-05,6.14314434069e-05,0.999999972677
2581000000,98,2581000000,world,-0.00205014386323,0.00299352095314,2.66394475304,0.000218734156946,-2.72257142989e-05,6.1696693445e-05,0.999999973804
2591000000,99,2591000000,world,-0.00205991675557,0.00300277252891,2.66823470909,0.000213176222073,-2.73073108414e-05,6.19617463933e-05,0.999999974985
2601000000,100,2601000000,world,-0.00206966248886,0.0030118264844,2.67247108451,0.00020724901182,-2.73532056718e-05,6.22267840591e-05,0.999999976214
2611000000,101,2611000000,world,-0.00207938444272,0.0030206647891,2.67665472288,0.0002008995805,-2.73587742526e-05,6.24917597198e-05,0.999999977493
2621000000,102,2621000000,world,-0.00208918044556,0.00302962610286,2.6807864352,0.000194040734527,-2.73341572001e-05,6.27562603911e-05,0.999999978831
2631000000,103,2631000000,world,-0.00209895569041,0.00303832182257,2.68486700072,0.000186662721569,-2.72631606197e-05,6.3020324256e-05,0.999999980221
2641000000,104,2641000000,world,-0.00210871515055,0.00304674058755,2.68889716857,0.000178775626213,-2.71145060821e-05,6.32841687798e-05,0.99999998165
2651000000,105,2651000000,world,-0.00211846295797,0.00305487834796,2.69287747647,0.00017049551672,-2.69167498234e-05,6.35478303668e-05,0.999999983084
2661000000,106,2661000000,world,-0.00212821936437,0.00306287191377,2.69680708212,0.000161847268806,-2.6688247431e-05,6.38112325337e-05,0.999999984511
2671000000,107,2671000000,world,-0.00213811170296,0.00307178562352,2.70068457768,0.000152751452569,-2.64334698654e-05,6.40744018623e-05,0.999999985931
2681000000,108,2681000000,world,-0.00214799696807,0.00308033838841,2.70450860856,0.000143296094822,-2.61329855619e-05,6.43375992491e-05,0.999999987322
2691000000,109,2691000000,world,-0.00215787842247,0.00308852469203,2.70827787477,0.000133408611574,-2.5788184536e-05,6.4600490833e-05,0.999999988682
2701000000,110,2701000000,world,-0.00216779388068,0.00309718418868,2.71199112838,0.000122941388463,-2.54038785071e-05,6.48628398023e-05,0.999999990016
2711000000,111,2711000000,world,-0.00217776102659,0.00310666266522,2.71564717097,0.000111820168645,-2.49676622322e-05,6.51247736023e-05,0.999999991316
2721000000,112,2721000000,world,-0.00218773001705,0.00311567125523,2.71924485139,0.000100314259472,-2.44591861202e-05,6.53865494075e-05,0.999999992532
2731000000,113,2731000000,world,-0.0021977026548,0.00312421912405,2.72278320976,8.85393244462e-05,-2.39172599071e-05,6.56480671952e-05,0.99999999364
2741000000,114,2741000000,world,-0.0022062200906,0.00316826516532,2.7262624126,7.27755312778e-05,-2.31786565656e-05,6.59084347155e-05,0.999999994911
2751000000,115,2751000000,world,-0.00221483559993,0.00320970910467,2.72968308221,5.71429524453e-05,-2.24059696521e-05,6.61687483095e-05,0.999999995927
2761000000,116,2761000000,world,-0.00222356347874,0.00324828838446,2.73304582751,4.15974750197e-05,-2.16054643828e-05,6.64288900277e-05,0.999999996695
2771000000,117,2771000000,world,-0.00223241264176,0.00328386814666,2.73635123362,2.61576193231e-05,-2.07868971542e-05,6.66884394327e-05,0.999999997218
2781000000,118,2781000000,world,-0.00224124799783,0.00331850620099,2.73959986299,1.06096557205e-05,-1.99380921134e-05,6.69473148135e-05,0.999999997504
2791000000,119,2791000000,world,-0.00224967440105,0.00335818940376,2.74279225576,-5.55537707822e-06,-1.89987682675e-05,6.7205563768e-05,0.999999997546
2801000000,120,2801000000,world,-0.00225827002377,0.00339435773003,2.74592893108,-2.10995914445e-05,-1.80555478376e-05,6.74634132962e-05,0.999999997339
2811000000,121,2811000000,world,-0.00226699334514,0.00342737268708,2.74901038841,-3.59253687419e-05,-1.71117429075e-05,6.77207379728e-05,0.999999996915
2821000000,122,2821000000,world,-0.00227551349983,0.00345952817863,2.75203710733,-5.0182284055e-05,-1.6126861271e-05,6.7977503772e-05,0.9999999963
2831000000,123,2831000000,world,-0.00228422210873,0.00348842361797,2.75500954931,-6.36655983549e-05,-1.5145437188e-05,6.82339764087e-05,0.999999995531
2841000000,124,2841000000,world,-0.00229311472361,0.0035142647381,2.75792815752,-7.64375177627e-05,-1.41778959432e-05,6.84897626595e-05,0.999999994633
2851000000,125,2851000000,world,-0.00230218369169,0.00353728989093,2.76079335786,-8.85289583026e-05,-1.32312355724e-05,6.87446484946e-05,0.999999993631
2861000000,126,2861000000,world,-0.00231136982215,0.00355732455539,2.7636055795,-9.99117455858e-05,-1.22927359825e-05,6.89987441846e-05,0.999999992553
2871000000,127,2871000000,world,-0.00232052140875,0.00357341505585,2.76636604929,-0.000110278942136,-1.13331523736e-05,6.92521422125e-05,0.999999991457
2881000000,128,2881000000,world,-0.00232983115173,0.0035876271593,2.76907699549,-0.000119716901513,-1.04039370122e-05,6.95048521703e-05,0.999999990364
2891000000,129,2891000000,world,-0.00233928812593,0.00360024280633,2.77174062939,-0.000128224390263,-9.4959785053e-06,6.9756911915e-05,0.999999989301
2901000000,130,2901000000,world,-0.00234888037944,0.00361152614734,2.77435907791,-0.00013584294482,-8.60592482733e-06,7.00085009919e-05,0.999999988286
2911000000,131,2911000000,world,-0.00236056348557,0.00359831510073,2.77693439459,-0.000140291099315,-7.94562361471e-06,7.02604143816e-05,0.999999987659
2921000000,132,2921000000,world,-0.00237271786403,0.00357994498224,2.77946854097,-0.000143617241146,-7.34328875569e-06,7.05114978608e-05,0.999999987174
2931000000,133,2931000000,world,-0.00238480483349,0.00356287784435,2.78196337815,-0.0001465720047,-6.73645676532e-06,7.07615626077e-05,0.999999986732
2941000000,134,2941000000,world,-0.00239610603909,0.00355702257435,2.78442000028,-0.000150243224345,-6.01632272301e-06,7.10105371713e-05,0.999999986174
2951000000,135,2951000000,world,-0.0024072641291,0.0035535031995,2.78683877787,-0.000153656035012,-5.26984397461e-06,7.12588007111e-05,0.999999985642
2961000000,136,2961000000,world,-0.00241835275094,0.00355129007661,2.78922003605,-0.000156718403015,-4.51155024713e-06,7.15063985467e-05,0.999999985153
2971000000,137,2971000000,world,-0.00242936920497,0.00355041084462,2.79156408697,-0.000159455560334,-3.73173219341e-06,7.17535038003e-05,0.999999984706
2981000000,138,2981000000,world,-0.00244031274947,0.00355086394596,2.79387123062,-0.000161920544399,-2.92869371792e-06,7.20002568137e-05,0.999999984295
2991000000,139,2991000000,world,-0.00245106277689,0.00355334108644,2.7961417553,-0.000164225615039,-2.09571509118e-06,7.22463029159e-05,0.999999983903
3001000000,140,3001000000,world,-0.00246163141994,0.00355867630251,2.79837593687,-0.000166509173108,-1.23926363252e-06,7.24915522491e-05,0.999999983509
3011000000,141,3011000000,world,-0.00247214800446,0.00356507780802,2.80057404304,-0.000168603155222,-3.621615093e-07,7.27362659598e-05,0.999999983141
3021000000,142,3021000000,world,-0.0024826177833,0.00357246927642,2.80273632934,-0.000170458800306,5.56023968216e-07,7.29806201174e-05,0.999999982809
3031000000,143,3031000000,world,-0.00249299007241,0.00358108852732,2.80486304149,-0.000172088465502,1.49331394699e-06,7.32245692019e-05,0.999999982511
3041000000,144,3041000000,world,-0.0025031146933,0.00359175028712,2.8069544154,-0.000173575048349,2.47470040406e-06,7.3468161606e-05,0.999999982234
3051000000,145,3051000000,world,-0.00251322016262,0.00360309087115,2.80901079586,-0.000174783458013,3.47857379551e-06,7.37116751797e-05,0.999999982003
3061000000,146,3061000000,world,-0.00252331126239,0.00361503544032,2.81103315263,-0.000175712576391,4.49608157715e-06,7.39549282786e-05,0.999999981818
3071000000,147,3071000000,world,-0.0025332353951,0.00362808535707,2.81302262873,-0.000176440508656,5.53399616646e-06,7.41975908029e-05,0.999999981666
3081000000,148,3081000000,world,-0.00254305849311,0.00364195238497,2.81498032332,-0.000176949007147,6.57874032339e-06,7.44397601552e-05,0.999999981552
3091000000,149,3091000000,world,-0.00255289145964,0.00365619379554,2.8169072931,-0.000177166572701,7.65289356978e-06,7.46816693563e-05,0.999999981488
3101000000,150,3101000000,world,-0.00256273567142,0.00367076503015,2.81880455375,-0.000177063250802,8.73412871477e-06,7.49233041029e-05,0.999999981479
3111000000,151,3111000000,world,-0.00257255990212,0.00368568507375,2.82067308163,-0.000176635006476,9.82605927866e-06,7.51646604577e-05,0.999999981527
3121000000,152,3121000000,world,-0.00258212167947,0.00370134666245,2.8225138151,-0.000175915972733,1.09589780954e-05,7.54058064136e-05,0.999999981624
3131000000,153,3131000000,world,-0.00259171025827,0.00371722171907,2.82432786357,-0.000174811930734,1.20633752181e-05,7.56468533605e-05,0.999999981786
3141000000,154,3141000000,world,-0.00260132400449,0.00373329237935,2.8261175929,-0.000173260260098,1.30730172389e-05,7.58874458858e-05,0.999999982026
3151000000,155,3151000000,world,-0.00261090448913,0.00374965412441,2.82788577919,-0.000171284155355,1.39888330581e-05,7.61275245761e-05,0.999999982335
3161000000,156,3161000000,world,-0.00262028919454,0.00376660718602,2.82963509441,-0.000168907261616,1.48536236983e-05,7.63672213524e-05,0.999999982709
3171000000,157,3171000000,world,-0.00262970847341,0.00378369778384,2.83136810949,-0.000166083508544,1.56524362902e-05,7.66066904556e-05,0.999999983151
3181000000,158,3181000000,world,-0.00263936663092,0.00380066676813,2.8330872977,-0.000162790957222,1.63423131827e-05,7.68459326976e-05,0.999999983663
3191000000,159,3191000000,world,-0.00265085138454,0.00381556411819,2.83479503905,-0.000158831870768,1.67660854365e-05,7.70855930674e-05,0.999999984275
3201000000,160,3201000000,world,-0.00266223618579,0.00383074474988,2.83649362122,-0.000154441332118,1.71330881593e-05,7.73251513111e-05,0.999999984938
3211000000,161,3211000000,world,-0.00267350014004,0.00384623173214,2.83818524571,-0.000149582568725,1.74482331484e-05,7.75643097007e-05,0.999999985652
3221000000,162,3221000000,world,-0.00268432652528,0.00386212208442,2.83987202998,-0.000144282060996,1.77482665558e-05,7.78027963924e-05,0.999999986407
3231000000,163,3231000000,world,-0.00269433911448,0.00387852497457,2.84155601063,-0.000138545444473,1.80896495909e-05,7.80406238383e-05,0.999999987194
3241000000,164,3241000000,world,-0.00270426653015,0.00389524012004,2.84323914652,-0.000132398852261,1.84284261163e-05,7.82781687596e-05,0.999999988002
3251000000,165,3251000000,world,-0.00271411319368,0.00391226192102,2.84492332148,-0.000125883808282,1.87239509854e-05,7.85153982543e-05,0.999999988819
3261000000,166,3261000000,world,-0.00272388412311,0.00392958229162,2.84661010394,-0.000119012782448,1.89821829442e-05,7.87523739962e-05,0.999999989637
3271000000,167,3271000000,world,-0.00273317872798,0.00394661834514,2.84829918837,-0.000111713811669,1.92518157404e-05,7.89891425382e-05,0.999999990455
3281000000,168,3281000000,world,-0.00274233241509,0.00396382567943,2.84998948128,-0.000103958181782,1.94957147816e-05,7.92256155154e-05,0.999999991268
3291000000,169,3291000000,world,-0.00275136705216,0.00398102084585,2.85167992997,-9.57267395785e-05,1.97082070064e-05,7.94615205274e-05,0.999999992067
3301000000,170,3301000000,world,-0.00276012033923,0.00399728000089,2.85336952372,-8.69102989939e-05,1.99095004644e-05,7.96968847375e-05,0.999999992849
3311000000,171,3311000000,world,-0.00276887888961,0.00401391447864,2.85505729149,-7.77069104115e-05,2.01142962406e-05,7.99319575559e-05,0.999999993584
3321000000,172,3321000000,world,-0.00277764726229,0.00403091297867,2.85674230105,-6.82121011901e-05,2.0280333012e-05,8.01667523233e-05,0.999999994255
3331000000,173,3331000000,world,-0.00278642826064,0.00404825858171,2.85842363213,-5.84500912966e-05,2.04012584193e-05,8.04012919294e-05,0.999999994852
3341000000,174,3341000000,world,-0.00279522309601,0.00406592948432,2.86009980753,-4.84188511828e-05,2.04814968071e-05,8.06357149939e-05,0.999999995367
3351000000,175,3351000000,world,-0.00280391787218,0.00408298898428,2.86176882188,-3.7926331837e-05,2.05334560825e-05,8.08699580992e-05,0.9999999958
3361000000,176,3361000000,world,-0.00281246522024,0.00409904035179,2.86342872598,-2.69018427975e-05,2.05586193466e-05,8.11036717542e-05,0.999999996138
3371000000,177,3371000000,world,-0.00282104007854,0.00411547543364,2.8650776488,-1.54802772608e-05,2.05379342001e-05,8.13368890865e-05,0.999999996361
3381000000,178,3381000000,world,-0.00282964216955,0.00413227339627,2.86671379455,-3.69107162105e-06,2.05113490063e-05,8.15697685755e-05,0.999999996456
3391000000,179,3391000000,world,-0.00283804087587,0.00412471663335,2.86833543938,1.09236473625e-05,2.04855783619e-05,8.18021752044e-05,0.999999996385
3401000000,180,3401000000,world,-0.00284637854524,0.00410861873178,2.86994092654,2.65506655775e-05,2.04187585761e-05,8.20342495414e-05,0.999999996074
3411000000,181,3411000000,world,-0.00285475435843,0.00409510631044,2.8715286675,4.18997693947e-05,2.03046583974e-05,8.22661738587e-05,0.999999995532
3421000000,182,3421000000,world,-0.0028632026929,0.00407167463683,2.87309713602,5.82705389712e-05,2.01422087893e-05,8.24978968254e-05,0.999999994696
3431000000,183,3431000000,world,-0.00287168077896,0.00405180417276,2.87464486897,7.42956614514e-05,1.99331370513e-05,8.27292708716e-05,0.999999993619
3441000000,184,3441000000,world,-0.00288018376868,0.00403556592753,2.87617046119,8.98756617568e-05,1.96768747408e-05,8.29601761597e-05,0.999999992326
3451000000,185,3451000000,world,-0.00288870703511,0.0040229246669,2.87767257301,0.000104934732616,1.93961711263e-05,8.31907095846e-05,0.999999990846
3461000000,186,3461000000,world,-0.00289724613699,0.00401375694068,2.87915030457,0.000119195949581,1.91190612277e-05,8.34209911647e-05,0.999999989234
3471000000,187,3471000000,world,-0.00290612409812,0.00400619463227,2.88060328891,0.000132691826484,1.87585414236e-05,8.36508046541e-05,0.999999987522
3481000000,188,3481000000,world,-0.00291498640629,0.00400179870749,2.88203120639,0.00014518723149,1.8353681707e-05,8.38803424046e-05,0.999999985774
3491000000,189,3491000000,world,-0.00292382573524,0.00400032828505,2.88343374942,0.000156722952315,1.79106134814e-05,8.41097060436e-05,0.999999984021
3501000000,190,3501000000,world,-0.00293274262629,0.00400290698329,2.88481062301,0.000167251961408,1.74224218097e-05,8.43386441145e-05,0.999999982305
3511000000,191,3511000000,world,-0.00294174642384,0.00400981365009,2.88616154351,0.000176704354265,1.68908629377e-05,8.45668659001e-05,0.999999980669
3521000000,192,3521000000,world,-0.00295069815587,0.0040185984857,2.8874862373,0.000185319503269,1.63441990404e-05,8.47944398737e-05,0.9999999791
3531000000,193,3531000000,world,-0.00295959494182,0.00402895586407,2.88878444226,0.000193021334085,1.58301860276e-05,8.50215042205e-05,0.999999977632
3541000000,194,3541000000,world,-0.00296843314224,0.00404059863027,2.89005589598,0.00019973023792,1.52924247016e-05,8.52480386869e-05,0.999999976303
3551000000,195,3551000000,world,-0.002977211323,0.0040532636391,2.89130030381,0.000205466766395,1.47225273986e-05,8.54740800599e-05,0.99999997513
3561000000,196,3561000000,world,-0.00298566068483,0.00407239219275,2.89251737489,0.000209703387409,1.41548064553e-05,8.5700037019e-05,0.99999997424
3571000000,197,3571000000,world,-0.00299301946575,0.00411388628947,2.89370683548,0.000210906941175,1.367531548e-05,8.59266515865e-05,0.999999973974
3581000000,198,3581000000,world,-0.00300010683476,0.00415731744163,2.89486840452,0.000211196559699,1.31974499454e-05,8.61528007464e-05,0.9999999739
3591000000,199,3591000000,world,-0.00300695969474,0.00420203178629,2.89600182162,0.000210696848398,1.27214340784e-05,8.63784636737e-05,0.999999973992
3601000000,200,3601000000,world,-0.0030138961627,0.00424432107667,2.89710683506,0.00020986955063,1.22501756592e-05,8.66036291419e-05,0.999999974152
3611000000,201,3611000000,world,-0.00302092422905,0.00428397514015,2.89818320462,0.00020882274468,1.17497451809e-05,8.68283870018e-05,0.999999974358
3621000000,202,3621000000,world,-0.00302804735789,0.00432087917745,2.89923069961,0.000207650268067,1.1184247696e-05,8.70527047539e-05,0.999999974589
3631000000,203,3631000000,world,-0.00303595697209,0.00433959116459,2.90024909172,0.000208030870093,1.04829556024e-05,8.72760874313e-05,0.999999974498
3641000000,204,3641000000,world,-0.00304420824082,0.00435002714983,2.90123817258,0.000208938020646,9.6993598739e-06,8.749912283e-05,0.999999974297
3651000000,205,3651000000,world,-0.00305248715638,0.00435961617627,2.90219789072,0.00020960562864,8.87342976035e-06,8.77218191568e-05,0.999999974146
3661000000,206,3661000000,world,-0.00306078542735,0.0043690579939,2.90312931108,0.000209922489159,8.01360990161e-06,8.79440283893e-05,0.999999974067
3671000000,207,3671000000,world,-0.00306909042133,0.004377608715,2.90403395007,0.000209949637096,7.15305997637e-06,8.81658654358e-05,0.999999974048
3681000000,208,3681000000,world,-0.00307739547887,0.00438542215843,2.9049132679,0.000209668220995,6.30509602203e-06,8.83875018426e-05,0.999999974094
3691000000,209,3691000000,world,-0.00308569352628,0.00439262735956,2.90576866853,0.000209065048535,5.40509522476e-06,8.86088701594e-05,0.999999974206
3701000000,210,3701000000,world,-0.00309399236558,0.00439933012135,2.90660150184,0.000208133383493,4.45432028068e-06,8.88300207474e-05,0.999999974385
3711000000,211,3711000000,world,-0.00310238160714,0.00440561018583,2.90741306566,0.000206868113775,3.44975180543e-06,8.90511033394e-05,0.999999974632
3721000000,212,3721000000,world,-0.00311074793746,0.00441154520092,2.90820460777,0.000205246709386,2.41453823575e-06,8.9272029932e-05,0.999999974949
3731000000,213,3731000000,world,-0.00311908952304,0.00441718851457,2.90897731416,0.000203217147805,1.35981797724e-06,8.94924749649e-05,0.999999975346
3741000000,214,3741000000,world,-0.0031274064768,0.00442258052825,2.9097320749,0.000200722014087,3.23906384364e-07,8.97124921007e-05,0.999999975831
3751000000,215,3751000000,world,-0.00313570023852,0.00442775245871,2.91046952818,0.000197762919641,-6.51491474394e-07,8.9932300962e-05,0.999999976401
3761000000,216,3761000000,world,-0.00314397047559,0.00443272764237,2.91119028012,0.000194374137777,-1.63741661074e-06,9.01518769361e-05,0.999999977044
3771000000,217,3771000000,world,-0.00315221857643,0.00443752160391,2.91189491327,0.00019056714176,-2.64720644935e-06,9.03712025686e-05,0.999999977755
3781000000,218,3781000000,world,-0.00316063505776,0.00444247431874,2.91258398763,0.00018632187267,-3.69593560267e-06,9.05903735788e-05,0.999999978532
3791000000,219,3791000000,world,-0.00316904186924,0.00444818430086,2.91325804153,0.000181543414833,-4.75362591851e-06,9.08095237945e-05,0.999999979387
3801000000,220,3801000000,world,-0.00317739297211,0.00445419249666,2.91391759186,0.000176235773603,-5.8074535668e-06,9.10282722851e-05,0.999999980311
3811000000,221,3811000000,world,-0.00318572024401,0.00445990998579,2.91456313539,0.000170410693767,-6.84626901658e-06,9.12465294376e-05,0.999999981294
3821000000,222,3821000000,world,-0.00319415025928,0.00446509490779,2.91519514961,0.000164090057947,-7.83836820727e-06,9.14644556943e-05,0.999999982324
3831000000,223,3831000000,world,-0.00320262032089,0.00446986717244,2.91581409354,0.000157358157353,-8.81978595528e-06,9.16821538012e-05,0.999999983378
3841000000,224,3841000000,world,-0.00321106392555,0.0044743567529,2.9164204083,0.000150240368758,-9.82330994065e-06,9.18995681261e-05,0.999999984443
3851000000,225,3851000000,world,-0.00321957730521,0.00447883046762,2.91701465219,0.000142736919956,-1.08526055974e-05,9.2116785125e-05,0.999999985511
3861000000,226,3861000000,world,-0.00322842854791,0.00448403801599,2.91759790202,0.000134735749297,-1.19265141467e-05,9.23338925424e-05,0.999999986589
3871000000,227,3871000000,world,-0.00323723596884,0.00448889801718,2.9181713242,0.000126282894234,-1.29928111902e-05,9.25506849266e-05,0.999999987659
3881000000,228,3881000000,world,-0.00324600064633,0.00449340959253,2.91873604044,0.000117320216244,-1.4040124796e-05,9.27669516722e-05,0.999999988717
3891000000,229,3891000000,world,-0.00325472614385,0.00449757849909,2.91929312901,0.000107811873875,-1.50302287887e-05,9.29828525796e-05,0.999999989752
3901000000,230,3901000000,world,-0.00326341658097,0.00450142006854,2.91984362646,9.78796112528e-05,-1.59665302916e-05,9.31985717824e-05,0.999999990739
3911000000,231,3911000000,world,-0.00327234889707,0.00450619448724,2.92038852946,8.74815748946e-05,-1.69443769023e-05,9.34139139551e-05,0.999999991667
3921000000,232,3921000000,world,-0.00328141660988,0.00451141445711,2.92092879567,7.6708280862e-05,-1.79458891485e-05,9.36289768417e-05,0.999999992514
3931000000,233,3931000000,world,-0.00329043472488,0.00451623545309,2.92146519697,6.56393059584e-05,-1.89431095553e-05,9.38440381973e-05,0.999999993263
3941000000,234,3941000000,world,-0.00329940701263,0.00452066865275,2.9219973665,5.41726685629e-05,-1.99229098962e-05,9.40588871655e-05,0.999999993911
3951000000,235,3951000000,world,-0.00331068181812,0.00454873132144,2.92252446534,3.97178323351e-05,-2.11228171938e-05,9.42723471125e-05,0.999999994545
3961000000,236,3961000000,world,-0.00332276092796,0.0045850405872,2.92304568003,2.39123660796e-05,-2.23422432199e-05,9.44849635265e-05,0.999999995001
3971000000,237,3971000000,world,-0.00333459163617,0.00461877629193,2.92356023159,8.08485573397e-06,-2.34352974257e-05,9.46973168163e-05,0.999999995209
3981000000,238,3981000000,world,-0.00334616066387,0.00464979195609,2.92406737324,-7.47743004175e-06,-2.44765954078e-05,9.49093181018e-05,0.999999995169
3991000000,239,3991000000,world,-0.00335746599793,0.00467803623484,2.92456638787,-2.26498933352e-05,-2.54604165567e-05,9.51209337726e-05,0.999999994895
4001000000,240,4001000000,world,-0.00336883283785,0.00471061516467,2.92505658616,-3.80879733989e-05,-2.64070696668e-05,9.53320800934e-05,0.999999994382
4011000000,241,4011000000,world,-0.00338024597754,0.0047470139272,2.92553730589,-5.38094833798e-05,-2.72950229658e-05,9.55427637412e-05,0.999999993616
4021000000,242,4021000000,world,-0.00339138346535,0.00478648466519,2.92600791116,-6.97510312711e-05,-2.80760004799e-05,9.57524350998e-05,0.999999992589
4031000000,243,4031000000,world,-0.00340226243873,0.00482644309869,2.92646779165,-8.56060406655e-05,-2.87303113002e-05,9.59611733542e-05,0.999999991319
4041000000,244,4041000000,world,-0.00341290585035,0.00486249188225,2.92691636205,-0.000100771935124,-2.92204830066e-05,9.61694528803e-05,0.999999989871
4051000000,245,4051000000,world,-0.00342333408621,0.00489477349022,2.92735342393,-0.000114923796905,-2.95999918279e-05,9.63772988969e-05,0.999999988314
4061000000,246,4061000000,world,-0.00343290235299,0.00491987088816,2.92778077127,-0.00012756929029,-2.98139176131e-05,9.65845239446e-05,0.999999986754
4071000000,247,4071000000,world,-0.00344169120141,0.00493833846229,2.92820078399,-0.000138710330828,-2.9859279819e-05,9.67912827267e-05,0.99999998525
4081000000,248,4081000000,world,-0.00345042113497,0.00495423119551,2.92861574989,-0.000148838469605,-2.98055455277e-05,9.69978065431e-05,0.999999983775
4091000000,249,4091000000,world,-0.00345912336816,0.00496788912766,2.92902787058,-0.000158023789068,-2.96570283013e-05,9.72036918817e-05,0.99999998235
4101000000,250,4101000000,world,-0.00346763818197,0.00496897385101,2.92943926774,-0.000165191203323,-2.93980995428e-05,9.74093733602e-05,0.99999998118
4111000000,251,4111000000,world,-0.00347576189664,0.00494484057088,2.92985198352,-0.000169026829941,-2.89927278696e-05,9.76157744494e-05,0.99999998053
4121000000,252,4121000000,world,-0.00348396274664,0.00492161912428,2.93026796654,-0.000172241256778,-2.84903337761e-05,9.78215885615e-05,0.999999979976
4131000000,253,4131000000,world,-0.00349225817914,0.00489981872296,2.93068879823,-0.000174929704347,-2.79267140627e-05,9.80267199519e-05,0.999999979505
4141000000,254,4141000000,world,-0.00350078411027,0.00488326518465,2.93111374489,-0.000177562619108,-2.73090042933e-05,9.82311127059e-05,0.999999979038
4151000000,255,4151000000,world,-0.0035096983651,0.00487641327657,2.93154110853,-0.000180672713774,-2.6652700051e-05,9.84347978017e-05,0.999999978479
4161000000,256,4161000000,world,-0.00351870830386,0.00487107008136,2.93196926058,-0.000183472480363,-2.593362595e-05,9.86379053322e-05,0.999999977968
4171000000,257,4171000000,world,-0.00352781280869,0.00486724805672,2.93239663454,-0.000186030307262,-2.5159935121e-05,9.88402006651e-05,0.999999977495
4181000000,258,4181000000,world,-0.00353700967732,0.00486493213524,2.93282172658,-0.000188393406935,-2.43317186342e-05,9.90418340363e-05,0.999999977053
4191000000,259,4191000000,world,-0.0035462964596,0.00486408699289,2.93324309294,-0.000190538007129,-2.34188543828e-05,9.92430436392e-05,0.999999976649
4201000000,260,4201000000,world,-0.00355566847536,0.0048646607453,2.93365934751,-0.000192444048814,-2.24530424679e-05,9.94438152567e-05,0.999999976286
4211000000,261,4211000000,world,-0.0035651211916,0.00486658879452,2.93406915944,-0.000194117430065,-2.14279568675e-05,9.96442126467e-05,0.999999975965
4221000000,262,4221000000,world,-0.00357464966914,0.00486979842721,2.93447125092,-0.000195567638872,-2.03385983022e-05,9.98444437552e-05,0.999999975685
4231000000,263,4231000000,world,-0.00358425671007,0.00487779276978,2.9348644573,-0.000197176254222,-1.91928040179e-05,0.000100044276345,0.999999975372
4241000000,264,4241000000,world,-0.0035939290256,0.0048870832064,2.9352486359,-0.000198617213531,-1.80004017941e-05,0.000100243537826,0.999999975089
4251000000,265,4251000000,world,-0.0036036598904,0.00489714924756,2.93562438911,-0.000199860728252,-1.67708216862e-05,0.000100442280031,0.999999974843
4261000000,266,4261000000,world,-0.00361344433437,0.00490789539609,2.93599231349,-0.000200877821136,-1.5475821655e-05,0.000100640724358,0.99999997464
4271000000,267,4271000000,world,-0.00362299991545,0.00492191561266,2.93635298119,-0.000201903557182,-1.40930509649e-05,0.000100838690605,0.999999974434
4281000000,268,4281000000,world,-0.00363249878912,0.0049374233419,2.93670694389,-0.000202730168191,-1.26432567037e-05,0.000101036288762,0.999999974266
4291000000,269,4291000000,world,-0.00364206091221,0.00495315092163,2.93705473159,-0.000203205671295,-1.11319295847e-05,0.000101233754347,0.999999974168
4301000000,270,4301000000,world,-0.00365139176254,0.00496901257894,2.93739685319,-0.000203318781139,-9.53462812755e-06,0.000101431068671,0.999999974141
4311000000,271,4311000000,world,-0.00366051186119,0.00498496079046,2.93773379773,-0.000203054357543,-7.87065926989e-06,0.000101627865837,0.999999974189
4321000000,272,4321000000,world,-0.00366965315811,0.00500071473739,2.93806603527,-0.000202395105633,-6.18217221876e-06,0.000101824147033,0.999999974315
4331000000,273,4331000000,world,-0.00367862320992,0.00501550264605,2.93839396265,-0.000201246511324,-4.44608380454e-06,0.000102020076241,0.999999974536
4341000000,274,4341000000,world,-0.00368769722699,0.00503041614843,2.93871665135,-0.000199704170575,-2.66435795929e-06,0.000102215798329,0.999999974832
4351000000,275,4351000000,world,-0.00369678221659,0.00504555564016,2.93903191499,-0.000197776924193,-8.40713555916e-07,0.000102411226047,0.999999975198
4361000000,276,4361000000,world,-0.0037059301744,0.00506087342164,2.93933760182,-0.000195456682118,1.02715097644e-06,0.000102606477143,0.999999975634
4371000000,277,4371000000,world,-0.00371517422943,0.0050763407231,2.93963164673,-0.000192733213513,2.9308231335e-06,0.000102801707349,0.999999976139
4381000000,278,4381000000,world,-0.00372435499318,0.0050922978975,2.93991206758,-0.000189608769258,4.8669754207e-06,0.000102996565346,0.999999976708
4391000000,279,4391000000,world,-0.00373327919912,0.00510936740388,2.94017696163,-0.000186160930786,6.83681102356e-06,0.000103190777587,0.999999977325
4401000000,280,4401000000,world,-0.00374230299294,0.00512654295174,2.94042450331,-0.000182274623035,8.78502725549e-06,0.000103384622361,0.999999978005
4411000000,281,4411000000,world,-0.00375142019638,0.00514382613127,2.94065293979,-0.000177963798206,1.07576551602e-05,0.000103578261453,0.999999978742
4421000000,282,4421000000,world,-0.00376062154325,0.00516122098743,2.9408607887,-0.000173251054281,1.2744154725e-05,0.000103771653968,0.999999979527
4431000000,283,4431000000,world,-0.00376957619668,0.00517860673699,2.94104968542,-0.000168126858038,1.47865660484e-05,0.000103964731723,0.999999980353
4441000000,284,4441000000,world,-0.00377814368534,0.00519594101089,2.94122353437,-0.00016257664051,1.69000413879e-05,0.000104157599538,0.999999981217
4451000000,285,4451000000,world,-0.00378681215289,0.00521343392697,2.94138615013,-0.000156558941587,1.90118907005e-05,0.000104350302895,0.999999982119
4461000000,286,4461000000,world,-0.00379535505246,0.00523094291274,2.94154120474,-0.000150048211721,2.112446691e-05,0.000104542448336,0.999999983055
4471000000,287,4471000000,world,-0.00380349602357,0.00524819096764,2.94169223288,-0.000143003714533,2.32391823507e-05,0.000104733989249,0.99999998402
4481000000,288,4481000000,world,-0.00381175561279,0.00526565922893,2.94184263638,-0.000135498097776,2.53330024183e-05,0.000104925295694,0.999999984995
4491000000,289,4491000000,world,-0.00382012663146,0.00528335297053,2.9419956894,-0.000127605853832,2.7417060581e-05,0.000105116384425,0.999999985958
4501000000,290,4501000000,world,-0.00382818295484,0.00530055940263,2.94215454307,-0.000119270479145,2.95336568159e-05,0.000105307106177,0.999999986906
4511000000,291,4511000000,world,-0.00383594703067,0.00531733803128,2.94232222949,-0.000110502367171,3.1682387208e-05,0.000105497605724,0.999999987828
4521000000,292,4521000000,world,-0.00384383814269,0.00533443235332,2.94250166615,-0.000101303051833,3.38003796599e-05,0.000105688040186,0.999999988713
4531000000,293,4531000000,world,-0.00385184597328,0.00535184411515,2.94269526618,-9.16277313315e-05,3.58640368105e-05,0.000105878046707,0.999999989554
4541000000,294,4541000000,world,-0.00385909807334,0.0053675106749,2.94290241183,-8.12532638379e-05,3.7938758635e-05,0.000106067258898,0.999999990354
4551000000,295,4551000000,world,-0.0038664911803,0.0053835989413,2.94312121367,-7.0426427552e-05,3.99393499991e-05,0.000106256195148,0.999999991077
4561000000,296,4561000000,world,-0.00387401695407,0.00540010326932,2.94334985389,-5.92859158643e-05,4.19009937089e-05,0.000106444940505,0.999999991699
4571000000,297,4571000000,world,-0.00388166216279,0.00541700894765,2.94358658763,-4.78788903143e-05,4.38098489507e-05,0.00010663347646,0.999999992209
4581000000,298,4581000000,world,-0.00388548031928,0.00541300481938,2.94382974164,-3.40197423676e-05,4.60876404375e-05,0.000106819914625,0.999999992654
4591000000,299,4591000000,world,-0.0038870651672,0.0053967887058,2.94407770538,-1.85949029246e-05,4.85431059814e-05,0.000107005169067,0.999999992924
4601000000,300,4601000000,world,-0.00388914562448,0.00538320796043,2.94432893389,-3.12043237562e-06,5.08413307202e-05,0.000107190283742,0.999999992958
4611000000,301,4611000000,world,-0.00389174077068,0.00537243071478,2.94458194543,1.23050791913e-05,5.29412824343e-05,0.000107375152266,0.999999992758
4621000000,302,4621000000,world,-0.00389455123649,0.00536097688444,2.94483531721,2.79849191265e-05,5.48528578759e-05,0.000107559534479,0.999999992319
4631000000,303,4631000000,world,-0.00389720032618,0.00534451557405,2.94508768259,4.4086067695e-05,5.66656132495e-05,0.000107743142291,0.999999991618
4641000000,304,4641000000,world,-0.00390038883798,0.00533154045186,2.94533773071,5.95102281253e-05,5.82708564394e-05,0.000107926843412,0.999999990707
4651000000,305,4651000000,world,-0.00390409001522,0.00532199343015,2.9455842027,7.4168393675e-05,5.96605146429e-05,0.000108110696268,0.999999989626
4661000000,306,4661000000,world,-0.00390851826313,0.00531528567525,2.94582592189,8.81301435214e-05,6.07964955315e-05,0.000108294660602,0.999999988405
4671000000,307,4671000000,world,-0.00391434122802,0.00530992962269,2.94606188729,0.000101618152697,6.15858561928e-05,0.000108478015936,0.999999987057
4681000000,308,4681000000,world,-0.00392047777976,0.00530760822855,2.94629116968,0.000114401402415,6.21314931096e-05,0.000108661146569,0.999999985622
4691000000,309,4691000000,world,-0.00392687179939,0.0053080885694,2.94651287641,0.000126471247222,6.24408137142e-05,0.00010884406143,0.99999998413
4701000000,310,4701000000,world,-0.00393347206942,0.00531111117619,2.94672615026,0.000137676805038,6.25733588824e-05,0.000109026887756,0.999999982621
4711000000,311,4711000000,world,-0.00394134547845,0.00531735854622,2.94693016842,0.000147789481541,6.23656514535e-05,0.000109209122957,0.999999981171
4721000000,312,4721000000,world,-0.00394998986473,0.00532616808413,2.94712413998,0.000156850450897,6.18641967419e-05,0.000109390939061,0.999999979802
4731000000,313,4731000000,world,-0.00395858509084,0.00533660623642,2.94730737513,0.000164978763563,6.1160265914e-05,0.000109572746279,0.999999978518
4741000000,314,4741000000,world,-0.00396708505301,0.00534840652766,2.94748028153,0.00017228078633,6.02677183353e-05,0.000109754454348,0.999999977321
4751000000,315,4751000000,world,-0.00397566335899,0.00537611590716,2.94764407181,0.000177210609798,5.917779735e-05,0.000109937898083,0.999999976504
4761000000,316,4761000000,world,-0.00398427444574,0.00541824764129,2.94779992501,0.000179963951925,5.79194770528e-05,0.000110122830266,0.999999976066
4771000000,317,4771000000,world,-0.00399267970158,0.00545914084442,2.9479489685,0.000182220932939,5.65794332218e-05,0.000110307162291,0.999999975713
4781000000,318,4781000000,world,-0.00400086119241,0.00549842093144,2.94809229201,0.00018403478397,5.50961885081e-05,0.000110490885006,0.999999975444
4791000000,319,4791000000,world,-0.00400860437708,0.00553208073345,2.94823094157,0.000185897601547,5.34651068982e-05,0.000110673486405,0.999999975167
4801000000,320,4801000000,world,-0.0040158230757,0.00555843806281,2.94836592365,0.000188041498876,5.1701152181e-05,0.000110854907245,0.999999974839
4811000000,321,4811000000,world,-0.00402283631096,0.00558323264259,2.9484982088,0.000189920501713,4.97861419639e-05,0.000111035906077,0.999999974561
4821000000,322,4821000000,world,-0.00402965173643,0.00560648496332,2.9486287277,0.000191565394857,4.77361373263e-05,0.00011121611187,0.999999974327
4831000000,323,4831000000,world,-0.0040362786584,0.00562823583023,2.94875837497,0.000192971271049,4.5574901092e-05,0.000111395435121,0.999999974138
4841000000,324,4841000000,world,-0.00404274351636,0.00564832486549,2.94888801091,0.000194172185646,4.3363796735e-05,0.000111574036093,0.999999973984
4851000000,325,4851000000,world,-0.00404916958961,0.00566344393939,2.94901840635,0.000195525797695,4.10424752084e-05,0.000111751520783,0.999999973798
4861000000,326,4861000000,world,-0.00405543017603,0.00567708088251,2.94914904745,0.00019666920924,3.85557405475e-05,0.000111928361159,0.999999973653
4871000000,327,4871000000,world,-0.0040615363626,0.00568978959321,2.94927819118,0.000197557457116,3.59044280264e-05,0.000112104741903,0.999999973557
4881000000,328,4881000000,world,-0.00406809368701,0.00569813366923,2.9494041116,0.000198552799446,3.30389813553e-05,0.000112280260369,0.999999973439
4891000000,329,4891000000,world,-0.00407448465114,0.00570595884734,2.94952515481,0.000199267020523,3.00530883954e-05,0.000112455326392,0.999999973372
4901000000,330,4901000000,world,-0.00408071673557,0.0057133722513,2.94963973168,0.000199646919338,2.69735596222e-05,0.000112629775435,0.999999973364
4911000000,331,4911000000,world,-0.00408680073908,0.00572045891832,2.9497463166,0.000199662339558,2.38673377746e-05,0.000112803773973,0.99999997342
4921000000,332,4921000000,world,-0.00409315145387,0.00572860390337,2.9498434455,0.000199162293306,2.06862408393e-05,0.000112977552233,0.999999973571
4931000000,333,4931000000,world,-0.00409961310194,0.00573731765689,2.94992990749,0.000198203977208,1.73334495313e-05,0.000113151047942,0.999999973806
4941000000,334,4941000000,world,-0.00410591576314,0.00574571305241,2.95000658616,0.000196892967857,1.3831705013e-05,0.000113324299676,0.9999999741
4951000000,335,4951000000,world,-0.00411206901653,0.0057538006415,2.95007552385,0.000195236032352,1.01907137325e-05,0.000113497506515,0.999999974449
4961000000,336,4961000000,world,-0.00411808487485,0.00576158746936,2.9501386985,0.000193220414272,6.44490899315e-06,0.000113670544837,0.999999974852
4971000000,337,4971000000,world,-0.00412525931528,0.00576981203923,2.95019801261,0.000190728629715,2.48830398175e-06,0.000113842733861,0.999999975328
4981000000,338,4981000000,world,-0.00413341584585,0.00577660993005,2.95025529475,0.000187925765114,-1.58921383347e-06,0.000114014001029,0.999999975841
4991000000,339,4991000000,world,-0.00414160723047,0.00578286588672,2.95031230445,0.000184733854872,-5.63418605263e-06,0.000114184974028,0.999999976402
5001000000,340,5001000000,world,-0.00414952797072,0.00578887006621,2.95037073359,0.000181163600873,-9.75746799807e-06,0.000114355736646,0.999999977004
5011000000,341,5011000000,world,-0.00415718337568,0.00579462987329,2.95043220893,0.000177228904083,-1.39820881895e-05,0.000114526276368,0.999999977639
5021000000,342,5021000000,world,-0.00416458658257,0.00580015041884,2.95049829474,0.000172942637498,-1.82989540422e-05,0.000114696774569,0.9999999783
5031000000,343,5031000000,world,-0.00417206227536,0.00580538143846,2.95057049508,0.000168273682551,-2.27007821399e-05,0.000114867161056,0.999999978987
5041000000,344,5041000000,world,-0.00417960703092,0.00581028475207,2.95065025616,0.000163180086926,-2.7146468877e-05,0.000115037039734,0.999999979701
5051000000,345,5051000000,world,-0.00418692687609,0.0058149630756,2.95073879324,0.000157600383231,-3.15450824583e-05,0.000115206480185,0.999999980447
5061000000,346,5061000000,world,-0.00419404681831,0.0058194200466,2.95083656999,0.000151539219409,-3.58154220388e-05,0.00011537570277,0.999999981221
5071000000,347,5071000000,world,-0.00420198817374,0.00582403103936,2.95094386013,0.000145048729846,-4.01971568876e-05,0.000115544403902,0.999999981997
5081000000,348,5081000000,world,-0.00421036796366,0.005828704509,2.95106092666,0.000138170628627,-4.47059472084e-05,0.000115712649813,0.99999998276
5091000000,349,5091000000,world,-0.00421851737678,0.00583312962618,2.95118802227,0.000130962736688,-4.92636424047e-05,0.000115880807679,0.999999983497
5101000000,350,5101000000,world,-0.00422645632367,0.00583730656634,2.95132538985,0.000123377293655,-5.3835179373e-05,0.00011604903399,0.999999984206
5111000000,351,5111000000,world,-0.0042342089853,0.0058412381507,2.95147326282,0.000115353065189,-5.83772002514e-05,0.000116216929565,0.99999998489
5121000000,352,5121000000,world,-0.00424266822916,0.0058455704463,2.9516318655,0.000106760959299,-6.29341235243e-05,0.000116384053672,0.999999985548
5131000000,353,5131000000,world,-0.00425179221084,0.00585025813113,2.95180136128,9.75888227355e-05,-6.74008852677e-05,0.000116550622642,0.999999986175
5141000000,354,5141000000,world,-0.00426070643386,0.00585464838106,2.95198111258,8.80453143579e-05,-7.17744966511e-05,0.000116717055745,0.999999986737
5151000000,355,5151000000,world,-0.0042708589529,0.00586006288328,2.95216990283,7.80582678985e-05,-7.63032421031e-05,0.000116882764708,0.999999987212
5161000000,356,5161000000,world,-0.00428215362917,0.00586640345691,2.95236654924,6.76784055758e-05,-8.09658581333e-05,0.000117047896916,0.999999987582
5171000000,357,5171000000,world,-0.00429602701611,0.00587883595006,2.95256991654,5.63474915814e-05,-8.5882613958e-05,0.000117212110035,0.999999987855
5181000000,358,5181000000,world,-0.00432072259258,0.00591586348468,2.95277891436,4.21320920492e-05,-9.18544552702e-05,0.000117371929734,0.999999988006
5191000000,359,5191000000,world,-0.00434424477691,0.00595048126017,2.95299249294,2.77744860854e-05,-9.75117659331e-05,0.000117531745828,0.999999987953
5201000000,360,5201000000,world,-0.00436652173248,0.00598247877385,2.95320964717,1.33344855845e-05,-0.000102706388965,0.000117691643279,0.999999987711
5211000000,361,5211000000,world,-0.0043879473742,0.00601610479321,2.95342941162,-1.37165208192e-06,-0.000107493130034,0.000117851076503,0.999999987277
5221000000,362,5221000000,world,-0.00440870288893,0.00605310026399,2.9536508587,-1.62955485788e-05,-0.000111997368805,0.000118009638634,0.999999986632
5231000000,363,5231000000,world,-0.00442818349805,0.0060867449991,2.95387309829,-3.05981390771e-05,-0.000116121255575,0.000118168577439,0.999999985808
5241000000,364,5241000000,world,-0.00444645303673,0.00611707798608,2.95409527562,-4.42424821789e-05,-0.00011982273629,0.000118328120826,0.999999984842
5251000000,365,5251000000,world,-0.00446359499218,0.00614420832766,2.95431660855,-5.73039978906e-05,-0.000123043689051,0.000118488076392,0.999999983769
5261000000,366,5261000000,world,-0.00447841345552,0.00616827971113,2.95453675202,-6.97957690293e-05,-0.00012561495564,0.000118647618859,0.999999982636
5271000000,367,5271000000,world,-0.00449154397341,0.00618950542203,2.95475561032,-8.17411809321e-05,-0.000127557367421,0.000118806910301,0.999999981466
5281000000,368,5281000000,world,-0.00450399985605,0.00620813618597,2.95497309407,-9.30091926279e-05,-0.00012895682893,0.000118966435006,0.999999980283
5291000000,369,5291000000,world,-0.00451590194209,0.00622442634681,2.95518911757,-0.000103414447655,-0.000129904172182,0.000119126113676,0.99999997912
5301000000,370,5301000000,world,-0.00452574872974,0.00623817997148,2.95540359904,-0.000112881362285,-0.000130231499284,0.000119285261213,0.999999978034
5311000000,371,5311000000,world,-0.00453299522616,0.00624947041907,2.95561645954,-0.00012140346164,-0.000129868328473,0.000119443761977,0.999999977064
5321000000,372,5321000000,world,-0.00454025957547,0.00625925341186,2.95582762195,-0.000129154761172,-0.000129092688685,0.000119602487744,0.999999976175
5331000000,373,5331000000,world,-0.00454765318226,0.00626777534616,2.95603676693,-0.000136189806548,-0.000127934272512,0.000119760965411,0.999999975371
5341000000,374,5341000000,world,-0.00455526486093,0.00627526527834,2.95624175307,-0.000142566203641,-0.000126426638875,0.000119919148158,0.999999974655
5351000000,375,5351000000,world,-0.00456316418857,0.00628193556424,2.95643971665,-0.000148275242025,-0.000124584616978,0.000120077280738,0.999999974037
5361000000,376,5361000000,world,-0.0045708224958,0.00627514520178,2.95662791208,-0.000151853783202,-0.000122351486371,0.000120238927602,0.999999973757
5371000000,377,5371000000,world,-0.00457832689639,0.00625615583151,2.95680370023,-0.000153470612373,-0.000119739228051,0.000120403680769,0.999999973806
5381000000,378,5381000000,world,-0.00458630957926,0.00623852115532,2.95696454426,-0.000154635558411,-0.000116809355627,0.000120568029736,0.999999973953
5391000000,379,5391000000,world,-0.0045950718002,0.00621861715327,2.95710801577,-0.000155063746985,-0.000113611321191,0.000120733213204,0.999999974236
5401000000,380,5401000000,world,-0.00460450750673,0.00619824834228,2.95723178271,-0.000155009806071,-0.000110172466864,0.000120898360026,0.999999974609
5411000000,381,5411000000,world,-0.00461441930578,0.00618027347291,2.95733360684,-0.000154867654904,-0.000106511910772,0.000121062496357,0.999999975008
5421000000,382,5421000000,world,-0.00462506626001,0.00617485066658,2.95741133768,-0.00015578921052,-0.000102704226306,0.000121223280587,0.999999975243
5431000000,383,5431000000,world,-0.00463640917496,0.00618115466311,2.95746291495,-0.000157694606014,-9.8686969466e-05,0.000121381106089,0.99999997533
5441000000,384,5441000000,world,-0.00464814313556,0.00618865475233,2.95748636443,-0.00015944504461,-9.44034574047e-05,0.000121538505273,0.999999975447
5451000000,385,5451000000,world,-0.00466024295071,0.00619715605263,2.95748049222,-0.000161009407963,-8.97425403373e-05,0.000121694422085,0.999999975606
5461000000,386,5461000000,world,-0.00467268338498,0.00620649075332,2.95744718003,-0.000162371279885,-8.45963652042e-05,0.000121847686635,0.999999975816
5471000000,387,5471000000,world,-0.0046845533908,0.00621582679496,2.95738904259,-0.000163451920507,-7.89206244646e-05,0.000121998216391,0.999999976086
5481000000,388,5481000000,world,-0.00469666486295,0.00622569797587,2.95730859461,-0.00016432844624,-7.28598517869e-05,0.000122145859497,0.999999976384
5491000000,389,5491000000,world,-0.00470909703524,0.00623608788353,2.95720825558,-0.000165012056337,-6.65152435538e-05,0.000122290833756,0.999999976696
5501000000,390,5501000000,world,-0.00471889763075,0.00624691394166,2.95709035346,-0.000165469649344,-5.95770500082e-05,0.000122432804595,0.99999997704
5511000000,391,5511000000,world,-0.00472486461888,0.0062581103717,2.9569571272,-0.000165663750153,-5.18222128678e-05,0.000122571563089,0.999999977423
5521000000,392,5521000000,world,-0.00473154489892,0.00626963141604,2.95681072972,-0.000165580061731,-4.37001011385e-05,0.000122708233735,0.999999977808
5531000000,393,5531000000,world,-0.0047389577087,0.00628143555631,2.95665312244,-0.000165204925969,-3.52266213829e-05,0.000122843054167,0.999999978188
5541000000,394,5541000000,world,-0.004746756463,0.00629369982032,2.95648559283,-0.000164553445685,-2.6446695167e-05,0.000122975969113,0.99999997855
5551000000,395,5551000000,world,-0.00475505979317,0.00630631352477,2.95630918098,-0.000163613106799,-1.74695793486e-05,0.000123106742215,0.999999978885
5561000000,396,5561000000,world,-0.00476407027144,0.00631911164338,2.95612488674,-0.000162380527449,-8.43297443138e-06,0.000123235530806,0.999999979187
5571000000,397,5571000000,world,-0.00477374318674,0.00633207960375,2.95593367127,-0.000160846194738,5.81341032501e-07,0.00012336264405,0.999999979455
