%time,field.header.seq,field.header.stamp,field.header.frame_id,field.twist.linear.x,field.twist.linear.y,field.twist.linear.z,field.twist.angular.x,field.twist.angular.y,field.twist.angular.z
1882000000,187,1882000000,,0.00356498196822,0.0282018700012,0.890438384869,0.0,0.0,0.0
1892000000,188,1892000000,,-0.00305285286493,-0.0299065473802,0.917297491839,0.0,0.0,0.0
1901000000,189,1901000000,,-0.00337666671584,-0.0218864272938,0.847191507858,0.0,0.0,0.0
1911000000,190,1911000000,,0.0110109380455,-0.0296138945611,0.83495031243,0.0,0.0,0.0
1923000000,191,1923000000,,0.00626663664833,0.0510430712927,0.879252772134,0.0,0.0,0.0
1931000000,192,1931000000,,0.000289699093793,0.0328090701647,0.832314560516,0.0,0.0,0.0
1941000000,193,1941000000,,0.00381874558563,-0.029094175698,0.835436880715,0.0,0.0,0.0
1951000000,194,1951000000,,0.0246284760047,0.0123039628858,0.815261577609,0.0,0.0,0.0
1961000000,195,1961000000,,-0.00906690285124,-0.000994833714083,0.807832598324,0.0,0.0,0.0
1971000000,196,1971000000,,1.59172113658e-05,0.00229130062616,0.798741465036,0.0,0.0,0.0
1981000000,197,1981000000,,-0.0136903527066,0.0133398171663,0.793584361523,0.0,0.0,0.0
1991000000,198,1991000000,,0.0473264835036,-0.0311524013989,0.791805308483,0.0,0.0,0.0
2000000000,199,2000000000,,-0.0199018691427,0.0299599740959,0.783947922426,0.0,0.0,0.0
2012000000,200,2012000000,,0.000551636910028,-0.0307655509998,0.795375211459,0.0,0.0,0.0
2021000000,201,2021000000,,-0.0321944055052,-0.02618993237,0.730906472968,0.0,0.0,0.0
2031000000,202,2031000000,,-0.00515344157725,-0.064353220138,0.677102786841,0.0,0.0,0.0
2040000000,203,2040000000,,0.022021566884,0.00934023441994,0.711392039378,0.0,0.0,0.0
2052000000,204,2052000000,,0.014562465656,0.0019678174871,0.723550010563,0.0,0.0,0.0
2061000000,205,2061000000,,-0.00149693838087,0.00118381573635,0.699768276138,0.0,0.0,0.0
2071000000,206,2071000000,,-0.027452629665,-0.0135398938901,0.740077020084,0.0,0.0,0.0
2081000000,207,2081000000,,0.0135426410754,0.000794386913658,0.731340308945,0.0,0.0,0.0
2091000000,208,2091000000,,-0.00305864106098,0.0169584169688,0.701205884609,0.0,0.0,0.0
2102000000,209,2102000000,,0.00870477693471,0.00250114310405,0.703806974663,0.0,0.0,0.0
2114000000,210,2114000000,,-0.0217904222415,-0.042037362183,0.66713338298,0.0,0.0,0.0
2121000000,211,2121000000,,0.0381357856685,0.0247438860216,0.646093622897,0.0,0.0,0.0
2131000000,212,2131000000,,0.000615259670929,-0.020910495408,0.670938566851,0.0,0.0,0.0
2142000000,213,2142000000,,0.015104335709,-0.000778776853729,0.65783948494,0.0,0.0,0.0
2152000000,214,2152000000,,0.0230782399346,0.0256900630472,0.626373470172,0.0,0.0,0.0
2161000000,215,2161000000,,-0.00187432725039,-0.000425047967881,0.649371534796,0.0,0.0,0.0
2173000000,216,2173000000,,0.0147130428196,0.00301125070669,0.596335655778,0.0,0.0,0.0
2184000000,217,2184000000,,0.0155499965762,0.00732056788958,0.616262462944,0.0,0.0,0.0
2191000000,218,2191000000,,0.0071002151441,-0.0112827338146,0.623019841015,0.0,0.0,0.0
2201000000,219,2201000000,,-0.00198642865877,0.0310396387917,0.624056478249,0.0,0.0,0.0
2211000000,220,2211000000,,0.0277478130759,0.0209113743534,0.621328305403,0.0,0.0,0.0
2222000000,221,2222000000,,0.0162961693663,-0.00604771013212,0.646713934483,0.0,0.0,0.0
2231000000,222,2231000000,,0.0378541046471,-0.0356962361706,0.628100644309,0.0,0.0,0.0
2244000000,223,2244000000,,0.0150453615702,-0.00439886221597,0.612689758811,0.0,0.0,0.0
2253000000,224,2253000000,,-0.0184320690382,-0.0220455130469,0.588382511207,0.0,0.0,0.0
2261000000,225,2261000000,,0.0243211864863,-0.0157359320354,0.590474889104,0.0,0.0,0.0
2271000000,226,2271000000,,0.0106006274398,-0.0362088051431,0.595461007244,0.0,0.0,0.0
2282000000,227,2282000000,,-0.0158545925604,-0.0157179809307,0.606805574692,0.0,0.0,0.0
2291000000,228,2291000000,,-0.00944880488507,0.0107747964792,0.57091568335,0.0,0.0,0.0
2301000000,229,2301000000,,0.0154217073259,-0.0327315225761,0.566675389889,0.0,0.0,0.0
2311000000,230,2311000000,,-0.014504359252,-0.0167453845439,0.588595002178,0.0,0.0,0.0
2320000000,231,2320000000,,-0.0410960005142,0.0113103891701,0.581938995693,0.0,0.0,0.0
2331000000,232,2331000000,,0.0461128443302,-0.012271139709,0.54600565444,0.0,0.0,0.0
2341000000,233,2341000000,,-0.0335032824569,-0.000285716790864,0.571902268278,0.0,0.0,0.0
2352000000,234,2352000000,,-0.00211309984657,-0.00505240974762,0.569577602447,0.0,0.0,0.0
2362000000,235,2362000000,,0.0164927600916,-0.0272584087919,0.594337843576,0.0,0.0,0.0
2372000000,236,2372000000,,-0.00887412017824,-0.00764318743649,0.558094118331,0.0,0.0,0.0
2384000000,237,2384000000,,0.0140016818943,0.0110339087123,0.554254281879,0.0,0.0,0.0
2393000000,238,2393000000,,0.0227027989004,-0.00461298320848,0.532703710878,0.0,0.0,0.0
2402000000,239,2402000000,,-0.0263352908341,-0.0100570081806,0.536002126038,0.0,0.0,0.0
2411000000,240,2411000000,,0.00391623752703,0.00976644647421,0.524995756786,0.0,0.0,0.0
2422000000,241,2422000000,,0.00474697821767,0.0612958514786,0.531822696063,0.0,0.0,0.0
2431000000,242,2431000000,,0.00553600094053,-0.0193268802624,0.499001112053,0.0,0.0,0.0
2443000000,243,2443000000,,0.0295354563903,-0.00104008041566,0.498329598943,0.0,0.0,0.0
2451000000,244,2451000000,,0.0265100401398,-0.0218207473613,0.557576886159,0.0,0.0,0.0
2461000000,245,2461000000,,0.0192865322451,0.0123477983177,0.4925995606,0.0,0.0,0.0
2471000000,246,2471000000,,-0.0201228981778,-0.00646701943067,0.483088119987,0.0,0.0,0.0
2485000000,247,2485000000,,0.002308429405,-0.025401849998,0.487065663852,0.0,0.0,0.0
2491000000,248,2491000000,,0.0271691124371,0.0175264883321,0.444024654142,0.0,0.0,0.0
2501000000,249,2501000000,,-0.0357356091734,0.00370300983516,0.483501997083,0.0,0.0,0.0
2511000000,250,2511000000,,0.0105773907672,0.0082430908554,0.455466898244,0.0,0.0,0.0
2522000000,251,2522000000,,-0.0113546953468,0.0107998220521,0.466588459848,0.0,0.0,0.0
2531000000,252,2531000000,,0.0243552949306,-0.00423690155992,0.484992960869,0.0,0.0,0.0
2545000000,253,2545000000,,-0.0147297588329,0.0254190478965,0.462411535193,0.0,0.0,0.0
2551000000,254,2551000000,,-0.00656900217208,-0.0327944185406,0.44563893541,0.0,0.0,0.0
2561000000,255,2561000000,,0.0127459029413,-0.0151342803907,0.437275376746,0.0,0.0,0.0
2571000000,256,2571000000,,0.0292634801081,0.046029582441,0.448478235565,0.0,0.0,0.0
2582000000,257,2582000000,,0.016956489274,-0.0235703982303,0.457943327331,0.0,0.0,0.0
2593000000,258,2593000000,,-0.00468662425901,0.0323606241723,0.44234190865,0.0,0.0,0.0
2603000000,259,2603000000,,-0.0229418469288,0.0136468960796,0.433865723323,0.0,0.0,0.0
2611000000,260,2611000000,,0.0163894959738,0.0134068235385,0.425689171086,0.0,0.0,0.0
2621000000,261,2621000000,,-0.0461941375426,-0.00812009528932,0.428808740778,0.0,0.0,0.0
2631000000,262,2631000000,,-0.0278870253494,-0.0195351034911,0.422398441082,0.0,0.0,0.0
2642000000,263,2642000000,,-0.0233521222336,-0.0335816127032,0.416590137436,0.0,0.0,0.0
2652000000,264,2652000000,,-0.0113092792066,0.0143716223593,0.440525802652,0.0,0.0,0.0
2662000000,265,2662000000,,-0.00701675343887,0.0186410453562,0.41043177057,0.0,0.0,0.0
2672000000,266,2672000000,,0.00438061333477,0.00520810610308,0.37287138735,0.0,0.0,0.0
2681000000,267,2681000000,,0.0174556581814,0.0491865411662,0.366427329931,0.0,0.0,0.0
2692000000,268,2692000000,,-0.00754766483622,0.032919490433,0.354385938268,0.0,0.0,0.0
2702000000,269,2702000000,,-0.0124521121807,-0.0320593546134,0.35959583377,0.0,0.0,0.0
2712000000,270,2712000000,,0.00482384719215,-0.00902364111558,0.352415492376,0.0,0.0,0.0
2722000000,271,2722000000,,-0.0232629640601,0.0189442603327,0.38009405146,0.0,0.0,0.0
2733000000,272,2733000000,,0.0155101340258,-0.00478976327119,0.33509001018,0.0,0.0,0.0
2742000000,273,2742000000,,0.00402420323142,-0.0179005894643,0.3631699684,0.0,0.0,0.0
2752000000,274,2752000000,,0.00441353470349,-0.00667645188957,0.363369414724,0.0,0.0,0.0
2761000000,275,2761000000,,0.0317887254691,-0.0326239789961,0.37194552517,0.0,0.0,0.0
2771000000,276,2771000000,,-0.0116684085851,-0.0446311218393,0.317536850807,0.0,0.0,0.0
2781000000,277,2781000000,,0.0279717903989,-0.0231453969895,0.377811921818,0.0,0.0,0.0
2791000000,278,2791000000,,-0.011777064444,-0.0108087540743,0.346539893985,0.0,0.0,0.0
2801000000,279,2801000000,,0.0181098965865,0.025467916987,0.313281708342,0.0,0.0,0.0
2811000000,280,2811000000,,-0.0190869686158,-0.00500862867669,0.297421807993,0.0,0.0,0.0
2821000000,281,2821000000,,-0.00483573050664,0.00925249785981,0.324756052293,0.0,0.0,0.0
2833000000,282,2833000000,,-0.0111281822208,0.00032271666557,0.310921958438,0.0,0.0,0.0
2841000000,283,2841000000,,-0.00594185971507,0.0201069410394,0.277870383483,0.0,0.0,0.0
2853000000,284,2853000000,,0.00700242059843,0.0369976364789,0.303619900557,0.0,0.0,0.0
2862000000,285,2862000000,,-0.0343997243843,-0.000272056963668,0.250612927426,0.0,0.0,0.0
2871000000,286,2871000000,,0.0164271363182,0.015929010212,0.29473487497,0.0,0.0,0.0
2881000000,287,2881000000,,-0.0354823329756,0.0112659924224,0.318155724656,0.0,0.0,0.0
2891000000,288,2891000000,,0.0169414191823,0.0237551192475,0.299423927519,0.0,0.0,0.0
2901000000,289,2901000000,,-0.0063315092655,0.00241764623182,0.261264413171,0.0,0.0,0.0
2913000000,290,2913000000,,-0.00790819613495,-0.00935348387774,0.298271528685,0.0,0.0,0.0
2923000000,291,2923000000,,-0.0187694048173,0.025469409435,0.262020608337,0.0,0.0,0.0
2931000000,292,2931000000,,-0.0436847359483,-0.00781799158951,0.258819361871,0.0,0.0,0.0
2942000000,293,2942000000,,0.0374835432735,-0.00643931469315,0.249797114673,0.0,0.0,0.0
2953000000,294,2953000000,,-0.0122096204965,-0.00490990343264,0.238517429289,0.0,0.0,0.0
2961000000,295,2961000000,,0.00279876855903,-0.0335062734431,0.247743400897,0.0,0.0,0.0
2972000000,296,2972000000,,-0.0166549803901,-0.0333882606401,0.246225774577,0.0,0.0,0.0
2981000000,297,2981000000,,0.0242876393012,-0.0188521955539,0.254843096515,0.0,0.0,0.0
2993000000,298,2993000000,,-0.0125998830307,0.00943566096606,0.235487767653,0.0,0.0,0.0
3002000000,299,3002000000,,-0.0148745571289,0.0197142337263,0.195949570694,0.0,0.0,0.0
3012000000,300,3012000000,,0.0268362325551,-0.0134915704292,0.230527421097,0.0,0.0,0.0
3021000000,301,3021000000,,0.0199730617364,-1.10351584081e-05,0.22948031011,0.0,0.0,0.0
3031000000,302,3031000000,,0.00510310474843,-0.0130138598196,0.220962086311,0.0,0.0,0.0
3041000000,303,3041000000,,0.029159345979,-0.0100549743382,0.197352696274,0.0,0.0,0.0
3051000000,304,3051000000,,0.00884006110444,0.0177899058004,0.191123482093,0.0,0.0,0.0
3062000000,305,3062000000,,0.0207534298565,-0.016611572801,0.217864298399,0.0,0.0,0.0
3071000000,306,3071000000,,-0.0010483083171,-0.0305943943477,0.19204555792,0.0,0.0,0.0
3088000000,307,3088000000,,-0.00964679972204,-0.0463261723635,0.180469507359,0.0,0.0,0.0
3092000000,308,3092000000,,-0.0199467236489,0.029043655495,0.19037010015,0.0,0.0,0.0
3109000000,309,3109000000,,0.0261808142426,0.0196967180765,0.182653774396,0.0,0.0,0.0
3114000000,310,3114000000,,0.00669455977433,-0.0311892301267,0.167524822539,0.0,0.0,0.0
3119000000,311,3119000000,,-0.00359141081877,0.0265650840868,0.206452470146,0.0,0.0,0.0
3132000000,312,3132000000,,-0.0102974866852,0.0391804234484,0.175295193764,0.0,0.0,0.0
3141000000,313,3141000000,,-0.0212642821905,0.0589415695373,0.170510384337,0.0,0.0,0.0
3152000000,314,3152000000,,-0.0313312185223,0.0164226810286,0.183977400285,0.0,0.0,0.0
3160000000,315,3160000000,,-0.0180579513757,0.0199321711496,0.169097209939,0.0,0.0,0.0
3171000000,316,3171000000,,-0.0014703413955,-0.00130084600094,0.166488167016,0.0,0.0,0.0
3181000000,317,3181000000,,0.00144712247889,0.00963271412141,0.170026445841,0.0,0.0,0.0
3191000000,318,3191000000,,-0.0319683368267,0.00145610941643,0.172466968519,0.0,0.0,0.0
3201000000,319,3201000000,,-0.0155768197866,-0.00331321519467,0.162402492284,0.0,0.0,0.0
3212000000,320,3212000000,,-0.0191474064548,-0.00653613897879,0.159369174381,0.0,0.0,0.0
3221000000,321,3221000000,,-0.0275834277638,-0.00694140982664,0.17003253834,0.0,0.0,0.0
3231000000,322,3231000000,,0.0309987695492,0.0336967841579,0.140264871412,0.0,0.0,0.0
3252000000,323,3252000000,,-0.0180635070231,-0.00127703944211,0.159495029409,0.0,0.0,0.0
3252000000,324,3252000000,,0.0144221191893,0.015102844243,0.161725714024,0.0,0.0,0.0
3262000000,325,3262000000,,-0.0136158667861,0.00222079987779,0.174688401598,0.0,0.0,0.0
3271000000,326,3271000000,,0.0249322209028,0.012396472986,0.138371519395,0.0,0.0,0.0
3281000000,327,3281000000,,0.00217951562781,0.000190787747492,0.187012887447,0.0,0.0,0.0
3291000000,328,3291000000,,-0.038027987211,0.0143389631744,0.180497920694,0.0,0.0,0.0
3301000000,329,3301000000,,0.0254667871578,0.00447585404734,0.168213082946,0.0,0.0,0.0
3312000000,330,3312000000,,0.0311899235087,-0.0224722781409,0.144739401196,0.0,0.0,0.0
3325000000,331,3325000000,,-0.0137022551886,0.0135553111591,0.17409594391,0.0,0.0,0.0
3336000000,332,3336000000,,0.0359479788429,0.0143774915897,0.200460795838,0.0,0.0,0.0
3344000000,333,3344000000,,0.00518442778267,0.0190314742053,0.191900609452,0.0,0.0,0.0
3351000000,334,3351000000,,-0.0542432192736,0.0412361138886,0.184694982065,0.0,0.0,0.0
3362000000,335,3362000000,,0.00617619805494,0.0421133774034,0.193157896802,0.0,0.0,0.0
3376000000,336,3376000000,,-0.00644852642309,0.021689547851,0.162513432006,0.0,0.0,0.0
3383000000,337,3383000000,,-0.00135664143671,0.00626863848032,0.18130402238,0.0,0.0,0.0
3391000000,338,3391000000,,0.00294579899319,6.35576487354e-05,0.157462936302,0.0,0.0,0.0
3401000000,339,3401000000,,-0.0116142723114,-0.0166160733247,0.156735380064,0.0,0.0,0.0
3412000000,340,3412000000,,0.0118349119172,0.021799801212,0.212049661795,0.0,0.0,0.0
3422000000,341,3422000000,,-0.015399798341,-0.00422760755635,0.155604765083,0.0,0.0,0.0
3431000000,342,3431000000,,-0.000937015547688,0.00833994570553,0.146881254589,0.0,0.0,0.0
3444000000,343,3444000000,,-0.00501076996413,0.000693759975159,0.18012909828,0.0,0.0,0.0
3455000000,344,3455000000,,0.0189990925023,-0.0342324823692,0.152599107019,0.0,0.0,0.0
3462000000,345,3462000000,,-0.0045380362372,-0.00486135013204,0.178318173469,0.0,0.0,0.0
3471000000,346,3471000000,,0.00528943993696,0.0439423690772,0.145567939401,0.0,0.0,0.0
3482000000,347,3482000000,,-0.0141970637131,0.0170249099184,0.190093256866,0.0,0.0,0.0
3490000000,348,3490000000,,-0.0393871860096,-0.00866664665552,0.134507581237,0.0,0.0,0.0
3501000000,349,3501000000,,-0.0333942912232,0.00382773899038,0.130638355333,0.0,0.0,0.0
3512000000,350,3512000000,,0.012556243044,0.0457433190819,0.152131496204,0.0,0.0,0.0
3523000000,351,3523000000,,-0.000755719545671,0.0291225901064,0.142811989421,0.0,0.0,0.0
3531000000,352,3531000000,,0.0226670279581,0.00456057144574,0.123970074365,0.0,0.0,0.0
3542000000,353,3542000000,,0.0190472233395,-0.0215689410818,0.142880957677,0.0,0.0,0.0
3552000000,354,3552000000,,0.00116897268054,0.0334742104052,0.0949675515576,0.0,0.0,0.0
3561000000,355,3561000000,,-0.0128787863666,-0.00420021301411,0.149716880938,0.0,0.0,0.0
3572000000,356,3572000000,,0.0217281131734,-0.053355635489,0.121123006856,0.0,0.0,0.0
3582000000,357,3582000000,,-0.0105892400951,0.0299945251289,0.136525824104,0.0,0.0,0.0
3592000000,358,3592000000,,-0.00489166335161,0.000801955769576,0.114437950536,0.0,0.0,0.0
3599000000,359,3599000000,,0.0250562876219,0.0438423361922,0.128869509265,0.0,0.0,0.0
3612000000,360,3612000000,,-0.0178054937376,0.0171924984595,0.0902623509403,0.0,0.0,0.0
3622000000,361,3622000000,,-0.0104769469585,-0.0123993633436,0.0820997195269,0.0,0.0,0.0
3633000000,362,3633000000,,-0.0409255151939,0.0341113447114,0.107007115804,0.0,0.0,0.0
3642000000,363,3642000000,,0.0101889471907,-0.00523836210095,0.0764280291116,0.0,0.0,0.0
3651000000,364,3651000000,,-0.00987474490717,0.00633884619906,0.111291834459,0.0,0.0,0.0
3662000000,365,3662000000,,-0.0109480677261,-0.016480721947,0.128269809536,0.0,0.0,0.0
3672000000,366,3672000000,,0.0195361710169,-0.0130394016035,0.108313669043,0.0,0.0,0.0
3682000000,367,3682000000,,0.00695351552971,-0.0185898026798,0.0937871111297,0.0,0.0,0.0
3691000000,368,3691000000,,0.0343590135275,-0.00722331455418,0.0891006411387,0.0,0.0,0.0
3701000000,369,3701000000,,0.0244300038907,-0.000915198431081,0.0949649394061,0.0,0.0,0.0
3711000000,370,3711000000,,-0.00409129512622,0.00441954294591,0.0640048862812,0.0,0.0,0.0
3721000000,371,3721000000,,-0.0159014731706,0.00726648418738,0.0645465336224,0.0,0.0,0.0
3732000000,372,3732000000,,0.00384697591691,-0.0336365513105,0.0808061708324,0.0,0.0,0.0
3741000000,373,3741000000,,-0.0167042423459,0.00830782475936,0.0773511642923,0.0,0.0,0.0
3751000000,374,3751000000,,-0.00280167000535,-0.0100687136049,0.0674627975567,0.0,0.0,0.0
3761000000,375,3761000000,,0.0214545457082,-0.00365098007017,0.0773008842309,0.0,0.0,0.0
3771000000,376,3771000000,,0.000907762399839,-0.0243291051374,0.0357791011369,0.0,0.0,0.0
3781000000,377,3781000000,,-0.0117764652863,-0.016265116751,0.097717927723,0.0,0.0,0.0
3793000000,378,3793000000,,-0.0393089195668,-0.000272152770845,0.0598664394297,0.0,0.0,0.0
3803000000,379,3803000000,,0.0497124313764,-0.0324920836043,0.0883342688008,0.0,0.0,0.0
3811000000,380,3811000000,,-0.0222196678048,0.00935096678798,0.0563893977298,0.0,0.0,0.0
3821000000,381,3821000000,,0.00183166589094,-0.00505365950647,0.0445932860994,0.0,0.0,0.0
3831000000,382,3831000000,,0.00690313517157,0.00642957340663,0.0628129485598,0.0,0.0,0.0
3841000000,383,3841000000,,0.0127435598079,-0.025220875283,0.0623821199003,0.0,0.0,0.0
3851000000,384,3851000000,,-0.0234807921535,-0.0113961497761,0.0773421147296,0.0,0.0,0.0
3861000000,385,3861000000,,-0.0124820016697,-0.00448863051407,0.0501661288731,0.0,0.0,0.0
3872000000,386,3872000000,,-0.0269000171682,-0.00668753453762,0.0872571840547,0.0,0.0,0.0
3888000000,387,3888000000,,-0.0209464209398,-0.00492591079059,0.0515759473358,0.0,0.0,0.0
3891000000,388,3891000000,,-0.00592279803569,0.000408045306694,0.0535481816476,0.0,0.0,0.0
3904000000,389,3904000000,,-0.00896938438106,-0.0245010831713,0.0708691809523,0.0,0.0,0.0
3911000000,390,3911000000,,0.0199439697027,0.0161434296817,0.0218287002173,0.0,0.0,0.0
3922000000,391,3922000000,,-0.0258591687453,0.00124437493618,0.0455690268878,0.0,0.0,0.0
3931000000,392,3931000000,,0.018819907773,-0.0449952145884,0.0517201386368,0.0,0.0,0.0
3941000000,393,3941000000,,-0.000435218226828,0.0130505198093,0.0399427954244,0.0,0.0,0.0
3951000000,394,3951000000,,-0.013755247426,-0.0444849023491,0.037010027502,0.0,0.0,0.0
3961000000,395,3961000000,,0.00402419006357,0.0264063315445,0.0215456804592,0.0,0.0,0.0
3973000000,396,3973000000,,0.0025036273341,0.00447674537106,0.0313371979765,0.0,0.0,0.0
3984000000,397,3984000000,,0.0240625711307,0.00956440454144,0.0492780739875,0.0,0.0,0.0
3993000000,398,3993000000,,-0.0170148367818,0.0275841132122,0.0195843559302,0.0,0.0,0.0
4001000000,399,4001000000,,0.0523239472525,-0.009589241419,0.0406101935006,0.0,0.0,0.0
4014000000,400,4014000000,,0.00564120049178,-0.0127613239123,0.0636929226595,0.0,0.0,0.0
4022000000,401,4022000000,,0.00644385133684,-0.00335801196244,0.0203268187364,0.0,0.0,0.0
4032000000,402,4032000000,,0.0363517180735,-0.0145722468365,0.0141446241547,0.0,0.0,0.0
4042000000,403,4042000000,,0.0137340298642,0.00428399781397,0.0618681532484,0.0,0.0,0.0
4051000000,404,4051000000,,0.0137494521546,0.0132647796993,0.0601982681015,0.0,0.0,0.0
4062000000,405,4062000000,,-0.0116992277009,0.0162099784682,0.038841967725,0.0,0.0,0.0
4072000000,406,4072000000,,-0.0297757909149,0.0249883458607,0.0134489457324,0.0,0.0,0.0
4082000000,407,4082000000,,-0.0145939561364,0.0169837526893,-0.000730566144539,0.0,0.0,0.0
4094000000,408,4094000000,,-0.0102676852912,-0.00952649115908,0.0474753440113,0.0,0.0,0.0
4106000000,409,4106000000,,0.035075325813,-0.0112842987353,0.0623556615837,0.0,0.0,0.0
4114000000,410,4114000000,,0.00328169934419,0.0133814842059,0.0409110351201,0.0,0.0,0.0
4122000000,411,4122000000,,-0.00904597845252,0.0087556166073,-0.00138197727293,0.0,0.0,0.0
4131000000,412,4131000000,,0.0088267194355,0.00731456839966,0.0675383119271,0.0,0.0,0.0
4141000000,413,4141000000,,0.00622212438886,-0.0390969896938,0.0673914736344,0.0,0.0,0.0
4151000000,414,4151000000,,-0.012485612839,0.0345845730916,0.075617333317,0.0,0.0,0.0
4161000000,415,4161000000,,-0.00307413194104,-0.00558748950095,0.0141217130828,0.0,0.0,0.0
4171000000,416,4171000000,,0.010162656175,0.0128541903893,0.0112398322767,0.0,0.0,0.0
4182000000,417,4182000000,,-0.014533488653,-0.0120580884666,0.0286958475008,0.0,0.0,0.0
4192000000,418,4192000000,,-0.0113615063326,0.0339505429446,0.0279776389751,0.0,0.0,0.0
4201000000,419,4201000000,,-0.00564079061963,0.0156070181725,0.0344615408339,0.0,0.0,0.0
4212000000,420,4212000000,,0.017991653268,0.00227322043208,0.0504646131247,0.0,0.0,0.0
4221000000,421,4221000000,,-0.00422525603867,-0.000447335361609,0.0229679260769,0.0,0.0,0.0
4229000000,422,4229000000,,-0.0190089012894,-0.000609062101468,0.0484348574641,0.0,0.0,0.0
4241000000,423,4241000000,,0.00763642526827,0.0192996754359,0.0339959948436,0.0,0.0,0.0
4251000000,424,4251000000,,0.00547172823714,-0.0301094633837,0.0268522336605,0.0,0.0,0.0
4262000000,425,4262000000,,-0.0140846694246,-0.00258536006112,0.0583580556235,0.0,0.0,0.0
4269000000,426,4269000000,,-0.0176498635887,0.0105538049713,0.0823049802466,0.0,0.0,0.0
4281000000,427,4281000000,,-0.00602645263379,0.000107601098203,0.0238972434023,0.0,0.0,0.0
4292000000,428,4292000000,,0.0143072508352,0.00750385134496,0.0362892945368,0.0,0.0,0.0
4302000000,429,4302000000,,-0.0166608835738,0.0297241559154,0.0789236691492,0.0,0.0,0.0
4312000000,430,4312000000,,-0.0336266933765,-0.0217848781737,0.0552296557045,0.0,0.0,0.0
4322000000,431,4322000000,,-0.0103573237104,-0.028244951785,0.0341162407055,0.0,0.0,0.0
4332000000,432,4332000000,,-0.00388844979726,-0.00520339383011,0.0448364863009,0.0,0.0,0.0
4342000000,433,4342000000,,0.00849489748704,-0.00911359891567,0.00979836149654,0.0,0.0,0.0
4351000000,434,4351000000,,-0.0136363282753,0.011294258979,0.00916122250941,0.0,0.0,0.0
4361000000,435,4361000000,,0.0321538544731,0.0149954270142,0.0213406709363,0.0,0.0,0.0
4371000000,436,4371000000,,0.0125222128871,-0.018466618684,0.0375598287322,0.0,0.0,0.0
4383000000,437,4383000000,,0.000745108616982,-0.00459851131319,0.0112069753945,0.0,0.0,0.0
4394000000,438,4394000000,,0.0267177215567,-0.00142284399843,-0.0155072845934,0.0,0.0,0.0
4403000000,439,4403000000,,-0.000404790020093,-0.00412633781881,0.0518607459606,0.0,0.0,0.0
4414000000,440,4414000000,,-0.015965044849,-0.021713639337,-0.0222815914142,0.0,0.0,0.0
4421000000,441,4421000000,,-0.00562657182789,0.00816909425036,0.0211380381834,0.0,0.0,0.0
4431000000,442,4431000000,,-0.000641868222621,0.0293753147162,0.0062847742386,0.0,0.0,0.0
4441000000,443,4441000000,,0.0048248816016,0.015658104392,0.0476656893497,0.0,0.0,0.0
4453000000,444,4453000000,,-0.0332549083548,0.0359925355869,0.0325375048454,0.0,0.0,0.0
4461000000,445,4461000000,,0.0204056051198,0.00393738736471,-0.00309942826482,0.0,0.0,0.0
4471000000,446,4471000000,,0.00319809456514,0.0354069152135,0.0283007307174,0.0,0.0,0.0
4481000000,447,4481000000,,-0.00707991877435,0.0326225508279,-0.00493361749729,0.0,0.0,0.0
4491000000,448,4491000000,,-0.0167066249487,-0.0219216882708,0.0246403353154,0.0,0.0,0.0
4502000000,449,4502000000,,0.00976975495134,0.00746100112105,0.0363909943613,0.0,0.0,0.0
4512000000,450,4512000000,,-0.0245538814005,-0.0106306948388,0.0147515834659,0.0,0.0,0.0
4522000000,451,4522000000,,-0.0247230390188,-0.0170380191142,-0.00390821817556,0.0,0.0,0.0
4532000000,452,4532000000,,0.00830892724647,0.0446340785616,-0.00148303283741,0.0,0.0,0.0
4545000000,453,4545000000,,0.00184820356866,-0.0170999035067,0.0424747828203,0.0,0.0,0.0
4554000000,454,4554000000,,0.0101262899447,-0.0127392094535,0.058843421481,0.0,0.0,0.0
4561000000,455,4561000000,,0.00142021385732,0.00104522441555,0.0383614003278,0.0,0.0,0.0
4571000000,456,4571000000,,0.0110909264473,0.00169835706754,0.00723016999375,0.0,0.0,0.0
4582000000,457,4582000000,,0.01228255664,-0.0198842684616,0.0126883410345,0.0,0.0,0.0
4591000000,458,4591000000,,0.00278576588589,-0.0136983490516,0.045962225901,0.0,0.0,0.0
4604000000,459,4604000000,,-0.0248478498783,-0.0272495227147,-0.0126698883659,0.0,0.0,0.0
4615000000,460,4615000000,,-0.0349561214427,-0.0327911998573,0.0424493492734,0.0,0.0,0.0
4621000000,461,4621000000,,-0.0222338872459,0.00678989508518,0.0378316970388,0.0,0.0,0.0
4632000000,462,4632000000,,0.0514122799665,-0.0115285145938,0.00278045377286,0.0,0.0,0.0
4647000000,463,4647000000,,-0.017163341282,0.0108730870775,0.0461416732021,0.0,0.0,0.0
4652000000,464,4652000000,,-0.0210734764039,0.00430106310967,0.0270693454669,0.0,0.0,0.0
4661000000,465,4661000000,,-0.00349884734408,0.0247719445905,0.0116649811965,0.0,0.0,0.0
4672000000,466,4672000000,,0.0287729945484,-0.0336692055945,0.0157187369425,0.0,0.0,0.0
4681000000,467,4681000000,,-0.00520983812248,0.0291807575469,-0.00208999977935,0.0,0.0,0.0
4692000000,468,4692000000,,0.0276389074226,0.0284556080853,0.00939891427566,0.0,0.0,0.0
4701000000,469,4701000000,,0.0121098323724,0.0330145719071,0.00831587466677,0.0,0.0,0.0
4711000000,470,4711000000,,0.000594681217007,0.0159785132806,-0.0157397054112,0.0,0.0,0.0
4723000000,471,4723000000,,-0.022771912782,0.0236743863762,-0.0279720541516,0.0,0.0,0.0
4731000000,472,4731000000,,-0.00868862680472,-0.0142255090501,0.0131434924013,0.0,0.0,0.0
4742000000,473,4742000000,,-0.0252882852534,0.0196400214938,0.00650815190277,0.0,0.0,0.0
4751000000,474,4751000000,,-0.0010897286198,0.0212909432704,0.0205635599503,0.0,0.0,0.0
4761000000,475,4761000000,,0.0130505007482,0.0239369242381,0.0409225148938,0.0,0.0,0.0
4772000000,476,4772000000,,0.000265325507446,0.00175251165212,0.0261456959764,0.0,0.0,0.0
4783000000,477,4783000000,,0.0269356908492,0.0239066743298,-0.00605492823873,0.0,0.0,0.0
4794000000,478,4794000000,,-0.0501572537137,0.0438542303545,0.0521597522453,0.0,0.0,0.0
4802000000,479,4802000000,,-0.0185719452931,0.0196492417269,0.00656095935983,0.0,0.0,0.0
4812000000,480,4812000000,,-0.0109863749488,-0.012261632706,0.0259619689918,0.0,0.0,0.0
4823000000,481,4823000000,,0.0199990296755,0.0284009888568,-0.0101728248237,0.0,0.0,0.0
4831000000,482,4831000000,,0.017040389061,-0.0120241718907,-0.00640458691211,0.0,0.0,0.0
4842000000,483,4842000000,,-0.0422635770217,0.0198103884856,-0.042668456977,0.0,0.0,0.0
4851000000,484,4851000000,,-0.0400136243744,0.0219351099717,0.00207774382517,0.0,0.0,0.0
4861000000,485,4861000000,,-0.000970423072016,-0.0154491811412,0.0332255679962,0.0,0.0,0.0
4871000000,486,4871000000,,0.00401856566409,0.0318534645283,0.036618627586,0.0,0.0,0.0
4883000000,487,4883000000,,0.0164647495418,0.0182197758837,0.0365064966028,0.0,0.0,0.0
4891000000,488,4891000000,,-0.0111701542968,-0.00999799312476,0.00407512766654,0.0,0.0,0.0
4901000000,489,4901000000,,0.0134599110864,0.0423714918515,0.00741907677895,0.0,0.0,0.0
4912000000,490,4912000000,,-0.00144895264842,0.00759593544141,0.0408244227661,0.0,0.0,0.0
4922000000,491,4922000000,,-0.0178081850738,0.0184529518924,-0.00499685416901,0.0,0.0,0.0
4932000000,492,4932000000,,0.0158653234996,0.00828225142951,0.044573316919,0.0,0.0,0.0
4942000000,493,4942000000,,-0.0108902298329,0.00488229938865,0.0165276700086,0.0,0.0,0.0
4951000000,494,4951000000,,-0.0282362550587,-0.0227238778081,0.0202087024545,0.0,0.0,0.0
4962000000,495,4962000000,,0.00317334408664,-0.0244057505421,0.0198237744207,0.0,0.0,0.0
4971000000,496,4971000000,,-0.00450103752791,-0.0179071871479,0.0261713806781,0.0,0.0,0.0
4982000000,497,4982000000,,0.00885814081726,0.0164346628041,0.0185816737755,0.0,0.0,0.0
4988000000,498,4988000000,,-0.0310064505709,0.0112597029864,-0.00807844521845,0.0,0.0,0.0
5001000000,499,5001000000,,-0.0174842158601,-0.00147859386807,-0.0116369270669,0.0,0.0,0.0
5013000000,500,5013000000,,0.0314260058832,0.00200570798194,0.0186736219675,0.0,0.0,0.0
5022000000,501,5022000000,,0.00374839920639,-0.0190090979205,-0.0199154577356,0.0,0.0,0.0
5032000000,502,5032000000,,-0.0324996692012,0.0183834103808,0.0119880801601,0.0,0.0,0.0
5041000000,503,5041000000,,0.0395222138656,-0.0180163980525,-0.00470034054344,0.0,0.0,0.0
5051000000,504,5051000000,,-0.0461337277594,-0.0120716711604,-0.0127384973424,0.0,0.0,0.0
5061000000,505,5061000000,,-0.0263385782599,-0.0174243621626,-0.00668716806974,0.0,0.0,0.0
5071000000,506,5071000000,,-0.0151837863534,0.00990071981902,0.0100789119579,0.0,0.0,0.0
5085000000,507,5085000000,,-0.0184141895295,-0.0046255801569,0.0209386171021,0.0,0.0,0.0
5092000000,508,5092000000,,0.00450896422183,0.0138515692773,0.00974017134206,0.0,0.0,0.0
5102000000,509,5102000000,,-0.0153326121126,0.00871347527835,0.0115574212209,0.0,0.0,0.0
5111000000,510,5111000000,,-0.00849726298588,-0.016861350632,-0.00384806761926,0.0,0.0,0.0
5122000000,511,5122000000,,0.0208799309874,-0.00142802829023,0.022120558407,0.0,0.0,0.0
5136000000,512,5136000000,,0.0205803704387,-0.0100822254402,0.0157740388855,0.0,0.0,0.0
5143000000,513,5143000000,,-0.00517317752609,-0.0202679594133,0.0243868159874,0.0,0.0,0.0
5151000000,514,5151000000,,-0.0346012038023,-0.00703723619803,0.0133506635539,0.0,0.0,0.0
5162000000,515,5162000000,,0.0348255560714,0.0386469151478,0.0690376619596,0.0,0.0,0.0
5172000000,516,5172000000,,-0.0082408754577,-0.0184666885155,0.00474255989009,0.0,0.0,0.0
5182000000,517,5182000000,,0.0134225919637,-0.00685733911447,0.019874165308,0.0,0.0,0.0
5192000000,518,5192000000,,-0.0163896530323,0.0475997624083,0.0142329990827,0.0,0.0,0.0
5201000000,519,5201000000,,-0.0167553538143,0.0159327451999,-0.00337237311397,0.0,0.0,0.0
5211000000,520,5211000000,,-0.0268458178645,0.00158648555409,0.0239930505676,0.0,0.0,0.0
5221000000,521,5221000000,,0.0141977061545,-0.00391045079623,0.00227452897986,0.0,0.0,0.0
5231000000,522,5231000000,,-0.00720978965898,0.0243167605441,0.0490171089542,0.0,0.0,0.0
5240000000,523,5240000000,,0.0099061089037,0.021600427369,0.00836915695546,0.0,0.0,0.0
5251000000,524,5251000000,,-0.0213975631535,-0.0173126399655,0.0378597628407,0.0,0.0,0.0
5261000000,525,5261000000,,-4.63276543312e-05,-0.0698907332833,7.21835170057e-05,0.0,0.0,0.0
5271000000,526,5271000000,,0.0222984493004,0.0109079734314,0.0030850151435,0.0,0.0,0.0
5282000000,527,5282000000,,0.00265043999229,0.0186635990537,0.0111272867838,0.0,0.0,0.0
5291000000,528,5291000000,,-0.00576415449944,-0.0114357530449,0.0639285859766,0.0,0.0,0.0
5302000000,529,5302000000,,-0.0238127419903,0.0121243986401,0.0256107397507,0.0,0.0,0.0
5311000000,530,5311000000,,-0.0246967718419,0.0102769188338,0.022450552335,0.0,0.0,0.0
5324000000,531,5324000000,,0.0163473829485,0.00261321167759,0.0366775691106,0.0,0.0,0.0
5333000000,532,5333000000,,0.00695196655758,0.00696499383877,0.0636693577148,0.0,0.0,0.0
5342000000,533,5342000000,,-0.0178082417441,0.00549647447279,0.036380810324,0.0,0.0,0.0
5355000000,534,5355000000,,0.00693900804492,-0.0032195876488,0.000196065401744,0.0,0.0,0.0
5362000000,535,5362000000,,0.0047717615831,0.0379043412642,0.0440766122848,0.0,0.0,0.0
5371000000,536,5371000000,,0.0209106259681,0.0159120189573,0.0257436822374,0.0,0.0,0.0
5384000000,537,5384000000,,-0.0171308351157,0.00555323239664,0.0413572189879,0.0,0.0,0.0
5395000000,538,5395000000,,-0.00706029000641,-0.00464122896559,0.00842535539505,0.0,0.0,0.0
5401000000,539,5401000000,,0.0137479785238,0.0139620443596,-0.0189339581112,0.0,0.0,0.0
5411000000,540,5411000000,,0.0188954436778,-0.0024859065642,0.0221382588903,0.0,0.0,0.0
5421000000,541,5421000000,,0.00384868037063,0.0148586282048,0.031951233007,0.0,0.0,0.0
5432000000,542,5432000000,,-0.0089871255283,-0.0465761142071,-0.00268442963818,0.0,0.0,0.0
5442000000,543,5442000000,,0.0311653011561,-0.00345692987464,0.00689572840591,0.0,0.0,0.0
5451000000,544,5451000000,,-0.0222796264097,-0.00873703279641,0.0242455100692,0.0,0.0,0.0
5461000000,545,5461000000,,0.0207865468931,0.00558899923202,0.00412548524321,0.0,0.0,0.0
5471000000,546,5471000000,,0.0110917736686,-0.0315098514626,-0.029119760619,0.0,0.0,0.0
5482000000,547,5482000000,,-0.00588801598766,-0.00253070579979,-0.0209762154895,0.0,0.0,0.0
5491000000,548,5491000000,,0.0017234776819,0.0316611815507,-0.00054958798664,0.0,0.0,0.0
5502000000,549,5502000000,,-0.0338461728461,-0.00683969974897,-0.0220043423186,0.0,0.0,0.0
5511000000,550,5511000000,,0.0136986630392,-0.0207059820734,-0.00673464506509,0.0,0.0,0.0
5521000000,551,5521000000,,0.0102436732987,0.00922604892629,-0.0297093848366,0.0,0.0,0.0
5532000000,552,5532000000,,-0.00117418514971,0.0434796527237,-0.0225969609956,0.0,0.0,0.0
5541000000,553,5541000000,,0.00447825340545,0.0068495795994,-0.00806081002091,0.0,0.0,0.0
5551000000,554,5551000000,,0.0175049640668,-0.00460735406926,-0.010149012863,0.0,0.0,0.0
5562000000,555,5562000000,,0.0166953761007,-0.0200554604186,-0.0197017188162,0.0,0.0,0.0
5571000000,556,5571000000,,-0.0030670917316,0.0221953894397,-0.0453666920757,0.0,0.0,0.0
5585000000,557,5585000000,,-0.0104109775113,0.00136236206572,-0.0274433433453,0.0,0.0,0.0
5594000000,558,5594000000,,-0.00803542272334,0.0161310905616,-0.0269956800124,0.0,0.0,0.0
5601000000,559,5601000000,,0.0132429093328,0.035970375327,-0.0049377066484,0.0,0.0,0.0
5616000000,560,5616000000,,-0.0384148254489,-0.0192216790231,-0.0266752017366,0.0,0.0,0.0
5627000000,561,5627000000,,-0.0253851968255,0.0102107266884,-0.0150181141572,0.0,0.0,0.0
5631000000,562,5631000000,,0.00102210702833,0.0143613894736,-0.0192472033852,0.0,0.0,0.0
5641000000,563,5641000000,,-0.0217133133567,-0.0244989102061,0.0098052120206,0.0,0.0,0.0
5652000000,564,5652000000,,0.0323246874132,-0.00293847398207,-0.031488470518,0.0,0.0,0.0
5664000000,565,5664000000,,-0.0248783837387,0.0028598235416,-0.0190847248403,0.0,0.0,0.0
5672000000,566,5672000000,,-0.000626532234595,-0.013816669558,0.0176187490146,0.0,0.0,0.0
5683000000,567,5683000000,,0.0228025419899,0.0185619726161,0.0254237951539,0.0,0.0,0.0
5691000000,568,5691000000,,0.0221490061634,0.0458579971326,-0.0248476661755,0.0,0.0,0.0
5701000000,569,5701000000,,0.0183601392462,0.00873258671291,0.0018096630658,0.0,0.0,0.0
5711000000,570,5711000000,,0.0209954769235,-0.00735797272229,-0.00743070101147,0.0,0.0,0.0
5723000000,571,5723000000,,0.0360767576255,0.0155090897408,-0.0243086796839,0.0,0.0,0.0
5732000000,572,5732000000,,-0.0201220374788,-0.000463201228521,-0.0587537854442,0.0,0.0,0.0
5742000000,573,5742000000,,-0.0093062100391,-0.0123422335472,-0.024525705657,0.0,0.0,0.0
5752000000,574,5752000000,,-0.00575677305623,-0.0179924867196,0.00461787723529,0.0,0.0,0.0
5761000000,575,5761000000,,0.00758775900315,-0.000635225418326,0.00278861896183,0.0,0.0,0.0
5772000000,576,5772000000,,-0.00808535466083,-0.0154246929644,-0.0349503106729,0.0,0.0,0.0
5781000000,577,5781000000,,0.00419766433076,0.0204273059169,0.0239154880947,0.0,0.0,0.0
5791000000,578,5791000000,,-0.0249811470186,0.00502221320452,0.0240174824611,0.0,0.0,0.0
5803000000,579,5803000000,,-0.01123013975,0.00169447173555,-0.0119070705827,0.0,0.0,0.0
5813000000,580,5813000000,,-0.0202099728974,0.0300286681695,0.00275437632595,0.0,0.0,0.0
5822000000,581,5822000000,,0.0191168435396,-0.0289519976616,0.0198277467061,0.0,0.0,0.0
5832000000,582,5832000000,,-0.0417154443004,0.0248624869145,-0.0440070904032,0.0,0.0,0.0
5841000000,583,5841000000,,-0.0180658011818,0.00317189160116,0.00565721308852,0.0,0.0,0.0
5851000000,584,5851000000,,0.0207009709964,-0.00846393840873,0.0125781776209,0.0,0.0,0.0
5861000000,585,5861000000,,0.029271170828,0.0334457904294,-0.000273359541609,0.0,0.0,0.0
5871000000,586,5871000000,,-0.0237524516773,-0.0419314260787,-0.0124488941513,0.0,0.0,0.0
5881000000,587,5881000000,,-0.00160194331589,0.0183686092366,0.0176264108299,0.0,0.0,0.0
5891000000,588,5891000000,,-0.0162649637418,0.00506401752069,0.0148873985675,0.0,0.0,0.0
5901000000,589,5901000000,,-0.014224962369,0.0225173040843,0.0229670917766,0.0,0.0,0.0
5911000000,590,5911000000,,0.00317682770071,0.0168116352199,0.0216179533179,0.0,0.0,0.0
5923000000,591,5923000000,,-0.00617561679046,0.00492371012128,0.0459102110685,0.0,0.0,0.0
5932000000,592,5932000000,,0.0437338345187,0.0208106314674,0.0418960448296,0.0,0.0,0.0
5942000000,593,5942000000,,0.00147384372016,0.0051255861366,0.0119895207058,0.0,0.0,0.0
5951000000,594,5951000000,,0.00362966736433,0.0090660715227,0.0189232540331,0.0,0.0,0.0
5961000000,595,5961000000,,0.009770077888,0.0172759435972,0.0184529582121,0.0,0.0,0.0
5972000000,596,5972000000,,-0.00293579337047,-0.00573071051555,0.0234206383339,0.0,0.0,0.0
5984000000,597,5984000000,,0.00123366834335,-0.00604999721841,-0.0118134150676,0.0,0.0,0.0
5992000000,598,5992000000,,-0.00107176886216,-0.000461934953637,0.00362256289208,0.0,0.0,0.0
6001000000,599,6001000000,,0.00343704958781,0.00783318294816,0.0227396994111,0.0,0.0,0.0
6013000000,600,6013000000,,0.0106469318235,-0.0217957619411,0.0140989391108,0.0,0.0,0.0
6021000000,601,6021000000,,0.0245490969997,0.00577418849627,0.00775526767219,0.0,0.0,0.0
6031000000,602,6031000000,,-0.0364448466228,0.00752009125739,0.00868423461342,0.0,0.0,0.0
6041000000,603,6041000000,,-0.00159356798465,-0.0109522560137,0.013810751583,0.0,0.0,0.0
6051000000,604,6051000000,,-0.0267160970602,0.0489133749132,-0.0199185448101,0.0,0.0,0.0
6061000000,605,6061000000,,-0.00511955948592,0.00503223386581,0.00187408855875,0.0,0.0,0.0
6071000000,606,6071000000,,-0.0569849512701,0.0184680841849,-0.0194920202735,0.0,0.0,0.0
6084000000,607,6084000000,,0.00487154019923,0.0115070804939,-0.0433267565291,0.0,0.0,0.0
6092000000,608,6092000000,,-0.0141087849943,-0.00521924293433,-0.000426874459329,0.0,0.0,0.0
6101000000,609,6101000000,,-0.0184645942079,0.00948694095327,0.0254672482227,0.0,0.0,0.0
6111000000,610,6111000000,,-0.0261388808209,0.0317494351934,-0.0128647292918,0.0,0.0,0.0
6121000000,611,6121000000,,-0.0114895984558,-0.0241801023714,0.0104479810525,0.0,0.0,0.0
6139000000,612,6139000000,,0.0392285034503,-0.015299812407,-0.0239752095394,0.0,0.0,0.0
6141000000,613,6141000000,,0.0278342210053,0.0371907531472,-0.0274507429155,0.0,0.0,0.0
6151000000,614,6151000000,,-0.0248703984209,-0.0125455112249,0.0198739758209,0.0,0.0,0.0
6162000000,615,6162000000,,-0.00622419030785,0.0139049696596,0.00834255809841,0.0,0.0,0.0
6171000000,616,6171000000,,0.0397124708231,-0.0192753609674,-0.0231894943439,0.0,0.0,0.0
6181000000,617,6181000000,,0.0139137814627,-0.0371922706691,-0.0098450206901,0.0,0.0,0.0
6192000000,618,6192000000,,-0.00542618401899,0.0106755470664,-0.0216754368693,0.0,0.0,0.0
6202000000,619,6202000000,,-0.0489425287467,-0.0141178112325,0.0152426587553,0.0,0.0,0.0
6211000000,620,6211000000,,-0.0074572338942,-0.0117473691176,-0.00733572428951,0.0,0.0,0.0
6222000000,621,6222000000,,0.025539860352,0.0219292852505,0.00396245205137,0.0,0.0,0.0
6232000000,622,6232000000,,0.0179053384214,-0.0203662187207,-0.0231515953236,0.0,0.0,0.0
6241000000,623,6241000000,,0.0263544553544,-0.0390445120471,0.0319634498824,0.0,0.0,0.0
6252000000,624,6252000000,,-0.00718952253196,-0.0282539894459,0.00760525649818,0.0,0.0,0.0
6262000000,625,6262000000,,-0.0013864691687,-0.0216210112754,0.0132939234243,0.0,0.0,0.0
6271000000,626,6271000000,,0.00700521521645,-0.00222306890239,0.011922668775,0.0,0.0,0.0
6282000000,627,6282000000,,0.0202398452474,-0.00702878400321,-0.00436673172963,0.0,0.0,0.0
6291000000,628,6291000000,,0.0271472065166,-0.0265294053795,-0.00715440070406,0.0,0.0,0.0
6302000000,629,6302000000,,-0.00159473611212,0.0151872584543,0.00130576669957,0.0,0.0,0.0
6312000000,630,6312000000,,0.00360496458119,-0.0175387955701,-0.0124600470887,0.0,0.0,0.0
6322000000,631,6322000000,,0.0106183660104,-0.0201791376015,0.031546730003,0.0,0.0,0.0
6332000000,632,6332000000,,-0.0103943054757,0.0226546544489,-0.00963305047413,0.0,0.0,0.0
6342000000,633,6342000000,,0.000853804609003,0.0334370162873,-0.000547419202615,0.0,0.0,0.0
6351000000,634,6351000000,,0.00948692547955,0.00540382998657,-0.0168518687138,0.0,0.0,0.0
6361000000,635,6361000000,,-0.0181428192066,0.0198135946118,-0.0294020002338,0.0,0.0,0.0
6371000000,636,6371000000,,0.00123496075062,0.0130650433424,-0.0131549294594,0.0,0.0,0.0
6382000000,637,6382000000,,-0.034535846638,0.00626493784813,0.0455260249295,0.0,0.0,0.0
6392000000,638,6392000000,,-0.0188687331184,0.0527128977738,0.032752940753,0.0,0.0,0.0
6401000000,639,6401000000,,-0.00856187955621,-0.00324129069035,0.0278744891057,0.0,0.0,0.0
6411000000,640,6411000000,,-0.00109207305777,0.0339017051598,-0.000948501820009,0.0,0.0,0.0
6422000000,641,6422000000,,-0.012130142865,0.00657456176211,-0.0220470579352,0.0,0.0,0.0
6432000000,642,6432000000,,-0.0253722590512,-0.0157655344149,0.0368418639177,0.0,0.0,0.0
6440000000,643,6440000000,,0.00255290506735,-0.00417555807966,0.000344817417096,0.0,0.0,0.0
6453000000,644,6453000000,,-0.0179806730678,-0.0424604509067,-0.01790196752,0.0,0.0,0.0
6462000000,645,6462000000,,0.00587715850199,-0.000254050058991,0.00648554461915,0.0,0.0,0.0
6472000000,646,6472000000,,-0.0253746338099,-0.00757511590856,0.0117942774465,0.0,0.0,0.0
6482000000,647,6482000000,,0.0204045385235,0.0172264372111,0.0130399120364,0.0,0.0,0.0
6491000000,648,6491000000,,-0.00095607416026,0.0214525081557,0.00594317746311,0.0,0.0,0.0
6501000000,649,6501000000,,-0.0357830838683,0.0016751644011,0.00725050737341,0.0,0.0,0.0
6512000000,650,6512000000,,-0.00586441045256,0.0152243878654,0.0211003604836,0.0,0.0,0.0
6523000000,651,6523000000,,0.0136264449344,0.00525377834972,0.00825373333595,0.0,0.0,0.0
6532000000,652,6532000000,,0.0055698938614,0.00941354626977,0.00276881169645,0.0,0.0,0.0
6542000000,653,6542000000,,0.00997843938978,-0.0136644133392,0.0070794128118,0.0,0.0,0.0
6552000000,654,6552000000,,-0.025523536647,-0.0186905381358,0.0456763691862,0.0,0.0,0.0
6561000000,655,6561000000,,0.0256163642297,-0.008880089425,0.0218609420072,0.0,0.0,0.0
6572000000,656,6572000000,,0.0315584994894,0.0222231782211,-0.0178050739177,0.0,0.0,0.0
6581000000,657,6581000000,,-0.0286214519138,-0.0235586724557,-0.0345511491371,0.0,0.0,0.0
6592000000,658,6592000000,,0.0100524566301,-0.0142509943997,-0.00949680747784,0.0,0.0,0.0
6602000000,659,6602000000,,-0.0372373203174,-0.00137395741918,-0.0291200767444,0.0,0.0,0.0
6611000000,660,6611000000,,-0.0226349668603,-0.0348185169267,0.0187554628463,0.0,0.0,0.0
6622000000,661,6622000000,,-0.0232943697984,0.00435472869171,0.0181443405597,0.0,0.0,0.0
6630000000,662,6630000000,,0.00617510429845,-0.0130103404718,-0.00549819734707,0.0,0.0,0.0
6641000000,663,6641000000,,-0.010793064912,0.0182419058995,-0.0047902994379,0.0,0.0,0.0
6652000000,664,6652000000,,-0.00443328008574,0.0388281085682,-0.000605338324414,0.0,0.0,0.0
6663000000,665,6663000000,,0.0354821220712,0.0231146994575,-0.00937358742522,0.0,0.0,0.0
6674000000,666,6674000000,,-0.02433960491,-0.00430479951846,-0.00434500033312,0.0,0.0,0.0
6682000000,667,6682000000,,-0.0158179758054,0.0223444288881,0.0212330352888,0.0,0.0,0.0
6692000000,668,6692000000,,0.0040770685452,0.00591864198649,-0.0240331457477,0.0,0.0,0.0
6701000000,669,6701000000,,0.0472675833862,0.00322176724792,-0.0173389390328,0.0,0.0,0.0
6711000000,670,6711000000,,-0.00803790712486,-0.0136426417523,-0.0164991581771,0.0,0.0,0.0
6722000000,671,6722000000,,-0.0108559351882,-0.0227579865707,-0.0184805220439,0.0,0.0,0.0
6731000000,672,6731000000,,0.0245703691162,-0.0222449843312,-0.0333997315467,0.0,0.0,0.0
6742000000,673,6742000000,,0.0148866198573,0.00623167827907,-0.0135667299159,0.0,0.0,0.0
6751000000,674,6751000000,,-0.000148332996256,0.00643260915999,-0.0113887171083,0.0,0.0,0.0
6760000000,675,6760000000,,0.00275877264564,0.019856348376,0.0155851539395,0.0,0.0,0.0
6771000000,676,6771000000,,-0.0235399833812,-0.00686681401002,0.0292995159672,0.0,0.0,0.0
6781000000,677,6781000000,,-0.00227229170589,-0.0112894326485,2.53256991696e-05,0.0,0.0,0.0
6791000000,678,6791000000,,0.0442890302638,0.0146305328091,-0.00169274086415,0.0,0.0,0.0
6801000000,679,6801000000,,0.0124193977415,0.0227359703398,0.00327692497719,0.0,0.0,0.0
6811000000,680,6811000000,,-0.0242907519124,0.0357651373685,-0.0423205099479,0.0,0.0,0.0
6821000000,681,6821000000,,0.00763667928751,-0.0197958104915,0.0382450339455,0.0,0.0,0.0
6830000000,682,6830000000,,-0.0445276677746,-0.0222817887101,-0.00704095716972,0.0,0.0,0.0
6843000000,683,6843000000,,0.0213862748689,0.0314847557265,0.0137032218652,0.0,0.0,0.0
6851000000,684,6851000000,,-0.0110127672439,0.00764498173584,0.0245747912748,0.0,0.0,0.0
6867000000,685,6867000000,,-0.00783885273688,0.000735588405305,0.0292115688789,0.0,0.0,0.0
6872000000,686,6872000000,,0.00821750245921,0.0011651200373,0.0138638052427,0.0,0.0,0.0
6881000000,687,6881000000,,-0.00765661005366,0.0133996664015,0.0491127140066,0.0,0.0,0.0
6891000000,688,6891000000,,0.0253319041526,-0.000360563390378,0.0272721440241,0.0,0.0,0.0
6904000000,689,6904000000,,-0.0162520917226,-0.00963120193107,0.0191109505397,0.0,0.0,0.0
6911000000,690,6911000000,,-0.0289932474745,0.00443105041434,0.0170823909437,0.0,0.0,0.0
6921000000,691,6921000000,,0.0421665375245,0.0704619526345,0.000504321299179,0.0,0.0,0.0
6933000000,692,6933000000,,0.0166873865637,-0.00568439144035,0.0240844287268,0.0,0.0,0.0
6941000000,693,6941000000,,0.00542853946928,-0.0127136560148,0.00713963755635,0.0,0.0,0.0
6951000000,694,6951000000,,-0.00931461732309,-0.0040619160186,0.0130659660085,0.0,0.0,0.0
6961000000,695,6961000000,,0.0390098693148,-0.0242615640853,0.00553168241477,0.0,0.0,0.0
6975000000,696,6975000000,,0.00283754226557,0.0132723440486,0.00698109397924,0.0,0.0,0.0
6982000000,697,6982000000,,0.0120709576482,-0.0243832468358,0.020966938885,0.0,0.0,0.0
6994000000,698,6994000000,,-0.0270264953451,0.00983944785512,-0.00327498178766,0.0,0.0,0.0
7005000000,699,7005000000,,0.00900395256787,0.0307098794158,0.00710941994818,0.0,0.0,0.0
7011000000,700,7011000000,,0.0138204381626,0.0126284043196,0.0108502738996,0.0,0.0,0.0
7022000000,701,7022000000,,0.0159061287371,0.0297313314294,0.0343984888891,0.0,0.0,0.0
7032000000,702,7032000000,,-0.0383663652245,0.0149483288637,0.0140194769655,0.0,0.0,0.0
7044000000,703,7044000000,,-0.0152336768246,0.00606899070383,0.0622216883679,0.0,0.0,0.0
7052000000,704,7052000000,,-0.00643523827557,-0.0160976683442,0.0229002821424,0.0,0.0,0.0
7061000000,705,7061000000,,2.29901929644e-05,-0.0380372757216,-0.0235797333974,0.0,0.0,0.0
7076000000,706,7076000000,,0.0335366967752,-0.0272468374208,0.0140902657539,0.0,0.0,0.0
7081000000,707,7081000000,,-0.00516442677235,0.0156199807626,0.0121443856172,0.0,0.0,0.0
7092000000,708,7092000000,,-0.00260658207877,-0.00846170469541,0.0201703478379,0.0,0.0,0.0
7103000000,709,7103000000,,0.0115570563587,-0.0205950734538,-0.00378656105711,0.0,0.0,0.0
7112000000,710,7112000000,,0.0201124308589,0.00221924745497,-0.00101201075144,0.0,0.0,0.0
7122000000,711,7122000000,,0.00464721949636,-0.026390347078,0.022105584859,0.0,0.0,0.0
7132000000,712,7132000000,,-0.012298492048,-0.0349695951357,0.0386242703455,0.0,0.0,0.0
7141000000,713,7141000000,,0.0101867458221,0.0374879225431,0.0371546522171,0.0,0.0,0.0
7152000000,714,7152000000,,0.0362400523145,-0.0567754907038,-0.00829146518456,0.0,0.0,0.0
7161000000,715,7161000000,,0.0123598318671,0.0291188472887,-0.00535563223922,0.0,0.0,0.0
7171000000,716,7171000000,,0.00843200557943,0.0188346093448,-0.0351600581867,0.0,0.0,0.0
7181000000,717,7181000000,,-0.00244517573727,0.026430581846,0.0225102529585,0.0,0.0,0.0
7191000000,718,7191000000,,-0.0428826544914,-0.00500211658709,0.00532650464662,0.0,0.0,0.0
7206000000,719,7206000000,,0.0143354639252,0.00151018251241,-0.00230943085999,0.0,0.0,0.0
7223000000,720,7223000000,,0.0150864140646,-0.00904993791851,-0.0144092474199,0.0,0.0,0.0
7223000000,721,7223000000,,0.00179943271614,-0.0108711450074,-0.00636491924545,0.0,0.0,0.0
7235000000,722,7235000000,,0.00697581501056,0.0387857184421,0.00502869155413,0.0,0.0,0.0
7241000000,723,7241000000,,-0.00339213791917,-0.02102666093,-0.0176652658488,0.0,0.0,0.0
7251000000,724,7251000000,,-0.000941284514939,-0.0399921684107,0.0025598675392,0.0,0.0,0.0
7269000000,725,7269000000,,-0.0368816952058,-0.0144028777235,-0.047710374489,0.0,0.0,0.0
7271000000,726,7271000000,,-0.0168476947124,-0.0111523313551,0.0170585042566,0.0,0.0,0.0
7280000000,727,7280000000,,-0.0367077935533,-0.0374830274761,-0.0187534906445,0.0,0.0,0.0
7293000000,728,7293000000,,-0.00958953455902,0.0106609331224,-0.0463299975432,0.0,0.0,0.0
7302000000,729,7302000000,,0.015294063661,0.073169966599,0.0295914520186,0.0,0.0,0.0
7311000000,730,7311000000,,-0.0444620979099,0.00283752197181,-0.00969364543016,0.0,0.0,0.0
7331000000,732,7331000000,,-0.0300071603852,-0.0225150571554,-0.000189007037885,0.0,0.0,0.0
7347000000,733,7347000000,,0.000819769331972,-0.0056526226669,-0.0106776853122,0.0,0.0,0.0
7352000000,734,7352000000,,0.035187957245,0.00545425046869,-0.0500744707962,0.0,0.0,0.0
7361000000,735,7361000000,,0.0254518086604,-0.000979832766103,0.0198145289401,0.0,0.0,0.0
7372000000,736,7372000000,,-0.00962284553416,-0.0119152918506,-0.00662891336582,0.0,0.0,0.0
7387000000,737,7387000000,,-0.0102079100024,0.0260147018486,-0.0466020034976,0.0,0.0,0.0
7392000000,738,7392000000,,-0.0559610726194,0.0130349434446,-0.0201053436935,0.0,0.0,0.0
7405000000,739,7405000000,,0.0220070073629,-0.0102920263212,-0.0571636901562,0.0,0.0,0.0
7411000000,740,7411000000,,-0.0128273265915,0.0208180789021,-0.00102026091317,0.0,0.0,0.0
7421000000,741,7421000000,,0.00578580653052,-0.00125418615925,-0.0378955935535,0.0,0.0,0.0
7432000000,742,7432000000,,-0.00135156481472,0.0111158352628,0.0117214103614,0.0,0.0,0.0
7442000000,743,7442000000,,-0.000623082361746,-0.00363400369503,0.00495493904324,0.0,0.0,0.0
7460000000,744,7460000000,,0.00382861864734,0.0250511554862,0.0245219989811,0.0,0.0,0.0
7472000000,745,7472000000,,0.0204981777322,-0.00332580633817,0.00720005437266,0.0,0.0,0.0
7472000000,746,7472000000,,0.0292913300424,0.00160543494524,-0.0162236088125,0.0,0.0,0.0
7480000000,747,7480000000,,0.00561951343006,-0.0587101947116,-0.00850307397319,0.0,0.0,0.0
7492000000,748,7492000000,,-0.0031207232287,0.031900242595,0.0185787508238,0.0,0.0,0.0
7501000000,749,7501000000,,0.0199118739097,0.00427554143437,0.0214863157653,0.0,0.0,0.0
7511000000,750,7511000000,,0.00350137219776,0.00435082384094,0.0140215357471,0.0,0.0,0.0
7520000000,751,7520000000,,-0.0362113485377,0.0124357222781,0.00269538492002,0.0,0.0,0.0
7531000000,752,7531000000,,0.0223525082684,-0.0189403981748,0.019497275398,0.0,0.0,0.0
7543000000,753,7543000000,,-0.041852032575,0.0116375981274,-0.00771080160177,0.0,0.0,0.0
7552000000,754,7552000000,,0.000961763930486,-0.03742915007,0.0170131469571,0.0,0.0,0.0
7562000000,755,7562000000,,0.0336937441567,0.016366108377,0.0202509529667,0.0,0.0,0.0
7572000000,756,7572000000,,0.0125329499298,-0.0362097648851,0.016961498553,0.0,0.0,0.0
7579000000,757,7579000000,,-0.00590094167381,0.0229040676053,0.0279762449801,0.0,0.0,0.0
7592000000,758,7592000000,,0.0229448830907,6.4017910104e-05,0.0272977012336,0.0,0.0,0.0
7604000000,759,7604000000,,0.0246126611416,0.0258561718387,0.0207698416334,0.0,0.0,0.0
7612000000,760,7612000000,,0.0195510552559,-0.0129536735428,0.0205984284005,0.0,0.0,0.0
7621000000,761,7621000000,,0.00635066148972,0.00571024747879,-0.00198947634789,0.0,0.0,0.0
7631000000,762,7631000000,,0.0226191813557,-0.0121728250623,-0.00190332451545,0.0,0.0,0.0
7641000000,763,7641000000,,-0.00983950809936,-0.0094553507528,0.0105946634008,0.0,0.0,0.0
7651000000,764,7651000000,,0.018043968377,-0.0316731763489,-0.0194893810878,0.0,0.0,0.0
7662000000,765,7662000000,,0.0336490992622,0.0440178228511,0.0237819604013,0.0,0.0,0.0
7670000000,766,7670000000,,0.00907216830538,0.0317245964464,0.0168573354243,0.0,0.0,0.0
7681000000,767,7681000000,,-0.0208004512861,0.0166240833798,-0.0015488459645,0.0,0.0,0.0
7691000000,768,7691000000,,0.0167826883478,-0.0261387670572,-0.0286972778398,0.0,0.0,0.0
7701000000,769,7701000000,,0.00601602541163,0.0179415407962,0.000688278060336,0.0,0.0,0.0
7711000000,770,7711000000,,0.017515102563,-0.0127595711543,0.015890161275,0.0,0.0,0.0
7724000000,771,7724000000,,0.010341128515,0.0250373385711,0.0487627461622,0.0,0.0,0.0
7736000000,772,7736000000,,-0.0110714188006,-0.00533389616047,0.0325245459327,0.0,0.0,0.0
7748000000,773,7748000000,,0.0254705576544,-0.00905970293681,-0.00805087945217,0.0,0.0,0.0
7752000000,774,7752000000,,0.000340010799155,-0.022983419752,0.0012680963882,0.0,0.0,0.0
7761000000,775,7761000000,,-0.021362618947,-0.0156969377777,0.0211769190331,0.0,0.0,0.0
7771000000,776,7771000000,,0.00869737022165,0.0220234818612,0.00613288068088,0.0,0.0,0.0
7781000000,777,7781000000,,0.0290471604411,0.0100909284218,0.00536688467565,0.0,0.0,0.0
7791000000,778,7791000000,,0.0101872779204,-0.00465138950626,0.0380992763376,0.0,0.0,0.0
7802000000,779,7802000000,,0.00538396288533,0.00717197311934,0.0220484043152,0.0,0.0,0.0
7811000000,780,7811000000,,0.0134276382881,0.00381581046759,0.00193867909384,0.0,0.0,0.0
7821000000,781,7821000000,,-0.0206284383584,0.00185196634419,0.0255371654169,0.0,0.0,0.0
7831000000,782,7831000000,,0.00422557795277,-0.00313520703132,0.00591887669787,0.0,0.0,0.0
7841000000,783,7841000000,,-0.0378691423708,-0.00522884465996,0.0128839583768,0.0,0.0,0.0
7851000000,784,7851000000,,-0.0286862602287,-0.00367607207078,0.0101350456678,0.0,0.0,0.0
7861000000,785,7861000000,,-0.0191459581953,0.00662726401797,-0.00661279283219,0.0,0.0,0.0
7871000000,786,7871000000,,-0.0435801203196,-0.0239249937578,0.00628859761038,0.0,0.0,0.0
7883000000,787,7883000000,,-0.0137571905668,-0.014592562558,0.0355792597776,0.0,0.0,0.0
7891000000,788,7891000000,,-0.0291934311062,0.0120338002463,0.0124652612166,0.0,0.0,0.0
7902000000,789,7902000000,,0.0386856381142,0.0216866673023,0.00227282764115,0.0,0.0,0.0
7911000000,790,7911000000,,-0.0101241630566,0.0319486667618,0.00453022730261,0.0,0.0,0.0
7921000000,791,7921000000,,-0.0454121507131,0.00551040625398,-0.0204417419737,0.0,0.0,0.0
7931000000,792,7931000000,,-0.0253729750882,0.00061558412851,0.0346544642307,0.0,0.0,0.0
7941000000,793,7941000000,,-0.00681400452144,0.00290657137865,0.000420176353839,0.0,0.0,0.0
7951000000,794,7951000000,,0.0138157101255,0.0292748461563,0.0237673010699,0.0,0.0,0.0
7965000000,795,7965000000,,0.00027591117073,-0.045079529534,-0.0106860253814,0.0,0.0,0.0
7972000000,796,7972000000,,-0.0100330468384,0.00493857067422,-0.0135228642453,0.0,0.0,0.0
7982000000,797,7982000000,,-0.000714212152101,0.00136904808509,0.021497511284,0.0,0.0,0.0
7993000000,798,7993000000,,0.00331052585838,0.0195314169,-0.00887577924422,0.0,0.0,0.0
8001000000,799,8001000000,,0.00921061524135,-0.0186535425864,-0.0256353808476,0.0,0.0,0.0
8011000000,800,8011000000,,0.0363985080343,-0.0161967022205,-0.00774873705256,0.0,0.0,0.0
8021000000,801,8021000000,,0.0277017877359,-0.0496460279158,0.0180044949248,0.0,0.0,0.0
8031000000,802,8031000000,,0.0131185246079,-0.000155431805701,0.00293890955211,0.0,0.0,0.0
8041000000,803,8041000000,,-0.01707944205,-0.036730264846,-0.0484789072261,0.0,0.0,0.0
8051000000,804,8051000000,,-0.0173030024636,-0.0240838006944,-0.00329970309135,0.0,0.0,0.0
8061000000,805,8061000000,,0.0177776484675,0.000517932387796,-0.00120937035906,0.0,0.0,0.0
8071000000,806,8071000000,,-0.0198782389326,-0.0243360734989,0.0262551462378,0.0,0.0,0.0
8081000000,807,8081000000,,0.0340983091466,0.0478239949894,-0.0230608258054,0.0,0.0,0.0
8091000000,808,8091000000,,-0.00811091755456,0.00144971084732,0.0105350708777,0.0,0.0,0.0
8101000000,809,8101000000,,0.0255195557959,0.0129713986838,0.00369465100107,0.0,0.0,0.0
8111000000,810,8111000000,,-0.00316204275978,-0.00906215642643,0.0035421807721,0.0,0.0,0.0
8122000000,811,8122000000,,0.00577100839183,-0.0122715534046,0.0237567453791,0.0,0.0,0.0
8132000000,812,8132000000,,-0.00934409668717,0.0126211966806,-0.0576718341214,0.0,0.0,0.0
8141000000,813,8141000000,,-0.00781023910633,0.0140080008882,0.042246345001,0.0,0.0,0.0
8151000000,814,8151000000,,0.016488661052,-0.00766193472911,0.0358460885743,0.0,0.0,0.0
8162000000,815,8162000000,,-0.0185519183211,-0.0147142936116,-0.0140607169303,0.0,0.0,0.0
8171000000,816,8171000000,,-0.0197048138618,0.0131940730451,0.0404744455836,0.0,0.0,0.0
8182000000,817,8182000000,,0.0101177120299,0.00881872459728,0.00578322969663,0.0,0.0,0.0
8191000000,818,8191000000,,0.0127972526875,0.0334493427427,-0.0374342536757,0.0,0.0,0.0
8203000000,819,8203000000,,-0.0124816560921,0.00443708577585,0.00289321381005,0.0,0.0,0.0
8211000000,820,8211000000,,-0.0082380705448,0.01541825536,-0.0323713067332,0.0,0.0,0.0
8221000000,821,8221000000,,-0.00736221475765,0.00490524061619,-0.0370121196374,0.0,0.0,0.0
8232000000,822,8232000000,,-0.0091434835283,-0.00198043033727,0.00655394212935,0.0,0.0,0.0
8241000000,823,8241000000,,-0.00517142273209,-0.0213685255798,-0.00668382913417,0.0,0.0,0.0
8252000000,824,8252000000,,0.0186841153723,-0.0147287468246,-0.0130044553915,0.0,0.0,0.0
8261000000,825,8261000000,,-0.0266254294947,0.0225730044765,0.00988318242237,0.0,0.0,0.0
8271000000,826,8271000000,,-0.00614975564119,-0.027636694173,-0.0178144368613,0.0,0.0,0.0
8283000000,827,8283000000,,0.0197195346767,-0.0170321169772,0.0160396630885,0.0,0.0,0.0
8292000000,828,8292000000,,0.0215459134965,-0.00872032149372,0.00488918823022,0.0,0.0,0.0
8301000000,829,8301000000,,0.0218387113903,0.00951728935976,3.24112209506e-05,0.0,0.0,0.0
8311000000,830,8311000000,,0.000480412415285,0.0199172071036,0.0118397065494,0.0,0.0,0.0
8327000000,831,8327000000,,0.0336780821062,0.0233595352621,0.00683877882266,0.0,0.0,0.0
8334000000,832,8334000000,,-0.0050006522766,-0.00054754933451,0.0321532699085,0.0,0.0,0.0
8343000000,833,8343000000,,-0.0121396918119,0.0298154034632,0.0358465371721,0.0,0.0,0.0
8351000000,834,8351000000,,-0.0202126056894,-0.0112874806101,-0.00538123104599,0.0,0.0,0.0
8363000000,835,8363000000,,-0.00437258214127,0.0141783501818,-0.000517359983163,0.0,0.0,0.0
8371000000,836,8371000000,,0.0191141518003,0.0146567479378,0.0073593707824,0.0,0.0,0.0
8381000000,837,8381000000,,-0.0136725816918,-0.0107668534553,0.0372578330262,0.0,0.0,0.0
8394000000,838,8394000000,,0.0274672299806,-0.0207602273369,0.0312981090788,0.0,0.0,0.0
8402000000,839,8402000000,,-0.0175734607203,0.00425830534155,0.00431938489397,0.0,0.0,0.0
8412000000,840,8412000000,,-0.0135157546053,0.0117323962237,0.0190295217653,0.0,0.0,0.0
8422000000,841,8422000000,,-0.00219643649453,0.00685033919504,0.0268274867291,0.0,0.0,0.0
8431000000,842,8431000000,,-0.0377737781833,0.0179380993765,-0.00758785399445,0.0,0.0,0.0
8442000000,843,8442000000,,0.00609092811996,-0.0263749144216,0.0958115705246,0.0,0.0,0.0
8452000000,844,8452000000,,-0.0110027933844,0.00977705075915,0.00366951802012,0.0,0.0,0.0
8462000000,845,8462000000,,0.0577745435711,0.00981537664504,0.0226217839697,0.0,0.0,0.0
8471000000,846,8471000000,,-0.0162596914667,0.0240899382145,0.0364968434021,0.0,0.0,0.0
8480000000,847,8480000000,,-0.019159066061,-0.0289151383696,0.0155418595769,0.0,0.0,0.0
8492000000,848,8492000000,,-0.0153976129624,0.047494261038,0.0281491694497,0.0,0.0,0.0
8502000000,849,8502000000,,0.0657780179894,-0.0262633367698,0.0330624277088,0.0,0.0,0.0
8511000000,850,8511000000,,0.0440521072619,-0.0147502765587,0.0575660624857,0.0,0.0,0.0
8522000000,851,8522000000,,0.015398644991,0.024501609849,0.0410974713318,0.0,0.0,0.0
8532000000,852,8532000000,,-0.00300846841959,0.0345493104761,0.0244264145958,0.0,0.0,0.0
8543000000,853,8543000000,,0.0254312021994,-0.00433512173409,-0.0132164994453,0.0,0.0,0.0
8556000000,854,8556000000,,0.0391351568714,-0.000630289551314,0.0363654261069,0.0,0.0,0.0
8562000000,855,8562000000,,0.0341442681037,0.00917827494277,-0.00838222215324,0.0,0.0,0.0
8572000000,856,8572000000,,0.0171862152844,-0.020562938406,0.00617510197279,0.0,0.0,0.0
8583000000,857,8583000000,,-0.0053323403338,0.0108429867025,-0.0320989779258,0.0,0.0,0.0
8596000000,858,8596000000,,0.0212534243477,0.0209517780961,0.015647545681,0.0,0.0,0.0
8602000000,859,8602000000,,0.054586371643,-0.00549789611805,0.0126281983103,0.0,0.0,0.0
8613000000,860,8613000000,,0.0506845760412,-0.0191347364163,0.0205307791795,0.0,0.0,0.0
8621000000,861,8621000000,,0.0386412010738,0.0379667085448,0.0180897289201,0.0,0.0,0.0
