%time,field.header.seq,field.header.stamp,field.header.frame_id,field.roll,field.pitch,field.jaw,field.roll_dot,field.pitch_dot,field.jaw_dot
80000000,1,80000000,,7.66807904968e-19,8.46927843618e-19,4.74620086475e-25,0.0,0.0,0.0
120000000,2,120000000,,1.49070529867e-18,2.04271238974e-18,-6.12595102988e-24,0.0,0.0,0.0
160000000,3,160000000,,-1.00188083252e-06,3.66281369679e-06,-7.66305902289e-07,0.00206893496215,0.00822099205106,-0.000142848206451
200000000,4,200000000,,4.94498226544e-06,3.05524054056e-06,-3.6211583847e-06,0.00603972608224,0.00307798059657,-3.46837623511e-05
240000000,5,240000000,,3.9389756239e-06,2.63782317234e-06,-5.34792343387e-06,0.00541461305693,0.00264931400307,-1.59621158673e-05
280000000,6,280000000,,1.95614325094e-06,-1.9883193545e-06,-2.53497069025e-06,0.00384367373772,-0.00199583219364,1.63107197295e-05
320000000,7,320000000,,5.07350875978e-07,-1.46654758737e-06,-4.34416779171e-06,0.000532930949703,-0.00278056645766,-1.56710775627e-05
360000000,8,360000000,,-9.48073989093e-07,1.24580333249e-06,-3.70534667127e-06,-0.000986678292975,0.00212684064172,-6.62726524752e-05
400000000,9,400000000,,-2.2697409463e-07,-1.56804856033e-06,-2.46509125645e-06,-1.94069454951e-10,-1.32155475452e-09,-4.37717709301e-11
442000000,10,442000000,,4.03658191317e-08,1.49096432978e-08,-5.9342582972e-06,-2.82859013989e-10,-3.86781051631e-10,1.61860282122e-11
480000000,11,480000000,,1.30607196169e-08,4.88098024221e-08,-6.00989733357e-06,0.0,0.0,0.0
521000000,12,521000000,,-6.82033885369e-07,6.29046155609e-07,-5.92971991864e-06,-6.95247895713e-13,3.22338428735e-13,4.22059509195e-14
561000000,13,561000000,,-2.85494320451e-06,1.73096532308e-06,-5.85434781897e-06,-4.86271136205e-12,2.71664700284e-12,9.90161931939e-14
600000000,14,600000000,,-6.78713286106e-06,4.08853884437e-06,-5.7817637753e-06,-7.8232073597e-12,4.80619667328e-12,1.2097868009e-13
640000000,15,640000000,,-1.2064276234e-05,7.49974242353e-06,-5.71764076085e-06,-1.25152136918e-11,8.48926050984e-12,1.31869436703e-13
682000000,16,682000000,,-1.77876318048e-05,1.16352093755e-05,-5.66101516597e-06,-1.51634694384e-11,1.17968881191e-11,1.26451610684e-13
720000000,17,720000000,,-2.37384265347e-05,1.66422414623e-05,-5.6107655837e-06,-1.23953633815e-11,1.12746079833e-11,1.02189124404e-13
762000000,18,762000000,,-2.92903441732e-05,2.19765170186e-05,-5.57154999115e-06,-1.15457140376e-11,1.22842578124e-11,8.35129965941e-14
800000000,19,800000000,,-3.37601086358e-05,2.7032197977e-05,-5.54231246497e-06,-1.06251786883e-11,1.2314265059e-11,5.46025356006e-14
840000000,20,840000000,,-3.76239149773e-05,3.21746010741e-05,-5.52033498025e-06,-5.77129706872e-12,8.7500501636e-12,3.25325602232e-14
880000000,21,880000000,,-4.01919278374e-05,3.67312350136e-05,-5.50690583623e-06,-2.11126927573e-12,5.67206871749e-12,1.60411506127e-14
920000000,22,920000000,,-4.08954037994e-05,4.03278900194e-05,-5.49747801415e-06,-2.24828510843e-13,3.5698015724e-12,5.44174538194e-15
960000000,23,960000000,,-4.01972174586e-05,4.30806248914e-05,-5.49332753508e-06,1.45869471016e-12,2.06424482542e-12,4.48359992322e-15
1000000000,24,1000000000,,-3.78830118279e-05,4.47668608103e-05,-5.49285323359e-06,2.37606722492e-12,1.20035090808e-12,-1.37313220469e-15
1040000000,25,1040000000,,-3.40629303537e-05,4.54932451248e-05,-5.49499281988e-06,7.17262577457e-12,5.42257448525e-14,-3.18405889389e-15
1080000000,26,1080000000,,-2.89216804958e-05,4.49675426353e-05,-5.50007507627e-06,1.05034496725e-11,-1.54246147105e-12,-1.16099900757e-14
1120000000,27,1120000000,,-2.21138416236e-05,4.32246561104e-05,-5.50698905499e-06,1.90668730804e-11,-5.92634318355e-12,-1.63182083135e-14
1162000000,28,1162000000,,-1.5635319869e-05,4.08982014051e-05,-5.51428365725e-06,2.43440927139e-11,-8.98027485707e-12,-2.98871374155e-14
1201000000,29,1201000000,,-5.03279170516e-06,3.60882004315e-05,-5.52684605282e-06,3.58228446906e-11,-1.83317406394e-11,-3.62250072332e-14
1242000000,30,1242000000,,5.05735215484e-06,3.07308764604e-05,-5.53928384761e-06,4.69940891756e-11,-2.44373236924e-11,-6.27168672898e-14
1283000000,31,1283000000,,1.57184822456e-05,2.4483213565e-05,-5.55376846023e-06,5.50933083876e-11,-3.54785020806e-11,-7.06331965573e-14
1320000000,32,1320000000,,3.11643016175e-05,1.42413737194e-05,-5.57559496883e-06,7.04010322261e-11,-4.68708682977e-11,-1.08881104816e-13
1360000000,33,1360000000,,4.54337350675e-05,3.13375994665e-06,-5.59076215723e-06,9.10571965052e-11,-8.10976771848e-11,-1.25250486625e-15
1400000000,34,1400000000,,6.00150960963e-05,-1.15484426715e-05,-5.57951125302e-06,1.17098122865e-10,-1.38931519067e-10,1.7806261565e-13
1440000000,35,1440000000,,7.606674626e-05,-3.22907253576e-05,-5.53955487703e-06,1.20092838451e-10,-1.61863938919e-10,3.89912928334e-13
1480000000,36,1480000000,,8.70017174748e-05,-4.84993943246e-05,-5.48456409888e-06,4.53719874172e-11,-7.81745015943e-11,3.54606697738e-13
1520000000,37,1520000000,,8.97213176358e-05,-5.83197797823e-05,-5.40451082998e-06,-4.05274598603e-12,-9.97729676655e-12,1.54278974036e-13
1560000000,38,1560000000,,8.57294508023e-05,-6.31473085377e-05,-5.31059686182e-06,-1.07342173344e-11,-9.72028620788e-12,2.11646482675e-13
1601000000,39,1601000000,,7.90275735199e-05,-6.713905168e-05,-5.2034761211e-06,-2.08768540649e-11,-9.02351197235e-12,2.86284938898e-13
1640000000,40,1640000000,,7.0224305091e-05,-7.00105010765e-05,-5.09354958922e-06,-3.21803590719e-11,-8.48597494357e-12,3.837327049e-13
1681000000,41,1681000000,,5.82938446314e-05,-7.18153605703e-05,-4.9702321121e-06,-5.57293274028e-11,-2.96783019167e-12,5.12803395667e-13
1720000000,42,1720000000,,4.46473459306e-05,-7.19218078302e-05,-4.85049258714e-06,-7.33846317047e-11,2.85833487955e-12,6.25868335023e-13
1760000000,43,1760000000,,2.788483107e-05,-7.06438659108e-05,-4.72387955597e-06,-1.12152787057e-10,1.22243205142e-11,7.78543137077e-13
1801000000,44,1801000000,,7.99000190455e-06,-6.79689983372e-05,-4.59029524791e-06,-1.4347859012e-10,1.9192160014e-11,9.18442297042e-13
1841000000,45,1841000000,,-1.67338494066e-05,-6.38229612377e-05,-4.44505076302e-06,-1.86065399199e-10,3.76971127924e-11,1.04557085646e-12
1916000000,46,1916000000,,-6.31480215816e-05,-5.12068399985e-05,-4.18746640207e-06,-2.19583226602e-10,7.20841858426e-11,1.16744428794e-12
1941000000,47,1941000000,,-7.88722245488e-05,-4.24054487667e-05,-4.06148092225e-06,-2.71992206535e-10,2.24074175881e-10,3.02214590159e-12
1961000000,48,1961000000,,-9.31832328206e-05,-2.61530876742e-05,-3.87373802369e-06,-5.17215603679e-10,9.47309675148e-10,7.59462978617e-12
2006000000,49,2006000000,,-0.000122069177451,3.51785056409e-05,-3.32831200467e-06,-6.02577210351e-10,1.43638900774e-09,1.41588286234e-11
2041000000,50,2041000000,,-0.000143438533996,8.60746440594e-05,-2.72366150966e-06,-4.37243297124e-10,8.71658412116e-10,1.43456644133e-11
2081000000,51,2081000000,,-0.000170744868228,0.000141184558743,-1.66330448792e-06,-3.53838958134e-10,7.69735775119e-10,1.64911643369e-11
2120000000,52,2120000000,,-0.000191499319044,0.000190324091818,-6.01754152285e-07,-3.53196222269e-10,8.83324580148e-10,1.98773619092e-11
2160000000,53,2160000000,,-0.000209547797567,0.000238964508753,6.12602434558e-07,-2.385207587e-10,7.3930389588e-10,1.98066927443e-11
2200000000,54,2200000000,,-0.000221003225306,0.000282232067548,1.86919862699e-06,-1.47163614628e-10,6.19292950255e-10,1.92994994985e-11
2243000000,55,2243000000,,-0.000228315780987,0.000323621788993,3.31930891662e-06,-4.75711900427e-11,4.62612059771e-10,1.75822481574e-11
2280000000,56,2280000000,,-0.00022753837402,0.000357921147952,4.85432337882e-06,4.57418096456e-11,2.50333476171e-10,1.36705802928e-11
2320000000,57,2320000000,,-0.00021793464839,0.000381213088986,6.41762608211e-06,1.0077723378e-10,1.36839123366e-10,1.163837169e-11
2360000000,58,2360000000,,-0.000199688904104,0.00039364057011,7.9963783719e-06,1.76911013616e-10,5.76045044998e-11,1.25435157053e-11
2402000000,59,2402000000,,-0.000169397768332,0.000394320377382,9.78630032478e-06,3.51115664321e-10,-7.11737335735e-11,1.78878630658e-11
2447000000,60,2447000000,,-0.000126785060274,0.000378524127882,1.16643841466e-05,6.63724963879e-10,-3.30570876228e-10,2.62697953668e-11
2481000000,61,2481000000,,-8.72319797054e-05,0.000355359865353,1.30944536068e-05,1.03054587086e-09,-6.70448419005e-10,3.41354340627e-11
2520000000,62,2520000000,,-2.80472395389e-05,0.000313315191306,1.48883673319e-05,1.49017620465e-09,-1.14841613996e-09,4.27080593113e-11
2560000000,63,2560000000,,3.31194751197e-05,0.000260469503701,1.65698293131e-05,0.00172215106431,-0.00158699334133,4.43346616521e-05
2600000000,64,2600000000,,0.000117039999168,0.000181839437573,1.83626434591e-05,0.00239093741402,-0.002309568692,4.28983876191e-05
2641000000,65,2641000000,,0.000213260995224,8.07257965789e-05,2.01231414394e-05,0.0023091097828,-0.00255200150423,4.28898929385e-05
2681000000,66,2681000000,,0.000293259246973,-1.04402988654e-05,2.17609958781e-05,0.00186689803377,-0.00234868004918,4.30820909969e-05
2720000000,67,2720000000,,0.000357250828529,-0.00010283235315,2.35819352383e-05,0.00121768075041,-0.00200439826585,4.35338224634e-05
2760000000,68,2760000000,,0.000391600740841,-0.000166294339579,2.51554374699e-05,5.99184146743e-10,-1.37628997088e-09,3.79864577293e-11
2800000000,69,2800000000,,0.000403124548029,-0.000221202833927,2.70089931291e-05,-8.38955849236e-11,-2.73497224867e-10,1.72563647399e-11
2843000000,70,2843000000,,0.000387332955142,-0.000252609082963,2.90423977276e-05,-1.7447261691e-10,-3.40875966343e-10,1.95563426564e-11
2880000000,71,2880000000,,0.000368772685761,-0.000280890177237,3.06430920318e-05,-3.20802939768e-10,-4.45041725694e-10,2.30500219606e-11
2921000000,72,2921000000,,0.00033905802411,-0.00031530400156,3.23950553138e-05,-5.35301858395e-10,-5.74010894372e-10,2.73183108079e-11
2961000000,73,2961000000,,0.000298871833365,-0.000348526838934,3.40967089869e-05,-8.63152604946e-10,-5.4535043148e-10,3.11878231574e-11
3000000000,74,3000000000,,0.000242326117586,-0.000378672179068,3.5930366721e-05,-1.23516818995e-09,-5.83777415297e-10,3.6048851404e-11
3041000000,75,3041000000,,0.000174711036379,-0.00040456673014,3.76682000933e-05,-1.82132042781e-09,-5.62381474722e-10,4.23231172331e-11
3080000000,76,3080000000,,9.79268515948e-05,-0.000423769786721,3.93600494135e-05,-0.00208548968658,-0.000403295416618,4.34136345575e-05
3120000000,77,3120000000,,-2.16386615648e-06,-0.000437154696556,4.10695793107e-05,-0.00296057527885,-0.000295974401524,4.18609015469e-05
3160000000,78,3160000000,,-0.000118804637168,-0.000442248972831,4.27426530223e-05,-0.00291539798491,4.74435328215e-05,4.16055045207e-05
3200000000,79,3200000000,,-0.000226747011766,-0.000431082909927,4.44039069407e-05,-0.00238267309032,0.000460025505163,4.15955764765e-05
3240000000,80,3240000000,,-0.000306067231577,-0.000404722057283,4.60659321107e-05,-1.49110934711e-09,7.71384456311e-10,3.78808442947e-11
3280000000,81,3280000000,,-0.000348793371813,-0.000369373155991,4.77541834698e-05,-1.96232849414e-10,4.49282749893e-10,2.15750507737e-11
3320000000,82,3320000000,,-0.00036211128463,-0.000326573295752,4.9463022151e-05,-1.50424964152e-10,7.27871818373e-10,2.56379865254e-11
3360000000,83,3360000000,,-0.000368674314814,-0.000272485194728,5.11198340973e-05,-3.50511876468e-11,1.15480625063e-09,3.1175811932e-11
3400000000,84,3400000000,,-0.000365546351532,-0.000205930933589,5.27458905708e-05,1.69043834486e-10,1.55517410061e-09,3.56412330205e-11
3440000000,85,3440000000,,-0.000351920811227,-0.000126531740534,5.43871465197e-05,0.000472396728583,0.00209592049941,3.99190394091e-05
3480000000,86,3480000000,,-0.000324136781273,-2.72758807114e-05,5.58960127819e-05,0.000892038980965,0.00272172829136,3.81090139854e-05
3520000000,87,3520000000,,-0.000289148301817,6.53675378999e-05,5.71925302211e-05,0.00115786388051,0.00270462082699,3.81952850148e-05
3560000000,88,3560000000,,-0.000229676385061,0.000175801847945,5.90031704633e-05,0.00138563418295,0.00200975360349,3.86321626138e-05
3600000000,89,3600000000,,-0.000174575659912,0.000242336915107,6.05175118835e-05,0.00151557230856,0.00133851869032,3.87068503187e-05
3640000000,90,3640000000,,-0.000110430577479,0.000279199273791,6.20534774498e-05,1.33330002594e-09,5.39048750081e-10,3.25609157692e-11
3680000000,91,3680000000,,-5.63772518944e-05,0.000291814882075,6.36284748907e-05,4.61361643334e-10,-4.11789630173e-11,1.97606410401e-11
3720000000,92,3720000000,,-1.20321155919e-05,0.000283143890556,6.53046517982e-05,6.70120625657e-10,-1.99880556551e-10,2.42013718094e-11
3760000000,93,3760000000,,3.73158000002e-05,0.000266101997113,6.69414002914e-05,9.82468217892e-10,-3.49655249199e-10,2.94736526851e-11
3800000000,94,3800000000,,9.34969866648e-05,0.000244296476012,6.85351187713e-05,1.23617627246e-09,-5.36723054889e-10,3.35970418153e-11
3841000000,95,3841000000,,0.000154089037096,0.000215996886254,7.00929595041e-05,1.55203372376e-09,-7.45488726306e-10,3.80609918582e-11
3880000000,96,3880000000,,0.000227551819989,0.000177072375664,7.18610899639e-05,1.7204122571e-09,-1.01587716017e-09,4.12374752401e-11
3920000000,97,3920000000,,0.00029696864658,0.000134717338369,7.34686982469e-05,0.00181319320109,-0.00112758495379,4.12200279243e-05
3960000000,98,3960000000,,0.000387305917684,7.45113502489e-05,7.50650797272e-05,0.0021577232983,-0.0015325237764,3.956630826e-05
4000000000,99,4000000000,,0.000467745267088,1.57338490681e-05,7.66276716604e-05,0.00178820255678,-0.00138221832458,3.86906940548e-05
4043000000,100,4043000000,,0.000516097410582,-2.67311424977e-05,7.7899916505e-05,9.72920966014e-10,-9.79342495988e-10,3.19399298676e-11
4080000000,101,4080000000,,0.000536637147889,-6.22396619292e-05,7.9737015767e-05,-2.93082641489e-11,-1.22552565318e-10,9.8745551666e-12
4122000000,102,4122000000,,0.000528827600647,-8.10643832665e-05,8.10892815934e-05,-1.04563302461e-10,-1.93423291273e-10,1.25994683436e-11
4160000000,103,4160000000,,0.00050336838467,-0.000105696664832,8.27739349916e-05,-3.57491536374e-10,-2.66105248947e-10,1.74103752248e-11
4202000000,104,4202000000,,0.000467247067718,-0.000127661653096,8.41594592202e-05,-7.56974927185e-10,-3.58933771594e-10,2.33814946571e-11
4240000000,105,4240000000,,0.000406460894737,-0.000148469480337,8.56685946928e-05,-1.45724787792e-09,-3.99910188298e-10,3.11174974676e-11
4280000000,106,4280000000,,0.000328449852532,-0.000165219375049,8.70922449394e-05,-0.00223025679588,-0.00036052725045,3.53649338649e-05
4320000000,107,4320000000,,0.000215545413084,-0.000180561633897,8.84742185008e-05,-0.00318242469802,-0.000363553554052,3.41450904671e-05
4360000000,108,4360000000,,8.29005366541e-05,-0.0001906719408,8.98733051145e-05,-0.00344274239615,-0.000130141808768,3.37203273375e-05
4400000000,109,4400000000,,-4.45134173788e-05,-0.000190988008399,9.11883471417e-05,-0.00330672808923,0.000148143953993,3.31969349645e-05
4442000000,110,4442000000,,-0.000176277681021,-0.000176921414095,9.26020074985e-05,-0.00268729729578,0.000428842176916,3.28462519974e-05
4480000000,111,4480000000,,-0.000255768100033,-0.000158053037012,9.38231969485e-05,-1.62052815611e-09,5.19546849986e-10,3.0465321238e-11
4522000000,112,4522000000,,-0.000307561771479,-0.000135974347359,9.51166875893e-05,-1.59447871573e-10,1.68575195469e-10,1.16736134648e-11
4574000000,113,4574000000,,-0.000319270562613,-0.000114748196211,9.64075807133e-05,-7.17022829999e-11,2.02380029402e-10,1.1026177367e-11
4600000000,114,4600000000,,-0.000332960189553,-8.37525294628e-05,9.78245006991e-05,-2.5576893381e-10,4.23131113481e-10,1.60250285264e-11
4640000000,115,4640000000,,-0.000350767106283,-4.87711877213e-05,9.9041069916e-05,-2.26748259058e-10,5.05127439876e-10,1.67228470654e-11
4680000000,116,4680000000,,-0.00036523793824,-6.58969156575e-06,0.000100337638287,-1.51205353793e-10,6.43297470848e-10,1.81015740591e-11
4720000000,117,4720000000,,-0.000372393027646,4.24607787863e-05,0.000101652367448,-4.89663379288e-11,7.22220339089e-10,1.87290148668e-11
4760000000,118,4760000000,,-0.000371165282559,9.15512355277e-05,0.000102862024505,8.96875976264e-11,8.8996493508e-10,2.06696743055e-11
4802000000,119,4802000000,,-0.000362065708032,0.000140774078318,0.000103999227576,2.41088732311e-10,9.2688423603e-10,2.11746245538e-11
4845000000,120,4845000000,,-0.000342308077961,0.00019724854792,0.000105249666376,4.70768646288e-10,1.05282882412e-09,2.31224310532e-11
4880000000,121,4880000000,,-0.000309736584313,0.000253020116361,0.000106524261355,7.37558458752e-10,1.06622022322e-09,2.4314036895e-11
4921000000,122,4921000000,,-0.000264673260972,0.000308131013298,0.000107789848698,1.09248299296e-09,1.11625453325e-09,2.65413455103e-11
4962000000,123,4962000000,,-0.000208777564694,0.000355403724825,0.000108987369458,1.44601663976e-09,1.06236852648e-09,2.83156189468e-11
5000000000,124,5000000000,,-0.000143067140016,0.000396254705265,0.000110150343971,0.00183920189738,0.000924598658457,2.97370770568e-05
5040000000,125,5040000000,,-6.45634499961e-05,0.000427974300692,0.000111303204903,0.00262938183732,0.000991183449514,2.76139162452e-05
5080000000,126,5080000000,,5.45497459825e-05,0.000463160889922,0.000112406843982,0.00310657196678,0.000675329414662,2.62146495515e-05
5120000000,127,5120000000,,0.000160233816132,0.000470700499136,0.000113477777631,0.0021709126886,-0.000296549580526,2.72836823569e-05
5160000000,128,5160000000,,0.000228775126743,0.000440442527179,0.000114571033919,1.16612741685e-09,-8.51381687372e-10,2.33260112614e-11
5202000000,129,5202000000,,0.000262129993644,0.00039167428622,0.000115790033306,2.09891742875e-10,-8.63982274613e-10,2.02431127416e-11
5240000000,130,5240000000,,0.000271619210253,0.000337966193911,0.000116885617899,2.62809579654e-10,-1.34607125446e-09,2.3602980681e-11
5280000000,131,5280000000,,0.000281922781141,0.000262796325842,0.000118004922115,0.000203285511816,-0.00208821007982,2.75204947684e-05
5320000000,132,5320000000,,0.000288255658234,0.000159212155268,0.000119048068882,8.90063529368e-05,-0.0029042144306,2.53269790846e-05
5360000000,133,5360000000,,0.000286569993477,3.92007896153e-05,0.000120056931337,-0.000172714775545,-0.00295700039715,2.51543424383e-05
5400000000,134,5400000000,,0.000272619072348,-6.97107680026e-05,0.000121066106658,-0.00046175008174,-0.00253007817082,2.541257345e-05
5440000000,135,5440000000,,0.000248434051173,-0.000159116534633,0.00012208679982,-0.000723756849766,-0.00190070061944,2.55804206972e-05
5480000000,136,5480000000,,0.000215106774704,-0.000224046088988,0.000123137462651,-7.18449244541e-10,-1.04078212715e-09,2.03674455773e-11
5520000000,137,5520000000,,0.000179188617039,-0.000262499816017,0.000124144018628,-3.48112427773e-10,-1.62195298858e-10,1.17972489416e-11
5560000000,138,5560000000,,0.000145176847582,-0.000271908560535,0.000125243503135,-3.83547138494e-10,-5.38445364684e-11,1.17852932274e-11
5600000000,139,5600000000,,0.000103878199297,-0.000282612571027,0.000126232611365,-9.37028898917e-10,-3.57911478233e-10,1.78592505368e-11
5640000000,140,5640000000,,4.57274691144e-05,-0.000303087901557,0.000127261140733,-1.21518728413e-09,-3.7466357794e-10,1.99236738219e-11
5680000000,141,5680000000,,-2.06017066375e-05,-0.000319310405757,0.000128253697767,-1.54831347743e-09,-3.09052394787e-10,2.19577220989e-11
5720000000,142,5720000000,,-9.29783491301e-05,-0.000331061746692,0.000129239095259,-1.81049386594e-09,-2.1923776683e-10,2.33998393578e-11
5761000000,143,5761000000,,-0.000176229412318,-0.000335218792316,0.00013023725478,-0.00210178992711,2.47715106525e-05,2.42284404521e-05
5800000000,144,5800000000,,-0.000281190412352,-0.000326971057802,0.00013117279741,-0.00282688252628,0.000343814172084,2.29594534176e-05
5842000000,145,5842000000,,-0.000391971872887,-0.00030626138323,0.000132102431962,-0.00235219229944,0.000612266419921,2.27393702517e-05
5880000000,146,5880000000,,-0.000468214740977,-0.000276691454928,0.000132961591589,-1.65669011842e-09,8.72950212116e-10,2.17862290708e-11
5920000000,147,5920000000,,-0.000511440215632,-0.000236875857809,0.000133879235364,-3.67116892441e-10,6.80531853092e-10,1.44362482038e-11
5960000000,148,5960000000,,-0.00052883796161,-0.000189486599993,0.000134796660859,-2.47194181791e-10,8.34208591094e-10,1.49319896725e-11
6000000000,149,6000000000,,-0.000536804203875,-0.000132271889015,0.000135715090437,-1.78681340557e-11,1.13721854156e-09,1.67468174744e-11
6041000000,150,6041000000,,-0.000531166384462,-7.59122340241e-05,0.000136502378155,2.77127071291e-10,1.36185951405e-09,1.79828513192e-11
6080000000,151,6080000000,,-0.000506235519424,1.81331017757e-07,0.000137413910124,0.000830543460324,0.00184458226431,2.0978251996e-05
6120000000,152,6120000000,,-0.000460426643258,8.09962511994e-05,0.000138138217153,0.00152055604849,0.00236332090572,1.75997320184e-05
6160000000,153,6160000000,,-0.000383218517527,0.000178499714821,0.000138897259603,0.00205212342553,0.00207083439454,1.77380970854e-05
6200000000,154,6200000000,,-0.000296688522212,0.000245844159508,0.000139602736454,0.00233505084179,0.00142949225847,1.8342921976e-05
6240000000,155,6240000000,,-0.000199503425392,0.000287106347969,0.000140346834087,0.00247818557546,0.000678305048496,1.88628073374e-05
6280000000,156,6280000000,,-0.000102063146187,0.000300485320622,0.000141104465001,0.00237056589685,2.18282511923e-05,1.89932088688e-05
6320000000,157,6320000000,,-9.19831381907e-06,0.000289832794806,0.000141860698932,0.0022364507895,-0.000455105880974,1.88980502571e-05
6361000000,158,6361000000,,7.65990189393e-05,0.000263962952886,0.000142659220728,0.00188572320621,-0.000752745952923,1.91005856323e-05
6400000000,159,6400000000,,0.000145972851897,0.000228555349167,0.000143364464748,0.00171245529782,-0.00109376537148,1.81603991223e-05
6440000000,160,6440000000,,0.000207433477044,0.00017938730889,0.000144081815961,1.29776933644e-09,-1.19163345857e-09,1.67459518474e-11
6482000000,161,6482000000,,0.00024540987215,0.000140888936585,0.000144832767546,3.57582574662e-10,-4.34576929997e-10,1.01935994368e-11
6520000000,162,6520000000,,0.000275017111562,0.000101607271063,0.000145601967233,5.18104836811e-10,-7.12047532048e-10,1.21267587985e-11
6560000000,163,6560000000,,0.000306636968162,5.61602428206e-05,0.000146320817294,6.09338801638e-10,-9.48368272802e-10,1.3251135432e-11
6600000000,164,6600000000,,0.000338644749718,0.000146056176163,0.000147126964293,0.000816232757643,0.00312077044509,2.14453266381e-05
6640000000,165,6640000000,,0.000373930583009,0.000299060426187,0.000147893792018,0.00095175585011,0.00386222102679,1.78189766302e-05
6680000000,166,6680000000,,0.000408013816923,0.00032351759728,0.000148664330482,5.29749466516e-10,-9.81677739098e-10,1.69457867877e-11
6720000000,167,6720000000,,0.000423674529884,4.91831087857e-05,0.000150102277985,7.94425141066e-05,-0.0125413602218,5.09805831825e-05
6760000000,168,6760000000,,0.000423182005761,-0.000783907715231,0.000151527769049,-9.99256008072e-05,-0.028757840395,2.13214207179e-05
6800000000,169,6800000000,,0.000412826309912,-0.00241881120019,0.00015211146092,-0.000391209003283,-0.050313424319,8.13710994407e-06
6840000000,170,6840000000,,0.000390302913729,-0.00476001389325,0.000152386244736,-0.000700754695572,-0.0688709691167,2.06463118957e-06
6880000000,171,6880000000,,0.000355799566023,-0.00806268118322,0.000152469656314,-0.000956581498031,-0.0898920074105,6.0849208694e-07
6922000000,172,6922000000,,0.00031594777829,-0.0116487806663,0.000152504289872,-0.00114128389396,-0.104748889804,-9.63673642218e-07
6960000000,173,6960000000,,0.000265954906354,-0.016433943063,0.000152411943418,-0.0012582502095,-0.120150879025,-2.23617007578e-07
7000000000,174,7000000000,,0.00021428965556,-0.0214256681502,0.000152443666593,-0.00129908230156,-0.132840752602,1.41102600537e-06
7040000000,175,7040000000,,0.000162658776389,-0.0269499476999,0.000152538341354,-0.00130144983996,-0.139256194234,5.13017948833e-06
7080000000,176,7080000000,,0.000112867593998,-0.0326472185552,0.000152812644956,-0.00118683488108,-0.147890761495,8.94194727152e-06
7121000000,177,7121000000,,6.97157302056e-05,-0.0384295731783,0.000153210567078,-0.00103216909338,-0.145912945271,1.20120657812e-05
7160000000,178,7160000000,,3.01610180031e-05,-0.0446572676301,0.000153767643496,-0.000855039805174,-0.149471879005,1.44950245158e-05
7201000000,179,7201000000,,-6.36985078017e-07,-0.050362765789,0.000154440276674,-0.000721481046639,-0.143187880516,1.94220356207e-05
7243000000,180,7243000000,,-2.6551710107e-05,-0.0560879930854,0.000155246132636,-0.000577690661885,-0.141132116318,2.0961248083e-05
7285000000,181,7285000000,,-5.01366521348e-05,-0.0622237995267,0.000156213995069,-0.000442927208496,-0.129962161183,2.12615450437e-05
7320000000,182,7320000000,,-6.29328133073e-05,-0.0666726827621,0.000157043556101,-0.00031762587605,-0.128152891994,2.59360695054e-05
7360000000,183,7360000000,,-7.34568966436e-05,-0.0714962556958,0.000158046299475,-0.000207918608794,-0.117336556315,2.48031356023e-05
7400000000,184,7400000000,,-7.95942833065e-05,-0.0760061219335,0.000159016650287,-0.000105515719042,-0.105491004884,2.35049028561e-05
7440000000,185,7440000000,,-8.17532782094e-05,-0.0799951702356,0.000159928822541,-2.3604821763e-05,-0.0969644039869,2.20172660192e-05
7480000000,186,7480000000,,-8.0721998529e-05,-0.083890222013,0.000160875133588,6.15142853349e-05,-0.0888265892863,2.26078554988e-05
7520000000,187,7520000000,,-7.70012484281e-05,-0.0872863307595,0.000161773976288,0.000124905665871,-0.0830990821123,2.24685518333e-05
7560000000,188,7560000000,,-7.0520582085e-05,-0.0903209671378,0.000162649623235,0.000184517222806,-0.0660971626639,2.02229330171e-05
7610000000,189,7610000000,,-6.02327527304e-05,-0.0929939523339,0.000163537668413,0.000223375813221,-0.0377027057111,1.4887233192e-05
7640000000,190,7640000000,,-5.26961412106e-05,-0.09385099262,0.000164078461239,0.000281945976894,-0.0208953563124,2.06708882615e-05
7680000000,191,7680000000,,-4.1124294512e-05,-0.0942047014832,0.00016484290245,0.0002960760321,0.00293516926467,1.73591215571e-05
7726000000,192,7726000000,,-2.76610389847e-05,-0.0933987870812,0.000165543373441,0.000279032188701,0.0312261562794,1.29174823087e-05
7760000000,193,7760000000,,-1.81200739462e-05,-0.091979265213,0.000166050842381,0.000294845114695,0.0546402595937,1.88171288755e-05
7800000000,194,7800000000,,-6.86701150698e-06,-0.0894011259079,0.000166789235664,0.000280968466541,0.076330691576,2.0047509679e-05
7840000000,195,7840000000,,3.742878107e-06,-0.0860221013427,0.000167493941262,0.000243337402935,0.089538924396,1.57935719471e-05
7883000000,196,7883000000,,1.28032543216e-05,-0.0820714682341,0.000168134822161,0.000219082940021,0.108011029661,1.55729157996e-05
7920000000,197,7920000000,,2.07248140214e-05,-0.0775873661041,0.000168792597833,0.0001802110055,0.11853300035,1.78980426426e-05
7960000000,198,7960000000,,2.7964311812e-05,-0.0722714215517,0.000169524297235,0.000165040066349,0.134729102254,1.79691578523e-05
8000000000,199,8000000000,,3.36964221788e-05,-0.0668538808823,0.000170334911672,0.000128212021082,0.140963315964,2.1625581212e-05
8041000000,200,8041000000,,3.8732716348e-05,-0.060996863991,0.000171181411133,0.000115558184916,0.150361433625,2.12917439057e-05
8080000000,201,8080000000,,4.25669459219e-05,-0.0550125911832,0.000172092783032,8.37642946863e-05,0.150184333324,2.29732158914e-05
8120000000,202,8120000000,,4.59296570625e-05,-0.0489394031465,0.000172983505763,7.10627427907e-05,0.150530233979,2.15241998376e-05
8160000000,203,8160000000,,4.81529532408e-05,-0.0429304130375,0.000173893960891,5.36826955795e-05,0.145361170173,2.1226807803e-05
8200000000,204,8200000000,,5.01329086546e-05,-0.0373661480844,0.000174674816662,3.5351014958e-05,0.137402832508,1.95548909687e-05
8242000000,205,8242000000,,5.12480801262e-05,-0.0316688083112,0.000175482884515,3.20942417602e-05,0.130976423621,1.82338662853e-05
8280000000,206,8280000000,,5.20352114108e-05,-0.0269126072526,0.000176130080945,6.30607974017e-06,0.119043111801,1.79616745299e-05
8320000000,207,8320000000,,5.23787057318e-05,-0.0223561357707,0.000176807399839,1.33143521452e-05,0.114247329533,1.67503858393e-05
8360000000,208,8360000000,,5.24332499481e-05,-0.0179715715349,0.000177446592716,-8.10531128081e-06,0.100198157132,1.49007391883e-05
8400000000,209,8400000000,,5.22662267031e-05,-0.0141086447984,0.000178008456714,-5.03435512655e-06,0.0920613110065,1.31126280394e-05
8440000000,210,8440000000,,5.1653059927e-05,-0.0107706803828,0.00017850571021,-2.18796030822e-05,0.0806662514806,1.24716016217e-05
8483000000,211,8483000000,,5.09516212333e-05,-0.00776426866651,0.000178975533345,-2.25567273446e-05,0.0723794475198,1.13455289465e-05
8520000000,212,8520000000,,4.95769745612e-05,-0.0050499457866,0.000179425856913,-3.48755493178e-05,0.0623766258359,1.08504827949e-05
8560000000,213,8560000000,,4.8288355174e-05,-0.00276446156204,0.00017983536236,-4.0773753426e-05,0.054023694247,1.00968063634e-05
8600000000,214,8600000000,,4.62932002847e-05,-0.000749933882616,0.000180240938789,-4.40887415607e-05,0.0460957027972,9.72577163338e-06
8640000000,215,8640000000,,4.44081852038e-05,0.000943041173741,0.000180621325853,-5.84546360187e-05,0.0376596674323,9.14912925509e-06
8680000000,216,8680000000,,4.20274809585e-05,0.00232338346541,0.000180984294275,-5.79618281336e-05,0.0316337458789,8.83883967617e-06
8720000000,217,8720000000,,3.95400020352e-05,0.00345413060859,0.000181335475645,-7.02436591382e-05,0.0247163753957,8.57261966303e-06
8760000000,218,8760000000,,3.68345463357e-05,0.0043485770002,0.000181679948582,-6.50021611364e-05,0.0196463353932,8.38091000332e-06
8800000000,219,8800000000,,3.39705620718e-05,0.00501548219472,0.000182003437658,-7.67431265558e-05,0.0143188694492,8.19317756395e-06
8840000000,220,8840000000,,3.09772294713e-05,0.00550016388297,0.000182331335964,-7.29324892745e-05,0.0101766064763,8.28814336273e-06
8880000000,221,8880000000,,2.77652052318e-05,0.00574785657227,0.000182586198207,-2.84110044518e-11,2.53291304597e-10,9.02001238458e-13
8920000000,222,8920000000,,2.49868680839e-05,0.00571825308725,0.000182663978194,-5.13126942678e-05,-0.0057875639759,-3.15609759127e-06
8960000000,223,8960000000,,2.24066734518e-05,0.00551443966106,0.000182512390893,-7.54980646889e-05,-0.00429231673479,-4.81942697661e-06
9000000000,224,9000000000,,1.93474988919e-05,0.00549237011001,0.000182304938789,-8.03078073659e-05,0.00666291778907,-2.53126268035e-06
9040000000,225,9040000000,,1.62122469192e-05,0.00609594676644,0.000182292234967,-6.91654204275e-05,0.0243156738579,1.9744486508e-06
9080000000,226,9080000000,,1.35311674967e-05,0.00747038749978,0.00018247445405,-7.3850955232e-05,0.0429255142808,6.62516367811e-06
9120000000,227,9120000000,,1.07819259938e-05,0.00964233651757,0.0001828030654,-6.210769061e-05,0.0651895850897,9.46841828409e-06
9161000000,228,9161000000,,7.96791482571e-06,0.0127161582932,0.000183287265827,-7.64496362535e-05,0.0826681703329,1.28088704514e-05
9202000000,229,9202000000,,5.18377873959e-06,0.0163551326841,0.000183800220839,-7.0067566412e-05,0.101795911789,1.31057004182e-05
9240000000,230,9240000000,,1.82204075827e-06,0.0207711495459,0.00018439051928,-8.54700192576e-05,0.113762594759,1.46644224515e-05
9280000000,231,9280000000,,-1.31044214413e-06,0.0255287699401,0.000184958218597,-8.19383058115e-05,0.125843718648,1.34957854243e-05
9320000000,232,9320000000,,-5.00195119457e-06,0.0306156557053,0.000185503566172,-8.80377847352e-05,0.131863445044,1.37941824505e-05
9360000000,233,9360000000,,-8.23568461783e-06,0.0360649712384,0.000186037854291,-8.76584235812e-05,0.136304169893,1.24114330902e-05
9400000000,234,9400000000,,-1.19952474051e-05,0.041505664587,0.00018653490406,-7.82545757829e-05,0.138797193766,1.18270791063e-05
9440000000,235,9440000000,,-1.51261046994e-05,0.0470612645149,0.000186986741028,-9.11816459848e-05,0.134927377105,1.09741085907e-05
9480000000,236,9480000000,,-1.85271273949e-05,0.0524373799562,0.000187391080544,-7.47312151361e-05,0.135988861322,9.67960659182e-06
9520000000,237,9520000000,,-2.17923097807e-05,0.057890728116,0.000187783574802,-8.85590488906e-05,0.128158479929,9.5660043371e-06
9564000000,238,9564000000,,-2.49754812103e-05,0.063496440649,0.000188161298865,-6.33344534435e-05,0.125262141228,7.63920343161e-06
9600000000,239,9600000000,,-2.78159532172e-05,0.0677400454879,0.000188467573025,-8.39898566483e-05,0.117298290133,8.62164142745e-06
9640000000,240,9640000000,,-3.07370100927e-05,0.0724409148097,0.000188786085346,-6.47686683806e-05,0.110833585262,6.98459098203e-06
9680000000,241,9680000000,,-3.34257019858e-05,0.0765226706862,0.000189056576346,-6.3985477027e-05,0.100833721459,6.65614970785e-06
9720000000,242,9720000000,,-3.5537603253e-05,0.080421499908,0.0001893096196,-5.34756472916e-05,0.0924842432141,5.99685427005e-06
9760000000,243,9760000000,,-3.78332406399e-05,0.083876542747,0.000189547747141,-4.80890157633e-05,0.0835413038731,5.93615413891e-06
9811000000,244,9811000000,,-4.01170364057e-05,0.0879236608744,0.000189846119611,-5.12286605954e-05,0.0705724954605,5.68611130802e-06
9840000000,245,9840000000,,-4.15706381318e-05,0.0899043604732,0.000190016668057,-4.61890704173e-05,0.0662199407816,5.98974975219e-06
9880000000,246,9880000000,,-4.34684916399e-05,0.0923795625567,0.000190255144844,-5.4967491451e-05,0.0565997064114,5.98147153141e-06
9920000000,247,9920000000,,-4.54785185866e-05,0.0945215299726,0.000190495353309,-4.44213837909e-05,0.0505888648331,6.02840145802e-06
9960000000,248,9960000000,,-4.74359185318e-05,0.0963749662042,0.00019073569274,-5.33740567334e-05,0.0424846485257,6.06958610661e-06
10001000000,249,10001000000,,-4.93963452755e-05,0.0980057939887,0.000190987208043,-4.64185977762e-05,0.0365781523287,6.21119806965e-06
10042000000,250,10042000000,,-5.15846149938e-05,0.099350348115,0.000191241575521,-5.37640880793e-05,0.0300145577639,6.21242088528e-06
10082000000,251,10082000000,,-5.36653533345e-05,0.100407518446,0.000191491621081,-5.53814606974e-05,0.024343252182,6.44394367555e-06
10120000000,252,10120000000,,-5.60093540116e-05,0.101220361888,0.000191737388377,-6.03867774771e-05,0.0192834790796,6.48310333418e-06
10162000000,253,10162000000,,-5.99375052843e-05,0.101884931326,0.000191994811757,-0.000147885715705,0.0148520888761,6.57221380607e-06
10200000000,254,10200000000,,-6.83804246364e-05,0.102407127619,0.000192282925127,-0.000327941961586,0.0107987262309,1.05081944639e-05
10240000000,255,10240000000,,-8.49532370921e-05,0.102747306228,0.000192794715986,-0.00042390631279,0.00678788730875,1.22834853755e-05
10280000000,256,10280000000,,-9.84691214398e-05,0.102963902056,0.000193210697034,-0.000265345181106,0.0041553764604,8.98745201994e-06
10320000000,257,10320000000,,-0.000106148341729,0.10307046771,0.000193521307665,-1.28199145744e-10,1.39657729825e-09,6.12017858267e-12
10360000000,258,10360000000,,-0.000109414686449,0.103088214993,0.000193771717022,-5.67351677791e-12,-4.89508766854e-10,3.33832028861e-12
10400000000,259,10400000000,,-0.000109406086267,0.103013940156,0.000194064516108,4.10770371673e-06,-0.0022359569557,6.40342977931e-06
10440000000,260,10440000000,,-0.000108592161268,0.102889068425,0.000194321837625,3.3201824408e-05,-0.00427658203989,6.93432139087e-06
10480000000,261,10480000000,,-0.000106931584014,0.102695032954,0.000194595908397,5.85961497563e-05,-0.00588972400874,7.0702121775e-06
10521000000,262,10521000000,,-0.000103636964923,0.102413579822,0.000194896099856,9.46134023252e-05,-0.00745570613071,7.24429673937e-06
10560000000,263,10560000000,,-9.97380193439e-05,0.102119401097,0.000195171203814,0.000109178421553,-0.00787580665201,6.94405844115e-06
10601000000,264,10601000000,,-9.50499015744e-05,0.101799182594,0.000195443950361,0.000118183706945,-0.00788469426334,6.61496369503e-06
10640000000,265,10640000000,,-9.04420012375e-05,0.101487621665,0.000195697590243,0.000119356402138,-0.00818338803947,6.4464325078e-06
10680000000,266,10680000000,,-8.56478945934e-05,0.101160362363,0.00019595073536,0.000113335714559,-0.00791310053319,6.14856207903e-06
10721000000,267,10721000000,,-8.11097124824e-05,0.100824050605,0.000196204520762,0.000108095649921,-0.0080105047673,5.96057225266e-06
10760000000,268,10760000000,,-7.7348195191e-05,0.100527048111,0.00019642492407,8.96100391401e-05,-0.00765995262191,5.70723977944e-06
10800000000,269,10800000000,,-7.39826427889e-05,0.100212961435,0.000196654436877,7.80657719588e-05,-0.00753457890823,5.47643412574e-06
10840000000,270,10840000000,,-7.14161942597e-05,0.099923543632,0.000196867928025,5.4694199207e-05,-0.00705614686012,5.2414638958e-06
10883000000,271,10883000000,,-6.92354733474e-05,0.0996359214187,0.000197085129912,4.45334044343e-05,-0.00650297245011,5.01550175613e-06
10920000000,272,10920000000,,-6.82934332872e-05,0.0994024723768,0.000197265238967,1.47611144712e-05,-0.00631287088618,4.80411608805e-06
10966000000,273,10966000000,,-6.77098869346e-05,0.0991190448403,0.000197534711333,2.52575864579e-06,-0.00557804806158,6.57725149722e-06
11000000000,274,11000000000,,-6.80632438161e-05,0.0989358797669,0.000197762463358,-1.43194802149e-05,-0.005755065009,7.68566860643e-06
11041000000,275,11041000000,,-6.8826819188e-05,0.0986996665597,0.000198122783331,-2.45098399319e-05,-0.00504453806207,8.96166511666e-06
11080000000,276,11080000000,,-6.97595460224e-05,0.0985161215067,0.000198482201085,-2.43592457991e-05,-0.00463013071567,9.90708485915e-06
11120000000,277,11120000000,,-7.08925435902e-05,0.0983517691493,0.000198873138288,-3.43575738952e-05,-0.00393226509914,1.06760171548e-05
11160000000,278,11160000000,,-7.22845288692e-05,0.0981975123286,0.000199337548111,-2.89751660603e-05,-0.00338998436928,1.14173144539e-05
11200000000,279,11200000000,,-7.3694063758e-05,0.0980759337544,0.000199806891032,-3.75098643417e-05,-0.00278107752092,1.20710747069e-05
11240000000,280,11240000000,,-7.50799881644e-05,0.0979712754488,0.000200314316317,-3.40924998454e-05,-0.00230278028175,1.2575825167e-05
11280000000,281,11280000000,,-7.66151497373e-05,0.0978918224573,0.000200815018616,-3.48277066908e-11,-1.70685754419e-09,1.21167910774e-11
11320000000,282,11320000000,,-7.76703309384e-05,0.0978396385908,0.000201328992262,-1.30910542823e-11,-5.23230181404e-10,6.79201096407e-12
11362000000,283,11362000000,,-7.89118930697e-05,0.0977968946099,0.00020186099573,-2.08302871479e-11,-7.90316312393e-10,8.8141603391e-12
11400000000,284,11400000000,,-8.03518269095e-05,0.0977400615811,0.000202464012546,-2.80002045855e-11,-9.02661001501e-10,9.8108960192e-12
11440000000,285,11440000000,,-8.20349669084e-05,0.097684212029,0.000203060088097,-2.96782425024e-11,-1.07683340023e-09,1.11745048978e-11
11480000000,286,11480000000,,-8.3700484538e-05,0.0976269766688,0.00020369241247,-3.7053290991e-11,-1.04599251483e-09,1.13135690052e-11
11520000000,287,11520000000,,-8.55814287206e-05,0.0975701287389,0.000204312600545,-3.84714239632e-11,-1.28291832713e-09,1.29701093615e-11
11560000000,288,11560000000,,-8.76051417436e-05,0.0975139588118,0.000204933618079,-3.69032374103e-11,-9.04774755117e-10,1.1128696055e-11
11605000000,289,11605000000,,-8.96903002285e-05,0.0974594205618,0.000205640273634,-2.53644362458e-11,-6.72785771538e-10,9.88916153827e-12
11643000000,290,11643000000,,-9.16878052521e-05,0.0974196344614,0.000206399767194,-1.4105570878e-11,-2.47231846107e-10,6.16484554378e-12
11680000000,291,11680000000,,-9.32014881982e-05,0.0973909199238,0.000207040633541,-2.04853217722e-11,-3.43966799488e-10,7.46533997814e-12
11720000000,292,11720000000,,-9.50975372689e-05,0.097367964685,0.000207769408007,-6.38240805692e-12,-5.55693616122e-11,3.10377504947e-12
11760000000,293,11760000000,,-9.70700202743e-05,0.0973603874445,0.000208518191357,-3.03919324603e-12,2.95941678281e-12,8.89858499387e-13
11800000000,294,11800000000,,-0.000100664168713,0.0973700881004,0.000209258971154,-2.38526923907e-11,1.17792137155e-10,4.55564926061e-12
11840000000,295,11840000000,,-0.000104490420199,0.0974009856582,0.000210039448575,-4.27311415419e-11,4.0965508763e-10,8.90857353164e-12
11882000000,296,11882000000,,-0.000107651590952,0.0974418222904,0.000210783444345,-4.8103084016e-11,8.08286215737e-10,1.31122760219e-11
11920000000,297,11920000000,,-0.00011069856555,0.0975095182657,0.000211681224755,-6.29400420671e-11,1.72524849962e-09,1.96402547004e-11
11960000000,298,11960000000,,-0.000112733483547,0.0975937396288,0.00021252251463,-4.10680149798e-05,0.00236968090758,2.18789846258e-05
12000000000,299,12000000000,,-0.000114534755994,0.0977100878954,0.000213365143281,-3.88715707231e-05,0.00331806205213,2.07802022487e-05
12040000000,300,12040000000,,-0.000115037815704,0.0978465080261,0.000214230836718,6.0539923652e-06,0.00350965117104,2.19979265239e-05
12082000000,301,12082000000,,-0.000113782509288,0.0979899987578,0.000215220992686,5.4581083532e-05,0.00318610202521,2.3988999601e-05
12120000000,302,12120000000,,-0.0001106081545,0.0980961546302,0.00021615687001,0.000106513965875,0.00254178489558,2.62265548372e-05
12161000000,303,12161000000,,-0.000105748724309,0.0994005575776,0.000214325467823,0.000124151774799,0.0394786074758,-7.13769259164e-05
12207000000,304,12207000000,,-0.000101939622255,0.100173830986,0.000212634404306,0.000125916907564,0.0113692227751,-4.20888827648e-05
12240000000,305,12240000000,,-9.58594828262e-05,0.0993955209851,0.000211702528759,0.000130858577904,-0.0444040670991,8.49092600674e-07
12280000000,306,12280000000,,-9.02081956156e-05,0.0966886803508,0.000212264349102,0.000147466227645,-0.0889553725719,2.46792133112e-05
12320000000,307,12320000000,,-8.4269711806e-05,0.0919907018542,0.00021384296997,0.000165752906469,-0.142883583903,5.00971727888e-05
12362000000,308,12362000000,,-7.66013545217e-05,0.0848584696651,0.000216550179175,0.000186084987945,-0.191648736596,7.68583195168e-05
12400000000,309,12400000000,,-6.98092844686e-05,0.0769827142358,0.000219626075705,0.000195240456378,-0.227609828115,8.65983456606e-05
12440000000,310,12440000000,,-6.18251797277e-05,0.0676167681813,0.00022303093283,0.000191329294466,-0.253673493862,9.79170945357e-05
12480000000,311,12480000000,,-5.45110233361e-05,0.0571906678379,0.000227104275837,0.000194736014237,-0.268539339304,0.000102377060102
12520000000,312,12520000000,,-4.66092387796e-05,0.046355471015,0.000231050289585,0.000163209217135,-0.271238148212,9.95666341623e-05
12562000000,313,12562000000,,-3.99803575419e-05,0.0359614416957,0.000234885053942,0.000176043555257,-0.251510113478,9.28495428525e-05
12600000000,314,12600000000,,-3.34245378326e-05,0.0261354669929,0.000238313150476,0.000137601804454,-0.229812175035,7.52039559302e-05
12640000000,315,12640000000,,-2.78217230516e-05,0.0175047777593,0.000241061847191,0.000123907608213,-0.19083045423,6.09038252151e-05
12681000000,316,12681000000,,-2.39773416979e-05,0.010619613342,0.000243112619501,8.90673327376e-05,-0.161878734827,4.56198031316e-05
12720000000,317,12720000000,,-2.09790778172e-05,0.00479321787134,0.000244807451963,5.10354184371e-05,-0.125123679638,3.6742498196e-05
12760000000,318,12760000000,,-1.9860575776e-05,0.000381056335755,0.000245985807851,1.86169163499e-05,-0.0968764275312,2.73854293482e-05
12800000000,319,12800000000,,-1.98513880605e-05,-0.00280110654421,0.000246965617407,-1.465540754e-05,-0.0701575949788,2.4366130674e-05
12841000000,320,12841000000,,-2.07483171835e-05,-0.00507007585838,0.000247826130362,-3.15644829243e-05,-0.049349013716,2.13064467971e-05
12880000000,321,12880000000,,-2.23269726121e-05,-0.00668309722096,0.00024871955975,-3.46638116753e-05,-0.0307975970209,2.36464438785e-05
12920000000,322,12920000000,,-2.30704772548e-05,-0.00758878700435,0.000249694945524,-1.63725180755e-05,-0.016935268417,2.8216296414e-05
12960000000,323,12960000000,,-2.36062551267e-05,-0.00802891142666,0.000250828423304,-7.09199821358e-06,-0.00742196431383,3.1637653592e-05
13000000000,324,13000000000,,-2.37819604081e-05,-0.00817176885903,0.000252160010859,-8.92473432396e-13,-2.07286375564e-11,3.53608136695e-12
13040000000,325,13040000000,,-2.39890450757e-05,-0.00804775487632,0.000253563222941,2.49967024502e-06,0.00518247066066,3.73083821614e-05
13080000000,326,13080000000,,-2.4062299417e-05,-0.00775256939232,0.000255063176155,-4.40279109171e-06,0.0081874076277,4.01422839786e-05
13120000000,327,13120000000,,-2.3976117518e-05,-0.00738126365468,0.000256755301962,6.36324966763e-06,0.0108434148133,4.24728132202e-05
13164000000,328,13164000000,,-2.39151995629e-05,-0.00689622852951,0.000258438056335,2.40329040935e-06,0.012676006183,4.3344025471e-05
13200000000,329,13200000000,,-2.34047183767e-05,-0.00636113109067,0.000260291039012,1.85536100616e-05,0.0131090292707,4.67960635433e-05
13240000000,330,13240000000,,-2.26914398809e-05,-0.005867252592,0.000262106681475,2.46071358561e-05,0.0132811618969,4.85632808704e-05
13280000000,331,13280000000,,-2.12901977648e-05,-0.00531217455864,0.000264132133452,3.65639934898e-05,0.0135175352916,4.99154339195e-05
13323000000,332,13323000000,,-1.97454373847e-05,-0.00477586546913,0.000266150891548,4.70756021969e-05,0.0136776929721,5.1015515055e-05
13360000000,333,13360000000,,-1.76754583663e-05,-0.00425600633025,0.000268110161414,5.50562690478e-05,0.013420695439,5.18180531799e-05
13400000000,334,13400000000,,-1.52031379912e-05,-0.00370175810531,0.000270319462288,6.76922209095e-05,0.0133893918246,5.31103651156e-05
13440000000,335,13440000000,,-1.22076671687e-05,-0.00317469192669,0.000272453064099,7.44875433156e-05,0.0126550951973,5.37116538908e-05
13480000000,336,13480000000,,-9.04826902115e-06,-0.0026757970918,0.000274633232038,8.61438675201e-05,0.0122549599037,5.51862285647e-05
13520000000,337,13520000000,,-5.69339817957e-06,-0.00221730628982,0.000276794919046,8.16499450593e-05,0.0111622707918,5.59098116355e-05
13561000000,338,13561000000,,-2.17103547584e-06,-0.00176043226384,0.00027916795807,8.62713568495e-05,0.0104647725821,5.69800649828e-05
13600000000,339,13600000000,,9.15914085908e-07,-0.00137799559161,0.000281403132249,7.82162678661e-05,0.00949358846992,5.76020538574e-05
13640000000,340,13640000000,,4.19038724431e-06,-0.00100260018371,0.000283783156192,7.65843797126e-05,0.00864753033966,5.83564651606e-05
13681000000,341,13681000000,,6.98170015312e-06,-0.000680643483065,0.000286132621113,6.8412417022e-05,0.00773844076321,5.90966556047e-05
13720000000,342,13720000000,,9.60095167102e-06,-0.00039541409933,0.000288451177767,5.8765115682e-05,0.00673368293792,5.96898062213e-05
13761000000,343,13761000000,,1.17687450256e-05,-0.000138689196319,0.000290913623758,5.08174452989e-05,0.00595420133322,6.04209344601e-05
13800000000,344,13800000000,,1.36320122692e-05,7.32579064788e-05,0.000293283868814,3.85393177567e-05,0.0048887738958,6.10430070083e-05
13840000000,345,13840000000,,1.50581217895e-05,0.000256190483924,0.000295738689601,3.61448401236e-05,0.00423489138484,6.17838231847e-05
13880000000,346,13880000000,,1.62833548529e-05,0.000413162546465,0.000298270228086,2.22761973419e-05,0.0034633774776,6.17418190814e-05
13920000000,347,13920000000,,1.71141364262e-05,0.000541902030818,0.000300740241073,2.17286487896e-05,0.00296217296273,6.17759724264e-05
13960000000,348,13960000000,,1.76037792698e-05,0.000644115847535,0.0003031512897,7.86603868619e-06,0.00235223514028,6.1912338424e-05
14001000000,349,14001000000,,1.79718153959e-05,0.000728738144971,0.000305633293465,3.81028715524e-12,1.62121471803e-09,5.5918592673e-11
14040000000,350,14040000000,,1.77138190338e-05,0.000777393172029,0.000308208778733,-3.62599056683e-12,3.04569064413e-10,2.47601418535e-11
14080000000,351,14080000000,,1.75022214535e-05,0.000810845696833,0.000310739880661,-4.07759199669e-12,4.59780324924e-10,3.0278168861e-11
14120000000,352,14120000000,,1.70257389982e-05,0.000848827592563,0.000313203578116,-5.14066480356e-12,4.94210672386e-10,3.15278289587e-11
14162000000,353,14162000000,,1.65674173331e-05,0.00088766036788,0.000315748009598,-8.88152138639e-12,4.02496369567e-10,2.86880345868e-11
14200000000,354,14200000000,,1.58365564857e-05,0.000917769910302,0.000317992758937,-7.7306000143e-12,3.34595351426e-10,2.64265987565e-11
14240000000,355,14240000000,,1.48292547237e-05,0.000950166257098,0.000320976309013,-8.8426392944e-12,1.71111874669e-10,1.91462696392e-11
14280000000,356,14280000000,,1.37053984872e-05,0.000968765234575,0.000323536252836,-4.90659856495e-12,8.00815594393e-11,1.33402846061e-11
14320000000,357,14320000000,,1.24099242385e-05,0.000978325610049,0.0003261914826,-3.01002755707e-12,1.10465169997e-11,5.25539681218e-12
14360000000,358,14360000000,,1.1000336599e-05,0.000977726071142,0.000328944413923,-2.48405506234e-12,-1.00645004483e-11,5.12565424132e-12
14404000000,359,14404000000,,9.5305576906e-06,0.000966672261711,0.000331386981998,-1.06377224737e-11,-1.19902449081e-10,1.6807012379e-11
14441000000,360,14441000000,,7.87699536886e-06,0.000935397634748,0.000334345764713,-1.86259098423e-11,-4.34288327522e-10,3.23175132488e-11
14481000000,361,14481000000,,5.97476537223e-06,0.000887444301043,0.000337272358593,-2.97868570087e-11,-9.55664436475e-10,4.8536112629e-11
14521000000,362,14521000000,,4.36147593064e-06,0.000823003123514,0.000340097438311,-4.0265086404e-11,-1.57988055971e-09,6.31703023224e-11
14560000000,363,14560000000,,3.5581119846e-06,0.000751022831537,0.000342673971318,4.27416352977e-06,-0.0022624519188,7.20745301805e-05
14600000000,364,14600000000,,5.81087351748e-06,0.000630652124528,0.000345796521287,8.62515007611e-05,-0.00320941163227,7.59802424e-05
14640000000,365,14640000000,,9.98265932139e-06,0.000496873282827,0.000348860077793,0.000120457050798,-0.00339052942581,7.70146289142e-05
14680000000,366,14680000000,,1.46904667417e-05,0.000371364876628,0.000351936003426,0.000111157416541,-0.00288535677828,7.69030957599e-05
14721000000,367,14721000000,,1.89460261026e-05,0.000262308400124,0.00035515151103,9.31857939577e-05,-0.00227333023213,7.62276613386e-05
14760000000,368,14760000000,,2.11683782254e-05,0.00018977180298,0.000358028424671,2.15685854593e-11,-1.28883526074e-09,6.04423525119e-11
14803000000,369,14803000000,,2.09100071515e-05,0.000142156393849,0.000360853155144,-2.05345983273e-11,-1.75578829253e-10,2.133044609e-11
14841000000,370,14841000000,,1.72988093254e-05,0.000119308904686,0.000363883766113,-2.68456732538e-11,-1.79625536667e-10,2.21058987088e-11
14880000000,371,14880000000,,1.38232935569e-05,9.39672609093e-05,0.000366908905562,-2.81919279588e-11,-2.01253166909e-10,2.37724250007e-11
14920000000,372,14920000000,,1.0377983017e-05,6.92346948199e-05,0.000369912595488,-2.50581118355e-11,-1.93958640815e-10,2.37346132331e-11
14960000000,373,14960000000,,6.98855956216e-06,4.55089939351e-05,0.000372950045858,-2.58741968823e-11,-1.51850906849e-10,2.13030530716e-11
15000000000,374,15000000000,,3.3584369703e-06,2.53254966083e-05,0.00037593889283,-2.19585790523e-11,-1.2030106078e-10,1.91862723625e-11
15040000000,375,15040000000,,-1.11494763644e-07,8.95099947229e-06,0.00037895917194,-1.85604587255e-11,-6.81307024686e-11,1.47310288967e-11
15081000000,376,15081000000,,-3.79264452022e-06,-3.38475274475e-06,0.000382161349989,-1.01500917046e-11,-3.09804820686e-11,1.02718493433e-11
15122000000,377,15122000000,,-6.63508672005e-06,-9.21442551771e-06,0.000385331659345,-4.0164399584e-12,-3.40971283326e-12,4.9028615369e-12
15160000000,378,15160000000,,-8.8686701929e-06,-7.66133962316e-06,0.000388538319385,-3.84121640745e-12,1.08625591161e-11,6.5730277124e-12
15200000000,379,15200000000,,-1.08459526018e-05,1.88450928817e-06,0.000391855661292,-7.31886426464e-12,5.77523792678e-11,1.40807305052e-11
15240000000,380,15240000000,,-1.1956223716e-05,1.97564604605e-05,0.000395130860852,-6.63752429755e-12,1.5075156401e-10,2.26880181309e-11
15280000000,381,15280000000,,-1.19776268548e-05,4.47587444796e-05,0.000398365402361,1.03428697898e-11,2.8976906985e-10,3.18886757278e-11
15320000000,382,15320000000,,-8.81853702595e-06,8.01302812761e-05,0.000401775236242,5.57879263618e-11,4.79943140785e-10,4.25798632464e-11
15360000000,383,15360000000,,-3.70265547645e-06,0.000123474790598,0.000405250379117,8.67575178365e-11,7.31197047354e-10,5.30468620419e-11
15400000000,384,15400000000,,2.6518962386e-06,0.000175326029421,0.000408760766732,1.13391525336e-10,9.03952857012e-10,5.95947735604e-11
15440000000,385,15440000000,,9.866856999e-06,0.000233529222896,0.000412312627304,1.50681314648e-10,1.18980469921e-09,6.92881446662e-11
15480000000,386,15480000000,,1.82178864634e-05,0.000297364400467,0.000415997899836,1.7051252077e-10,1.29140331762e-09,7.30429119966e-11
15520000000,387,15520000000,,2.68195417448e-05,0.000362931343261,0.000419548188802,2.06691788684e-10,1.54532964203e-09,8.09231154308e-11
15560000000,388,15560000000,,3.64978150174e-05,0.000433986657299,0.000423323625,2.09515280125e-10,1.53762391708e-09,8.16313891483e-11
15600000000,389,15600000000,,4.59524999314e-05,0.000503103772644,0.000426955666626,2.2248257403e-10,1.59513224851e-09,8.40351746523e-11
15640000000,390,15640000000,,5.56207087357e-05,0.000571075710468,0.000430715823313,2.02936126237e-10,1.43848200018e-09,8.05754629685e-11
15680000000,391,15680000000,,6.50364527246e-05,0.00063664506888,0.000434512359789,1.82394099824e-10,1.2413994277e-09,7.55236151395e-11
15720000000,392,15720000000,,7.37639566069e-05,0.000695282185916,0.00043834047392,1.41865158509e-10,9.52993461922e-10,6.67054952941e-11
15760000000,393,15760000000,,8.1401958596e-05,0.000744921038859,0.000442193675553,9.42667610637e-11,5.94096105644e-10,5.30592514369e-11
15800000000,394,15800000000,,8.74619145179e-05,0.000782828021329,0.000446070276666,5.11069901676e-11,3.11423581367e-10,3.8728267121e-11
15840000000,395,15840000000,,9.14763586479e-05,0.000805559568107,0.000449863146059,1.55840392674e-11,8.49351075582e-11,2.04829746914e-11
15881000000,396,15881000000,,9.32402763283e-05,0.000813060905784,0.000453962711617,8.76822919826e-13,-1.64151288048e-12,5.05053898009e-12
15920000000,397,15920000000,,9.2149763077e-05,0.000801945745479,0.000457876332803,-1.63194284475e-11,-1.25440671739e-10,2.49069567054e-11
15960000000,398,15960000000,,8.98827056517e-05,0.00077333219815,0.000461627001641,-2.86315381126e-11,-5.10127606823e-10,5.03331543111e-11
16000000000,399,16000000000,,8.69377035997e-05,0.000721423188224,0.000465723569505,-6.37554870009e-11,-1.19407161936e-09,7.77659048268e-11
16040000000,400,16040000000,,8.60007130541e-05,0.000648124143481,0.000469871796668,-4.71057137474e-05,-0.0020817478653,0.000104144193756
16080000000,401,16080000000,,8.01891001174e-05,0.000539756787475,0.000473979016533,-0.000204274867428,-0.00306866155006,0.000102156853245
16120000000,402,16120000000,,6.94871705491e-05,0.000408379157307,0.000478150235722,-0.000331362971338,-0.00321780028753,0.000101097895822
16160000000,403,16160000000,,5.46921946807e-05,0.000285619375063,0.000482071656734,-0.000394661008613,-0.00306198536418,0.000100828961877
16200000000,404,16200000000,,3.78611148335e-05,0.000170889601577,0.00048622689792,-0.00044236733811,-0.00251191691495,0.000101222409285
16240000000,405,16240000000,,2.07614157262e-05,8.19455599412e-05,0.000490181264468,-0.000434303161455,-0.00204597879201,0.000101395278762
16281000000,406,16281000000,,2.94492178909e-06,1.07516061689e-05,0.000494351843372,-3.23532783897e-10,-1.12270992503e-09,7.82468950744e-11
16320000000,407,16320000000,,-1.10746896098e-05,-3.40884726029e-05,0.000498410488945,-8.4896666086e-11,-2.02951239148e-10,3.59225496571e-11
16360000000,408,16360000000,,-2.22407452384e-05,-5.73352590436e-05,0.000502693990711,-1.13925528733e-10,-2.3688304096e-10,3.86766556282e-11
16400000000,409,16400000000,,-3.53051436832e-05,-8.48835261422e-05,0.000506928598043,-1.46318235306e-10,-3.02254332674e-10,4.33449665049e-11
16440000000,410,16440000000,,-5.04389572598e-05,-0.000113655092719,0.000511149235535,-1.6791247559e-10,-3.13630427184e-10,4.46149749089e-11
16480000000,411,16480000000,,-6.64591789246e-05,-0.000142997698276,0.000515378837008,-1.86255136314e-10,-3.10348996502e-10,4.49527290391e-11
