%time,field.header.seq,field.header.stamp,field.header.frame_id,field.angular_velocities0,field.angular_velocities1,field.angular_velocities2,field.angular_velocities3
320000000,2,320000000,,518.791607219,518.784106026,518.792538784,518.783026967
442000000,3,442000000,,645.852962956,645.877436434,645.854327657,645.876508794
521000000,4,521000000,,650.735049761,650.736070636,650.736515328,650.735145412
640000000,5,640000000,,588.64747265,588.648503274,588.648941061,588.647571298
720000000,6,720000000,,443.526657578,443.527690285,443.528129195,443.526761525
840000000,7,840000000,,302.495211167,302.496240641,302.496701934,302.495338198
920000000,8,920000000,,290.913781888,290.914809933,290.915297555,290.913934826
1040000000,9,1040000000,,332.765855519,332.766884616,332.767411485,332.766047005
1120000000,10,1120000000,,431.576700764,431.577734268,431.57829641,431.576926415
1242000000,11,1242000000,,467.400447669,467.401491876,467.402088032,467.400705303
1320000000,12,1320000000,,479.032117887,479.033177331,479.033792254,479.032390981
1440000000,13,1440000000,,451.653080518,451.654151025,451.654736049,451.653329428
1520000000,14,1520000000,,403.926281481,403.927362685,403.927981346,403.926560781
1640000000,15,1640000000,,380.116894972,380.117984208,380.118582411,380.117155657
1720000000,16,1720000000,,377.769650682,377.770739582,377.771324463,377.769900599
1841000000,17,1841000000,,368.337801881,368.338871654,368.339434292,368.338034503
1916000000,18,1916000000,,463.881049486,463.882100444,463.882654242,463.881275767
2041000000,19,2041000000,,409.239086544,409.240217842,409.241029981,409.239495123
2120000000,20,2120000000,,448.991213912,448.99243779,448.993420184,448.991832057
2243000000,21,2243000000,,412.909358553,412.910648223,412.911888684,412.910238707
2320000000,22,2320000000,,396.202244659,396.203604637,396.205103802,396.203381525
2447000000,23,2447000000,,397.888623039,397.890088613,397.891915397,397.890078085
2520000000,24,2520000000,,421.292274758,421.293855802,421.295940502,421.293980137
2600000000,25,2600000000,,423.274252166,423.295317439,423.277931079,423.295155607
2720000000,26,2720000000,,427.122608045,427.131224647,427.126059788,427.130607101
2800000000,27,2800000000,,436.00454135,435.9935681,436.008095772,435.992793528
2921000000,28,2921000000,,439.246616498,439.248780925,439.250031008,439.247661454
3040000000,29,3040000000,,418.275679286,418.277884994,418.278904054,418.27651292
3120000000,30,3120000000,,424.226345669,424.24798725,424.229327214,424.246628399
3240000000,31,3240000000,,419.871593517,419.879211295,419.874324916,419.878279368
3320000000,32,3320000000,,429.059148536,429.048305752,429.061574784,429.047551615
3440000000,33,3440000000,,421.058094631,421.059450285,421.060278834,421.059022895
3520000000,34,3520000000,,440.848285465,440.866796484,440.85087949,440.866467857
3640000000,35,3640000000,,427.786177594,427.793932308,427.789113126,427.79356559
3720000000,36,3720000000,,431.001432262,430.991537117,431.004516027,430.991346526
3841000000,37,3841000000,,421.299149866,421.300952912,421.302435309,421.300771096
3920000000,38,3920000000,,432.750317712,432.770834151,432.753731391,432.770560678
4043000000,39,4043000000,,426.412957495,426.420194557,426.416152429,426.419225034
4122000000,40,4122000000,,452.072049805,452.062950492,452.075240106,452.0616083
4240000000,41,4240000000,,426.166503685,426.169088921,426.169595155,426.167265042
4320000000,42,4320000000,,418.232707985,418.250738158,418.235613897,418.249018233
4400000000,43,4400000000,,431.359513011,431.366547434,431.362268757,431.36530517
4522000000,44,4522000000,,430.559666755,430.551796164,430.562305482,430.550801044
4640000000,45,4640000000,,436.171786755,436.173639845,436.174329766,436.172986129
4720000000,46,4720000000,,420.760877903,420.762591567,420.763370618,420.76215845
4845000000,47,4845000000,,440.586760113,440.588349469,440.589295464,440.588201496
4921000000,48,4921000000,,438.297032837,438.298564659,438.299707456,438.298647379
5000000000,49,5000000000,,433.894022848,433.908984666,433.896933276,433.909250387
5120000000,50,5120000000,,426.615122102,426.620199256,426.618541527,426.619933929
5240000000,51,5240000000,,435.14528952,435.139806208,435.149123254,435.139462876
5320000000,52,5320000000,,433.75723114,433.771203326,433.760951282,433.770638218
5440000000,53,5440000000,,428.455967953,428.462231965,428.459355008,428.461490625
5520000000,54,5520000000,,447.982377848,447.977166463,447.98561606,447.976286839
5600000000,55,5600000000,,422.054883434,422.057217932,422.057902872,422.056235142
5720000000,56,5720000000,,438.791344199,438.793615419,438.794171756,438.792582184
5842000000,57,5842000000,,424.811350258,424.823631856,424.814024954,424.82323832
5920000000,58,5920000000,,427.51319775,427.508048355,427.515763613,427.507921267
6000000000,59,6000000000,,430.632219799,430.633689921,430.634709604,430.634049469
6120000000,60,6120000000,,445.357722665,445.366754248,445.360596777,445.367487633
6240000000,61,6240000000,,425.944165932,425.948956775,425.947499488,425.949730155
6320000000,62,6320000000,,437.806312777,437.811093545,437.80988075,437.811737476
6440000000,63,6440000000,,416.660618788,416.665179014,416.664248291,416.665566518
6520000000,64,6520000000,,435.628914922,435.625674293,435.632767632,435.626035958
6640000000,65,6640000000,,426.36399572,426.378434735,426.373537768,426.378561485
6720000000,66,6720000000,,432.638870248,432.650392456,432.65928187,432.650285904
6840000000,67,6840000000,,424.32295134,424.336587574,424.356084614,424.336181294
6922000000,68,6922000000,,435.222387519,435.242058881,435.2638796,435.241555197
7040000000,69,7040000000,,437.796119816,437.816768418,437.838429757,437.816259254
7121000000,70,7121000000,,441.938401203,441.962360481,441.97792158,441.96190112
7243000000,71,7243000000,,421.075207803,421.095082836,421.101553282,421.094688536
7320000000,72,7320000000,,427.640285176,427.652642198,427.652960516,427.652304349
7440000000,73,7440000000,,431.631067396,431.631216412,431.622192303,431.63092271
7520000000,74,7520000000,,426.492796963,426.481590613,426.458858388,426.481308697
7610000000,75,7610000000,,433.986529843,433.957237285,433.923651842,433.956949576
7726000000,76,7726000000,,427.40702572,427.361438203,427.306803121,427.361111792
7840000000,77,7840000000,,432.967944703,432.908460059,432.835976733,432.908067021
7920000000,78,7920000000,,439.134938376,439.062990397,438.983712997,439.062527867
8041000000,79,8041000000,,433.562239191,433.483719043,433.393673737,433.483177878
8120000000,80,8120000000,,434.218446201,434.135130142,434.043487783,434.134513187
8242000000,81,8242000000,,424.897258508,424.811152873,424.719244706,424.810452223
8320000000,82,8320000000,,439.200899797,439.115862446,439.02597497,439.115084391
8440000000,83,8440000000,,427.536607311,427.452267447,427.365679759,427.451403772
8520000000,84,8520000000,,428.836476848,428.755250775,428.671043103,428.754308272
8640000000,85,8640000000,,431.114112952,431.036252068,430.954906042,431.035224664
8720000000,86,8720000000,,442.926648032,442.851714222,442.773142003,442.850611921
8840000000,87,8840000000,,411.579892433,411.508017482,411.432284123,411.506837504
8920000000,88,8920000000,,438.663645412,438.588214518,438.514930382,438.586957665
9040000000,89,9040000000,,438.173224169,438.095699269,438.015310168,438.094377175
9120000000,90,9120000000,,425.041071542,424.964785079,424.874098057,424.963398485
9240000000,91,9240000000,,426.251325927,426.172084078,426.081127773,426.170634335
9320000000,92,9320000000,,434.835363544,434.754596701,434.666727236,434.753094162
9440000000,93,9440000000,,436.603617846,436.527963691,436.445781537,436.526413384
9520000000,94,9520000000,,439.643971425,439.572651736,439.498128027,439.571059653
9600000000,95,9600000000,,431.241805714,431.179075883,431.111517061,431.177449017
9720000000,96,9720000000,,425.582862945,425.530858674,425.47600037,425.52920392
9811000000,97,9811000000,,435.036809202,434.994413986,434.948545287,434.992731378
9920000000,98,9920000000,,426.852531998,426.823712052,426.790478699,426.822014313
10042000000,99,10042000000,,447.754506551,447.739217651,447.719329202,447.737511308
10120000000,100,10120000000,,431.667848263,431.662007405,431.651336941,431.660296887
10240000000,101,10240000000,,442.844409393,442.853370413,442.853877783,442.851765876
10320000000,102,10320000000,,431.293532611,431.308848108,431.32037309,431.307308795
10440000000,103,10440000000,,421.396671971,421.424447858,421.448120816,421.42297997
10521000000,104,10521000000,,429.448475642,429.484960376,429.51580812,429.483551066
10640000000,105,10640000000,,440.733142729,440.780802684,440.823463376,440.779449856
10721000000,106,10721000000,,444.01988654,444.074757558,444.124801416,444.073448248
10840000000,107,10840000000,,439.745834681,439.811442169,439.872408847,439.810185663
10920000000,108,10920000000,,417.379387737,417.451796182,417.519736135,417.450591027
11041000000,109,11041000000,,433.443037113,433.527244502,433.604072428,433.526111275
11120000000,110,11120000000,,436.314323641,436.405352248,436.488343714,436.404291917
11240000000,111,11240000000,,432.992163052,433.093232623,433.18627187,433.092263773
11320000000,112,11320000000,,432.270624675,432.372159425,432.47772541,432.371274115
11400000000,113,11400000000,,443.044897112,443.156351188,443.264631192,443.155559479
11520000000,114,11520000000,,435.033437406,435.154618069,435.272694909,435.153941082
11605000000,115,11605000000,,427.449639178,427.576828107,427.700950478,427.576263673
11720000000,116,11720000000,,421.787619473,421.92416774,422.057744666,421.923740176
11840000000,117,11840000000,,421.203945816,421.34967955,421.492536725,421.349417381
11920000000,118,11920000000,,437.660303752,437.81156818,437.960052784,437.811468016
12040000000,119,12040000000,,457.147692753,457.317645644,457.46611097,457.317740028
12120000000,120,12120000000,,442.459088142,442.630568447,442.788999075,442.630833408
12240000000,121,12240000000,,429.494019845,429.734825887,430.042340615,429.735272196
12320000000,122,12320000000,,425.860318238,426.19101858,426.450301252,426.191617323
12440000000,123,12440000000,,415.922959217,416.25478069,416.535501622,416.255533346
12520000000,124,12520000000,,428.95830989,429.279685502,429.570902767,429.280576482
12600000000,125,12600000000,,442.574726456,442.88359905,443.172365318,442.884622488
12720000000,126,12720000000,,436.957937203,437.245887904,437.53516945,437.247057109
12841000000,127,12841000000,,434.617585958,434.898287782,435.177414507,434.899615391
12920000000,128,12920000000,,423.057498773,423.336188874,423.605095132,423.337668466
13040000000,129,13040000000,,421.105392229,421.368203458,421.642360899,421.369847853
13120000000,130,13120000000,,423.629971262,423.914837908,424.159099998,423.916641042
13240000000,131,13240000000,,442.75935933,443.029336181,443.280960574,443.031308406
13323000000,132,13323000000,,441.791736306,442.05912551,442.307767883,442.061258996
13440000000,133,13440000000,,434.059193817,434.323876266,434.569346997,434.326168411
13520000000,134,13520000000,,433.962805585,434.22529524,434.468477377,434.227732769
13640000000,135,13640000000,,427.688450286,427.948738697,428.189049095,427.951324226
13720000000,136,13720000000,,436.333486322,436.591901972,436.830034491,436.594626575
13840000000,137,13840000000,,429.228079085,429.484243266,429.71985471,429.487111686
13920000000,138,13920000000,,428.523722902,428.777723125,429.011514344,428.780730468
14040000000,139,14040000000,,427.411495876,427.635208116,427.894409179,427.638361918
14120000000,140,14120000000,,430.343641672,430.583601176,430.82250036,430.586893313
14240000000,141,14240000000,,440.331892076,440.569391822,440.805978604,440.572828644
14320000000,142,14320000000,,426.500010835,426.735425706,426.970083004,426.739003326
14441000000,143,14441000000,,439.106996289,439.340003188,439.5723966,439.343732977
14521000000,144,14521000000,,430.348786806,430.579755779,430.810310117,430.583629372
14640000000,145,14640000000,,434.849152736,435.112029475,435.305512107,435.116022985
14721000000,146,14721000000,,429.059150568,429.297067616,429.510939804,429.301172935
14841000000,147,14841000000,,430.707323731,430.908588338,431.154079079,430.912844384
14920000000,148,14920000000,,433.911576279,434.132936479,434.354016365,434.137324755
15040000000,149,15040000000,,434.486414022,434.705157486,434.923742035,434.709692677
15122000000,150,15122000000,,430.254804077,430.471272973,430.687720836,430.475951789
15240000000,151,15240000000,,437.623872716,437.837666389,438.051581683,437.842506817
15320000000,152,15320000000,,424.582868389,424.794382255,425.006175921,424.799358594
15440000000,153,15440000000,,434.676924831,434.885852799,435.095226438,434.890973623
15520000000,154,15520000000,,430.553924059,430.760675741,430.968003332,430.765927928
15640000000,155,15640000000,,432.030234832,432.23452186,432.439526547,432.239892752
15720000000,156,15720000000,,437.826772777,438.029032068,438.232156284,438.03449996
15840000000,157,15840000000,,423.979780791,424.17978415,424.38074577,424.185328285
15920000000,158,15920000000,,437.923456777,438.121545956,438.320665597,438.127159902
16040000000,159,16040000000,,425.168879095,425.364807418,425.56184027,425.370431162
16120000000,160,16120000000,,439.350766674,439.590456848,439.739420463,439.596171646
16240000000,161,16240000000,,425.40351362,425.609763431,425.787114861,425.615614011
16320000000,162,16320000000,,427.801212226,427.960109181,428.180604502,427.966079392
16440000000,163,16440000000,,427.992773005,428.179449482,428.36718947,428.185573154
