%time,field.header.seq,field.header.stamp,field.header.frame_id,field.pose.position.x,field.pose.position.y,field.pose.position.z,field.pose.orientation.x,field.pose.orientation.y,field.pose.orientation.z,field.pose.orientation.w
1000000,0,1000000,world,0.0,0.0,0.74,0.0,0.0,0.0,1.0
11000000,1,11000000,world,-1.07738277069e-27,-1.09807001825e-27,0.739461,-5.3725141903e-27,4.12735521657e-27,1.15199516752e-27,1.0
21000000,2,21000000,world,1.63692024856e-24,1.51811157212e-24,0.737942,1.20292517363e-23,-1.19965837191e-23,-1.854574052e-24,1.0
31000000,3,31000000,world,-4.38394968409e-25,-6.00545634499e-25,0.735443,7.22102059036e-24,-1.67577970031e-23,7.60542676413e-25,1.0
41000000,4,41000000,world,-1.4288227372e-24,-1.79321964477e-24,0.731964,3.00119168489e-24,-2.37804484207e-23,1.87282292978e-24,1.0
51000000,5,51000000,world,-2.69206115799e-25,-7.55861801429e-25,0.727505,1.38393085235e-24,-2.25640175756e-23,9.00100114244e-26,1.0
61000000,6,61000000,world,4.18084781635e-19,-3.15816710653e-19,0.722066,5.15552968045e-21,1.10946936718e-20,-1.04651691129e-24,1.0
71000000,7,71000000,world,3.05010199841e-18,-2.6238031999e-18,0.715647,1.86638507512e-19,2.29770723777e-19,1.16670326043e-24,1.0
81000000,8,81000000,world,5.8469441967e-18,-5.07605638525e-18,0.708248,4.01988025484e-19,4.41791858718e-19,-2.24180539519e-24,1.0
91000000,9,91000000,world,8.78677367554e-18,-7.6543092322e-18,0.699869,6.16918032234e-19,6.55928294429e-19,-1.56495371869e-24,1.0
101000000,10,101000000,world,1.11677707565e-17,-9.54367934912e-18,0.69051,7.18581717312e-19,8.2083361737e-19,-4.33239385345e-24,1.0
111000000,11,111000000,world,1.35331339136e-17,-1.13846981476e-17,0.680171,7.11004183546e-19,9.21402183089e-19,-2.97964980672e-24,1.0
121000000,12,121000000,world,1.594479985e-17,-1.32532298251e-17,0.668852,7.62026868701e-19,1.05413842448e-18,-3.25797304252e-24,1.0
131000000,13,131000000,world,1.59885508973e-14,1.50535760957e-14,0.656553080965,1.1051059407e-13,-9.85921398518e-14,-1.86829353842e-14,1.0
141000000,14,141000000,world,3.38606128643e-14,3.11646104449e-14,0.643275584944,4.53076887086e-13,-4.4798602063e-13,-3.84932683937e-14,1.0
151000000,15,151000000,world,-6.02863524841e-15,-1.11960564893e-14,0.629023413989,8.71488608776e-13,-9.22718283192e-13,1.49263245355e-14,1.0
161000000,16,161000000,world,-1.73994389969e-06,1.3053525312e-07,0.624997933125,-9.51066720924e-07,-1.30537029613e-06,-3.24324628353e-07,0.999999999999
171000000,17,171000000,world,3.75301490662e-06,2.05668332543e-06,0.624996420002,-2.19694019511e-06,2.93288322095e-06,-1.031912556e-06,0.999999999993
181000000,18,181000000,world,4.40879482433e-06,-1.32030938528e-06,0.624998874115,1.27771048772e-08,1.38733520444e-06,-1.85306933233e-06,0.999999999997
191000000,19,191000000,world,4.38771588717e-06,-3.4261370835e-06,0.624997560962,1.82263750417e-06,1.33372310366e-06,-1.82749671431e-06,0.999999999996
201000000,20,201000000,world,-1.94738736408e-07,2.38778331239e-06,0.624996624891,-2.76732195165e-06,-2.31421855263e-06,-1.98040446246e-06,0.999999999992
211000000,21,211000000,world,6.03754487276e-06,4.67510073257e-08,0.62499742591,-7.20377793125e-07,2.59320354059e-06,-2.45129850949e-06,0.999999999993
221000000,22,221000000,world,2.0142198688e-06,-4.33581591436e-06,0.624999001845,2.82606718417e-06,-6.61891648661e-07,-3.38736207532e-06,0.99999999999
231000000,23,231000000,world,4.25918704603e-06,-2.76666878727e-06,0.624997302836,1.68708816359e-06,1.7808614387e-06,-2.60275430033e-06,0.999999999994
241000000,24,241000000,world,-1.00562540586e-06,2.88884190165e-07,0.624998160102,-5.1593878285e-07,-3.14007807753e-06,-3.13633072186e-06,0.99999999999
251000000,25,251000000,world,4.95419440218e-06,-2.78964294252e-06,0.6249970114,1.9458194737e-06,2.4141941702e-06,-1.96285539311e-06,0.999999999993
261000000,26,261000000,world,6.5933377093e-07,2.44859897447e-06,0.624999196435,-2.59068768624e-06,-7.92856997836e-07,-1.06768412642e-06,0.999999999996
271000000,27,271000000,world,-1.56813181481e-08,-3.16151878362e-06,0.624997563191,1.85607435654e-06,-1.27442137978e-06,-1.16608204955e-06,0.999999999997
281000000,28,281000000,world,4.21894209975e-06,-6.34472106915e-07,0.62499830401,-6.8696327979e-08,2.15363427109e-06,-1.22686605109e-06,0.999999999997
291000000,29,291000000,world,-5.664840837e-06,7.07831519551e-08,0.624996709839,6.89998820121e-08,-4.0897454391e-06,-2.69204493491e-06,0.999999999988
301000000,30,301000000,world,4.67262524129e-07,4.41835552006e-07,0.624999386556,-1.25682118052e-07,8.45508736843e-07,-2.5274190289e-06,0.999999999996
311000000,31,311000000,world,-2.18034857255e-06,1.57432147717e-06,0.62499837468,-1.06983901745e-06,-1.28243063737e-06,-2.1178094428e-06,0.999999999996
321000000,32,321000000,world,-3.31548919543e-07,1.69807231986e-06,0.62499925537,-1.12543030274e-06,1.40586707367e-07,-2.19752350706e-06,0.999999999997
331000000,33,331000000,world,-1.20380823078e-06,-5.43110770352e-07,0.624999005008,6.97344991075e-07,-5.85946711128e-07,-2.1965644444e-06,0.999999999997
341000000,34,341000000,world,-1.79639288761e-06,2.87933353876e-07,0.624998792105,3.74792830561e-07,-1.27383618856e-06,-1.72085080312e-06,0.999999999998
351000000,35,351000000,world,-6.04821471771e-08,1.56869800695e-06,0.624999576195,-7.4925384464e-07,-4.5792095042e-09,-1.91033657877e-06,0.999999999998
361000000,36,361000000,world,-1.49608019292e-07,-4.982418302e-07,0.624999504906,8.90262920635e-07,-1.40790731187e-08,-1.91377935532e-06,0.999999999998
371000000,37,371000000,world,-2.78390135186e-08,1.59474668107e-06,0.624999559075,-8.01165335641e-07,4.69048597755e-08,-1.82585182061e-06,0.999999999998
381000000,38,381000000,world,1.1418581478e-05,1.44271713358e-07,0.625007050494,3.05425101291e-07,9.11175170228e-06,-1.59752474557e-06,0.999999999957
391000000,39,391000000,world,-1.14078581039e-06,1.05091713816e-06,0.624999539773,-4.81636709434e-07,-1.01383574493e-06,-1.20457800953e-06,0.999999999999
401000000,40,401000000,world,5.27351045911e-07,1.5298247364e-07,0.624999520184,3.05943844472e-07,3.65217164835e-07,-1.25627967349e-06,0.999999999999
411000000,41,411000000,world,4.23030702801e-08,8.02444446609e-07,0.624999818101,-2.30715525628e-07,-1.49460288192e-09,-1.23868079041e-06,0.999999999999
421000000,42,421000000,world,6.15370152293e-07,-9.01801670652e-07,0.624999987741,5.55285106235e-09,1.23057228937e-09,-3.03628298414e-06,0.999999999995
431000000,43,431000000,world,9.87372891279e-07,-9.52596165233e-07,0.625000222526,1.21967660922e-09,2.90906503437e-07,-3.02518268042e-06,0.999999999995
441000000,44,441000000,world,5.85322433467e-07,-7.00064453809e-07,0.625000159454,-2.3259084842e-07,3.57032720263e-09,-2.94863834495e-06,0.999999999996
451000000,45,451000000,world,6.01048611641e-07,-1.01027292457e-06,0.624999990616,-2.39990097953e-09,4.11466079116e-10,-3.0122311401e-06,0.999999999995
461000000,46,461000000,world,6.82536209355e-07,-1.00113691894e-06,0.625000072216,2.98946357302e-09,1.35348329826e-07,-3.02263371543e-06,0.999999999995
471000000,47,471000000,world,5.57024143624e-07,-1.0254286963e-06,0.625000006896,-1.70395062766e-09,-1.54336406746e-08,-3.00453396446e-06,0.999999999995
481000000,48,481000000,world,6.47628022676e-07,-1.20575283818e-06,0.625000833964,9.17266970646e-09,3.3614780915e-08,-3.00373440485e-06,0.999999999995
491000000,49,491000000,world,9.13708577269e-07,-2.59327644891e-06,0.625021610662,5.71076199752e-08,1.08212199251e-07,-2.99342377081e-06,0.999999999996
501000000,50,501000000,world,1.30689473357e-06,-4.22229009101e-06,0.625099367978,3.86484601369e-08,1.9217450557e-07,-2.98357633148e-06,0.999999999996
511000000,51,511000000,world,1.71452733062e-06,-4.70214136652e-06,0.625271278523,-1.7976040957e-07,2.51818011899e-07,-2.9737709194e-06,0.999999999996
521000000,52,521000000,world,2.3448613096e-06,-6.13278423464e-06,0.625573668499,-3.5747921656e-07,3.22373492806e-07,-2.96385347117e-06,0.999999999995
531000000,53,531000000,world,3.1886989785e-06,-8.35733319477e-06,0.626042060198,-5.06403892275e-07,4.12337719747e-07,-2.95371611173e-06,0.999999999995
541000000,54,541000000,world,4.2342830561e-06,-1.1234395792e-05,0.626711675336,-6.45275591862e-07,5.2251275138e-07,-2.94390273699e-06,0.999999999995
551000000,55,551000000,world,5.73079860863e-06,-1.23116978623e-05,0.62761718853,-1.06813906506e-06,6.84744775375e-07,-2.93454274756e-06,0.999999999995
561000000,56,561000000,world,7.3835561139e-06,-1.39460794054e-05,0.628792391282,-1.51808355743e-06,9.16304564569e-07,-2.92533115598e-06,0.999999999994
571000000,57,571000000,world,9.17589667396e-06,-1.60579222581e-05,0.630270186564,-1.97253178849e-06,1.17551053259e-06,-2.91624898076e-06,0.999999999993
581000000,58,581000000,world,1.10915614466e-05,-1.85734698005e-05,0.632082590115,-2.42408786747e-06,1.45357396257e-06,-2.90729601899e-06,0.999999999992
591000000,59,591000000,world,1.32038178276e-05,-2.07476326466e-05,0.63426073425,-2.93770506514e-06,1.76794778838e-06,-2.89813427294e-06,0.99999999999
601000000,60,601000000,world,1.5490703921e-05,-2.25767784326e-05,0.6368348739,-3.5090278347e-06,2.1151796083e-06,-2.88912272211e-06,0.999999999987
611000000,61,611000000,world,1.78466020388e-05,-2.47143912856e-05,0.639834394626,-4.11211311816e-06,2.47957665915e-06,-2.8807626659e-06,0.999999999984
621000000,62,621000000,world,2.02580018063e-05,-2.71203045876e-05,0.643287822338,-4.75988823722e-06,2.89991673476e-06,-2.87274061591e-06,0.99999999998
631000000,63,631000000,world,2.277314919e-05,-2.94387552851e-05,0.647222834495,-5.44865369733e-06,3.36364814651e-06,-2.86489413395e-06,0.999999999975
641000000,64,641000000,world,2.54075388519e-05,-3.15055271657e-05,0.65166627263,-6.17496477495e-06,3.84816282206e-06,-2.85727481035e-06,0.999999999969
651000000,65,651000000,world,2.80620783315e-05,-3.37793357846e-05,0.656641861041,-6.87551057063e-06,4.35118301957e-06,-2.84944657494e-06,0.999999999963
661000000,66,661000000,world,3.08691215808e-05,-3.57664773248e-05,0.662163328524,-7.59938579364e-06,4.88104949689e-06,-2.84184070966e-06,0.999999999955
671000000,67,671000000,world,3.36915982372e-05,-3.7887990511e-05,0.668241669046,-8.34996144618e-06,5.41509739818e-06,-2.83500531117e-06,0.999999999946
681000000,68,681000000,world,3.65079810502e-05,-4.01770430215e-05,0.674887482909,-9.12535383817e-06,5.9989225574e-06,-2.82851795145e-06,0.999999999936
691000000,69,691000000,world,3.93162161051e-05,-4.26112479752e-05,0.682110989255,-9.88077968085e-06,6.59698191516e-06,-2.82228615718e-06,0.999999999925
701000000,70,701000000,world,4.21903778504e-05,-4.50069975617e-05,0.689922038255,-1.06148445114e-05,7.20367403689e-06,-2.81626463883e-06,0.999999999914
711000000,71,711000000,world,4.51606057479e-05,-4.72784101206e-05,0.698330123107,-1.13286916032e-05,7.82678787546e-06,-2.80999005712e-06,0.999999999901
721000000,72,721000000,world,4.81118041222e-05,-4.96589658482e-05,0.707344391786,-1.20045235713e-05,8.44346519438e-06,-2.80419433085e-06,0.999999999888
731000000,73,731000000,world,5.10451528755e-05,-5.2134077601e-05,0.716970859971,-1.26954166118e-05,9.05132532547e-06,-2.79917362084e-06,0.999999999875
741000000,74,741000000,world,5.39611649949e-05,-5.46877918394e-05,0.727194498172,-1.33846611775e-05,9.70510817094e-06,-2.79441179796e-06,0.999999999859
751000000,75,751000000,world,5.6863715444e-05,-5.73039396202e-05,0.737991813005,-1.40366987938e-05,1.0347886894e-05,-2.78996530161e-06,0.999999999844
761000000,76,761000000,world,5.98082485883e-05,-5.98839000414e-05,0.749340366406,-1.4645150409e-05,1.0988304163e-05,-2.78561298502e-06,0.999999999829
771000000,77,771000000,world,6.29459020411e-05,-6.2176295572e-05,0.761218754383,-1.52340066349e-05,1.16429951698e-05,-2.7810608237e-06,0.999999999812
781000000,78,781000000,world,6.6065543952e-05,-6.45163346864e-05,0.773606554266,-1.57877288676e-05,1.22781692049e-05,-2.77710979614e-06,0.999999999796
791000000,79,791000000,world,6.91696266882e-05,-6.68965916016e-05,0.786484275193,-1.63493647441e-05,1.29005027988e-05,-2.77377747949e-06,0.999999999779
801000000,80,801000000,world,7.2567359958e-05,-6.88751692125e-05,0.799833311464,-1.69389582624e-05,1.35846997925e-05,-2.7706232604e-06,0.99999999976
811000000,81,811000000,world,7.60669136272e-05,-7.07198181164e-05,0.813635898607,-1.74993365879e-05,1.42551196993e-05,-2.76774489913e-06,0.999999999741
821000000,82,821000000,world,7.97230495848e-05,-7.24148108794e-05,0.827875071753,-1.80147788063e-05,1.49233252634e-05,-2.76490845063e-06,0.999999999723
831000000,83,831000000,world,8.35218846677e-05,-7.39722916149e-05,0.842534626372,-1.84812151183e-05,1.55854228637e-05,-2.76189648576e-06,0.999999999704
841000000,84,841000000,world,8.72697948624e-05,-7.55974575462e-05,0.85759908116,-1.88921152803e-05,1.6208440459e-05,-2.75942500676e-06,0.999999999686
851000000,85,851000000,world,9.09689841684e-05,-7.72869651685e-05,0.873050063327,-1.92848036016e-05,1.67949980521e-05,-2.75751604335e-06,0.999999999669
861000000,86,861000000,world,9.46215871801e-05,-7.90349601967e-05,0.888850684199,-1.96387586643e-05,1.73913817655e-05,-2.75576225805e-06,0.999999999652
871000000,87,871000000,world,9.82708992776e-05,-8.09141381661e-05,0.904959661636,-1.99215305555e-05,1.79485065907e-05,-2.75422718314e-06,0.999999999637
881000000,88,881000000,world,0.000101886365375,-8.28413088575e-05,0.921337945708,-2.01313865215e-05,1.84663563817e-05,-2.75278495159e-06,0.999999999623
891000000,89,891000000,world,0.000105469103541,-8.47992284699e-05,0.937948584171,-2.02695755632e-05,1.89476235181e-05,-2.75114594131e-06,0.999999999611
901000000,90,901000000,world,0.000109168162619,-8.66562713622e-05,0.954756596346,-2.03494271342e-05,1.94021416925e-05,-2.7497607443e-06,0.999999999601
911000000,91,911000000,world,0.000113047501864,-8.83560182592e-05,0.971728855582,-2.04147018612e-05,1.98331435843e-05,-2.74886234184e-06,0.999999999591
921000000,92,921000000,world,0.000116889365342,-9.00846270359e-05,0.988833979478,-2.04514126443e-05,2.02488823558e-05,-2.74819524655e-06,0.999999999582
931000000,93,931000000,world,0.000120697496706,-9.18368509033e-05,1.00604220541,-2.04372703004e-05,2.06441991821e-05,-2.74760373965e-06,0.999999999574
941000000,94,941000000,world,0.000124477225085,-9.36076129037e-05,1.02332442948,-2.03659252229e-05,2.09895175498e-05,-2.74715645591e-06,0.999999999569
951000000,95,951000000,world,0.000128325637334,-9.53318184224e-05,1.04065192576,-2.02360020858e-05,2.13019463924e-05,-2.74671058796e-06,0.999999999565
961000000,96,961000000,world,0.000132359845413,-9.69317715787e-05,1.05799739601,-2.00560747655e-05,2.15955417073e-05,-2.74611298245e-06,0.999999999562
971000000,97,971000000,world,0.000136361979304,-9.85481549966e-05,1.07533495942,-1.98095231757e-05,2.1843069104e-05,-2.74572818069e-06,0.999999999561
981000000,98,981000000,world,0.000140335318299,-0.000100178745896,1.0926400703,-1.9526124716e-05,2.2044278318e-05,-2.74569518171e-06,0.999999999563
991000000,99,991000000,world,0.000144311802064,-0.000101807835843,1.10988944111,-1.92132592703e-05,2.2224241226e-05,-2.74585212571e-06,0.999999999565
1001000000,100,1001000000,world,0.00014851409638,-0.000103334331605,1.12706097035,-1.88686761664e-05,2.24177733476e-05,-2.74604747316e-06,0.999999999567
1011000000,101,1011000000,world,0.000152683639774,-0.000104872488744,1.14413367513,-1.8475294453e-05,2.25571850821e-05,-2.74633857212e-06,0.999999999571
1021000000,102,1021000000,world,0.000156914595661,-0.000106405930201,1.1610876279,-1.8031105106e-05,2.2657333758e-05,-2.74667776904e-06,0.999999999577
1031000000,103,1031000000,world,0.00016124725434,-0.000107926476599,1.17790389717,-1.75328489291e-05,2.27253671738e-05,-2.74692668583e-06,0.999999999584
1041000000,104,1041000000,world,0.000165542391845,-0.000109453591713,1.19456449202,-1.69725323569e-05,2.27466245429e-05,-2.74713823683e-06,0.999999999593
1051000000,105,1051000000,world,0.000169802908008,-0.000110985374393,1.21105254819,-1.6361252226e-05,2.27199276352e-05,-2.7475870778e-06,0.999999999604
1061000000,106,1061000000,world,0.000174032584698,-0.000112519979427,1.22735565187,-1.57155112754e-05,2.26491642725e-05,-2.7482760468e-06,0.999999999616
1071000000,107,1071000000,world,0.000178235285622,-0.000114055186043,1.24346472103,-1.5035474873e-05,2.25607408928e-05,-2.74906694016e-06,0.999999999629
1081000000,108,1081000000,world,0.000182520884839,-0.000115615972369,1.25937114463,-1.43125952307e-05,2.24604298721e-05,-2.74988044101e-06,0.999999999642
1091000000,109,1091000000,world,0.000186851978658,-0.000117189320889,1.27506669384,-1.35473945439e-05,2.23097298763e-05,-2.7507684211e-06,0.999999999656
1101000000,110,1101000000,world,0.000191159841813,-0.00011875456519,1.29054350373,-1.2739823004e-05,2.21061437439e-05,-2.75168835032e-06,0.999999999671
1111000000,111,1111000000,world,0.000195506874596,-0.000120337416937,1.30579405581,-1.18826065163e-05,2.18588939049e-05,-2.75254092157e-06,0.999999999687
1121000000,112,1121000000,world,0.000200006567559,-0.000122014324713,1.32081116153,-1.09620128582e-05,2.15825508661e-05,-2.75333996637e-06,0.999999999703
1131000000,113,1131000000,world,0.000204479760468,-0.000123670964125,1.33558848801,-9.99101701434e-06,2.12582165486e-05,-2.75431634593e-06,0.99999999972
1141000000,114,1141000000,world,0.000208912145535,-0.000125373885008,1.35012824799,-8.97919302183e-06,2.0887571867e-05,-2.75551619431e-06,0.999999999738
1151000000,115,1151000000,world,0.000213299924137,-0.00012714952513,1.36443890169,-7.92486156729e-06,2.04886928128e-05,-2.75684712781e-06,0.999999999755
1161000000,116,1161000000,world,0.000217672770966,-0.000128891970581,1.37852877484,-6.83799967685e-06,2.00783883188e-05,-2.75819100457e-06,0.999999999771
1171000000,117,1171000000,world,0.000222035931201,-0.000130600623733,1.39240590966,-5.72023812154e-06,1.96073469918e-05,-2.75959344309e-06,0.999999999788
1181000000,118,1181000000,world,0.000226393476386,-0.000132275878822,1.40607807287,-4.57032553043e-06,1.9075655501e-05,-2.76104564831e-06,0.999999999804
1191000000,119,1191000000,world,0.000230749122024,-0.000133918854559,1.41955276351,-3.38226487519e-06,1.8485983295e-05,-2.76245901012e-06,0.99999999982
1201000000,120,1201000000,world,0.000235149569886,-0.000135686447477,1.43283722058,-2.13414697535e-06,1.78476240561e-05,-2.76377243202e-06,0.999999999835
1211000000,121,1211000000,world,0.000239562514825,-0.00013745435524,1.44593843065,-8.28480872923e-07,1.71602037295e-05,-2.76523739363e-06,0.999999999849
1221000000,122,1221000000,world,0.000243965919057,-0.000139348569348,1.45886313534,5.27608618409e-07,1.64263587918e-05,-2.76697259575e-06,0.999999999861
1231000000,123,1231000000,world,0.000248345361279,-0.000141570702167,1.47161783868,1.95186588156e-06,1.56659842369e-05,-2.7688999817e-06,0.999999999872
1241000000,124,1241000000,world,0.000252733926388,-0.000143726768675,1.48420881437,3.39998532152e-06,1.4904751971e-05,-2.7708521957e-06,0.999999999879
1251000000,125,1251000000,world,0.000257134745871,-0.000145816972501,1.49664223187,4.8662249529e-06,1.40819059545e-05,-2.77286805324e-06,0.999999999885
1261000000,126,1261000000,world,0.000261549423831,-0.000147843594909,1.50892687227,6.35059265078e-06,1.31932855923e-05,-2.77494544976e-06,0.999999999889
1271000000,127,1271000000,world,0.00026597894871,-0.000149810472669,1.52107403171,7.85926910519e-06,1.22415822369e-05,-2.7769798229e-06,0.99999999989
1281000000,128,1281000000,world,0.000270351273935,-0.000151862149226,1.53309475203,9.41657820822e-06,1.12261444761e-05,-2.77890367624e-06,0.999999999889
1291000000,129,1291000000,world,0.000274672720154,-0.000153992946623,1.54499970976,1.10312111208e-05,1.0153994773e-05,-2.78102383477e-06,0.999999999884
1301000000,130,1301000000,world,0.000278985965241,-0.000156165121986,1.55679922527,1.26776292034e-05,9.03930861066e-06,-2.78344789916e-06,0.999999999875
1311000000,131,1311000000,world,0.000283197588026,-0.000158668953291,1.56850327197,1.43830126796e-05,7.90754898124e-06,-2.78606430265e-06,0.999999999861
1321000000,132,1321000000,world,0.000287442747085,-0.000161096522197,1.5801214855,1.60963790673e-05,6.77397255093e-06,-2.78870742665e-06,0.999999999844
1331000000,133,1331000000,world,0.000291723032731,-0.000163452316407,1.59166317288,1.78111310926e-05,5.57319475154e-06,-2.79144508557e-06,0.999999999822
1341000000,134,1341000000,world,0.000296038032825,-0.00016574276761,1.6031374494,1.9528959809e-05,4.2813870927e-06,-2.79391531579e-06,0.999999999796
1351000000,135,1351000000,world,0.000300387038494,-0.00016797574272,1.61455432849,2.12580645497e-05,2.84290979039e-06,-2.79519223214e-06,0.999999999766
1361000000,136,1361000000,world,0.000304424089612,-0.000170824597467,1.62592414542,2.30865373635e-05,1.23441407165e-06,-2.79539277397e-06,0.999999999729
1371000000,137,1371000000,world,0.000308472114909,-0.000173666927027,1.63725689093,2.49382554949e-05,-4.94693922558e-07,-2.79487180907e-06,0.999999999685
1381000000,138,1381000000,world,0.000312568683916,-0.0001764317378,1.64856221413,2.67896960729e-05,-2.30829611493e-06,-2.79364596529e-06,0.999999999635
1391000000,139,1391000000,world,0.000316369723673,-0.000179183986256,1.65984943216,2.86419167534e-05,-4.18633664156e-06,-2.79154034962e-06,0.999999999577
1401000000,140,1401000000,world,0.000317262367521,-0.000182937045593,1.67112753904,3.05886303265e-05,-6.472458189e-06,-2.78862426034e-06,0.999999999507
1411000000,141,1411000000,world,0.00031839498058,-0.000186571868049,1.68240521634,3.25061669354e-05,-8.86606879173e-06,-2.78490604962e-06,0.999999999428
1421000000,142,1421000000,world,0.000319869124924,-0.000190167115274,1.69369084116,3.4406477433e-05,-1.13405609834e-05,-2.78027423421e-06,0.99999999934
1431000000,143,1431000000,world,0.000321791512468,-0.000193871398487,1.70499249584,3.63184531493e-05,-1.38548559852e-05,-2.77467004277e-06,0.999999999241
1441000000,144,1441000000,world,0.000323960566463,-0.000197458895687,1.71631797686,3.82222957202e-05,-1.64006925639e-05,-2.76853123258e-06,0.999999999131
1451000000,145,1451000000,world,0.000326362528234,-0.000200943328397,1.72767409031,3.99923459472e-05,-1.88446632529e-05,-2.76198145017e-06,0.999999999019
1461000000,146,1461000000,world,0.000328977550496,-0.000204340618838,1.73906409979,4.15060930591e-05,-2.10080636538e-05,-2.75483739368e-06,0.999999998914
1471000000,147,1471000000,world,0.000331788034976,-0.00020766542553,1.7504902006,4.27612942164e-05,-2.29645957123e-05,-2.7470273449e-06,0.999999998818
1481000000,148,1481000000,world,0.00033455740866,-0.000211294018075,1.76195450422,4.380561155e-05,-2.47919906199e-05,-2.73865317621e-06,0.999999998729
1491000000,149,1491000000,world,0.000337176078241,-0.00021538685611,1.77345904149,4.46733382353e-05,-2.64962936564e-05,-2.72961404482e-06,0.999999998647
1501000000,150,1501000000,world,0.000342590878457,-0.000216904013033,1.78500576599,4.50703624807e-05,-2.77507214032e-05,-2.7197074023e-06,0.999999998596
1511000000,151,1511000000,world,0.000350559952921,-0.000216065403302,1.79659655603,4.50300872005e-05,-2.85812717189e-05,-2.7093567671e-06,0.999999998574
1521000000,152,1521000000,world,0.000358317181464,-0.000215482793745,1.80823321751,4.47995240314e-05,-2.92931427195e-05,-2.69881993922e-06,0.999999998564
1531000000,153,1531000000,world,0.000365809526604,-0.000215198554243,1.81991603959,4.43917007007e-05,-2.98726545082e-05,-2.68793000965e-06,0.999999998565
1541000000,154,1541000000,world,0.000372432831374,-0.000215711368267,1.83163948973,4.38958848942e-05,-3.04131145052e-05,-2.67657356327e-06,0.999999998571
1551000000,155,1551000000,world,0.000377475008064,-0.000217609730437,1.8433968532,4.33985269016e-05,-3.1045646426e-05,-2.66486889447e-06,0.999999998573
1561000000,156,1561000000,world,0.000382299267939,-0.000219757100516,1.85518169986,4.28010549095e-05,-3.16300575973e-05,-2.65270064181e-06,0.99999999858
1571000000,157,1571000000,world,0.000386914443097,-0.00022214145126,1.86698787091,4.2111849659e-05,-3.21653255639e-05,-2.63990490876e-06,0.999999998593
1581000000,158,1581000000,world,0.000391330666119,-0.000224749551009,1.87880946683,4.1335231046e-05,-3.26524495624e-05,-2.62682132657e-06,0.999999998609
1591000000,159,1591000000,world,0.000395558997169,-0.000227568118335,1.89064083589,4.04418446319e-05,-3.30930008849e-05,-2.61369181329e-06,0.999999998631
1601000000,160,1601000000,world,0.000398605042588,-0.000231438240378,1.90247656295,3.9513699233e-05,-3.35696224064e-05,-2.60041082864e-06,0.999999998652
1611000000,161,1611000000,world,0.000401545907527,-0.000235437346311,1.9143114595,3.84825191972e-05,-3.39597250989e-05,-2.58678217811e-06,0.99999999868
1621000000,162,1621000000,world,0.000404402055888,-0.000239543506442,1.92614055322,3.73677605974e-05,-3.43195309039e-05,-2.57289523512e-06,0.99999999871
1631000000,163,1631000000,world,0.000406744494355,-0.000243956327892,1.93795907868,3.62040177466e-05,-3.46911377884e-05,-2.55871058414e-06,0.99999999874
1641000000,164,1641000000,world,0.0004088703352,-0.000248571111041,1.94976246835,3.49866723145e-05,-3.50376889441e-05,-2.54405719395e-06,0.999999998771
1651000000,165,1651000000,world,0.000410990063697,-0.000253222833332,1.96154564642,3.36935014046e-05,-3.53324646036e-05,-2.52909749603e-06,0.999999998805
1661000000,166,1661000000,world,0.000413114468413,-0.000257899268616,1.97330095066,3.2295053347e-05,-3.55740094761e-05,-2.5141682808e-06,0.999999998843
1671000000,167,1671000000,world,0.000414907801955,-0.000262653870128,1.98502036744,3.0775704942e-05,-3.57877032854e-05,-2.4992272678e-06,0.999999998883
1681000000,168,1681000000,world,0.000416652531848,-0.000267427206083,1.99669622939,2.91468319205e-05,-3.59077423254e-05,-2.48406876272e-06,0.999999998927
1691000000,169,1691000000,world,0.000418442451706,-0.000272195790057,2.00832119924,2.74407233542e-05,-3.59733100716e-05,-2.4687145498e-06,0.999999998973
1701000000,170,1701000000,world,0.000420192268081,-0.000276945135953,2.01988825465,2.56675775577e-05,-3.59984649397e-05,-2.45318802686e-06,0.99999999902
1711000000,171,1711000000,world,0.000421653908187,-0.000281628959957,2.03139067366,2.38361007949e-05,-3.60028358812e-05,-2.43737029422e-06,0.999999999065
1721000000,172,1721000000,world,0.000423184146184,-0.00028630222381,2.04282202113,2.19392922227e-05,-3.59442235712e-05,-2.42119696572e-06,0.99999999911
1731000000,173,1731000000,world,0.000424781483859,-0.000290964970099,2.05417605788,1.99534817053e-05,-3.58338838254e-05,-2.40502188097e-06,0.999999999156
1741000000,174,1741000000,world,0.000426441956816,-0.000295618018459,2.06544654417,1.78397117346e-05,-3.5679595114e-05,-2.38894568186e-06,0.999999999202
1751000000,175,1751000000,world,0.000427844764737,-0.00030015612359,2.07662744909,1.55805883985e-05,-3.54942170376e-05,-2.37283140161e-06,0.999999999246
1761000000,176,1761000000,world,0.000429239033904,-0.000304664240023,2.08771299738,1.3230027913e-05,-3.52426521618e-05,-2.35655060335e-06,0.999999999289
1771000000,177,1771000000,world,0.000430701621048,-0.000309169728212,2.09869765796,1.08163978031e-05,-3.4951456601e-05,-2.34017685027e-06,0.999999999328
1781000000,178,1781000000,world,0.000432226041207,-0.00031367265677,2.10957613295,8.35375688381e-06,-3.46128620237e-05,-2.32366574191e-06,0.999999999363
1791000000,179,1791000000,world,0.000433804647852,-0.000318172798103,2.12034334729,5.84661558108e-06,-3.42225907237e-05,-2.30687915022e-06,0.999999999395
1801000000,180,1801000000,world,0.000434559925078,-0.000321828086043,2.13099443879,3.19167950084e-06,-3.38744955399e-05,-2.28993328078e-06,0.999999999419
1811000000,181,1811000000,world,0.000435405271145,-0.000325530806834,2.14152474887,4.55777514505e-07,-3.34734256221e-05,-2.27310605379e-06,0.999999999437
1821000000,182,1821000000,world,0.000436339043245,-0.000329286663694,2.15192981344,-2.38408674151e-06,-3.30189896263e-05,-2.25639377691e-06,0.999999999449
1831000000,183,1831000000,world,0.000437215641543,-0.000332726206644,2.16220535436,-5.35673761868e-06,-3.24997259809e-05,-2.2396427916e-06,0.999999999455
1841000000,184,1841000000,world,0.000438162723715,-0.00033620006345,2.17234727142,-8.36699615861e-06,-3.19114520181e-05,-2.22279169794e-06,0.999999999453
1851000000,185,1851000000,world,0.000439190379407,-0.000339750124661,2.18235150241,-1.13893200686e-05,-3.12673266025e-05,-2.20589631024e-06,0.999999999444
1861000000,186,1861000000,world,0.00044029082061,-0.00034337307239,2.19221317025,-1.44078426388e-05,-3.0559240933e-05,-2.18889090339e-06,0.999999999427
1871000000,187,1871000000,world,0.000441455503387,-0.000347063677422,2.20192716925,-1.7428975659e-05,-2.97847891179e-05,-2.17164637668e-06,0.999999999402
1881000000,188,1881000000,world,0.000442675527542,-0.000350815064895,2.21148860711,-2.04720449314e-05,-2.89503023125e-05,-2.15433025908e-06,0.999999999369
1891000000,189,1891000000,world,0.000443942034702,-0.000354619151492,2.22089279698,-2.35662731442e-05,-2.80633026503e-05,-2.13717773404e-06,0.999999999326
1901000000,190,1901000000,world,0.000445246348494,-0.000358466683371,2.23013524833,-2.67342659752e-05,-2.71305754495e-05,-2.12015238548e-06,0.999999999272
1911000000,191,1911000000,world,0.000446579499,-0.000362346623138,2.23921165828,-2.99594023712e-05,-2.61287074983e-05,-2.10309623057e-06,0.999999999208
1921000000,192,1921000000,world,0.000447893911693,-0.000365951712868,2.24811798974,-3.3217824562e-05,-2.50287388089e-05,-2.08546620114e-06,0.999999999133
1931000000,193,1931000000,world,0.000449155703807,-0.000369151048037,2.25685604564,-3.65057227472e-05,-2.33432631497e-05,-2.06095343396e-06,0.999999999059
1941000000,194,1941000000,world,0.000450415964383,-0.000372391708097,2.26543651777,-3.97596652176e-05,-2.09286050859e-05,-2.02788916511e-06,0.999999998989
1951000000,195,1951000000,world,0.000451514357011,-0.000374068510209,2.27387052757,-4.31523634957e-05,-1.78179829769e-05,-1.98649183724e-06,0.999999998908
1961000000,196,1961000000,world,0.000461713033529,-0.000375266237555,2.2821688309,-4.6591639342e-05,-1.30764717122e-05,-1.93747778939e-06,0.999999998827
1971000000,197,1971000000,world,0.000484702038639,-0.000375850508458,2.29034182601,-5.01166803402e-05,-6.41665677567e-06,-1.88146228902e-06,0.999999998722
1981000000,198,1981000000,world,0.000508927252946,-0.000376544999005,2.29839956323,-5.36684753738e-05,7.62273632083e-07,-1.8182994078e-06,0.999999998558
1991000000,199,1991000000,world,0.000537487445805,-0.000377228593212,2.30635175442,-5.72241964139e-05,8.6997447393e-06,-1.74820781147e-06,0.999999998323
2001000000,200,2001000000,world,0.000563840729757,-0.000378128149002,2.31420778201,-6.06932318612e-05,1.6775712963e-05,-1.67115765847e-06,0.999999998016
2011000000,201,2011000000,world,0.000587908047229,-0.000379229884927,2.32197670778,-6.40557250476e-05,2.49428147985e-05,-1.58741485761e-06,0.999999997636
2021000000,202,2021000000,world,0.000609683633118,-0.000380514556628,2.32966728177,-6.72953301333e-05,3.31352191862e-05,-1.49710213751e-06,0.999999997186
2031000000,203,2031000000,world,0.000622552480881,-0.000381694840168,2.33728795184,-7.04623323303e-05,4.05352386721e-05,-1.39972755678e-06,0.999999996695
2041000000,204,2041000000,world,0.000623925790905,-0.000382638600681,2.34484687169,-7.3584239527e-05,4.67614381198e-05,-1.295600628e-06,0.999999996199
2051000000,205,2051000000,world,0.0006243383717,-0.000383732475973,2.35235137084,-7.66516021734e-05,5.28683504212e-05,-1.18601541794e-06,0.999999995664
2061000000,206,2061000000,world,0.000624049674695,-0.000384953354731,2.35980289943,-7.9673434694e-05,5.88089379828e-05,-1.07105667657e-06,0.999999995096
2071000000,207,2071000000,world,0.000623280466271,-0.000386274516224,2.36719958676,-8.25907809259e-05,6.46947708672e-05,-9.50824426415e-07,0.999999994496
2081000000,208,2081000000,world,0.000622220505207,-0.000387668631972,2.37453960002,-8.53723727627e-05,7.05923233227e-05,-8.25624908052e-07,0.999999993864
2091000000,209,2091000000,world,0.000622792758403,-0.000387939166454,2.3818211796,-8.8130320423e-05,7.67176534426e-05,-6.95429380594e-07,0.999999993173
2101000000,210,2101000000,world,0.000623455935962,-0.000388173204692,2.3890426375,-9.07487466386e-05,8.28931485635e-05,-5.60467060532e-07,0.999999992447
2111000000,211,2111000000,world,0.000626959238022,-0.00038682436645,2.39620235207,-9.3403380902e-05,8.93471077967e-05,-4.2086812316e-07,0.999999991646
2121000000,212,2121000000,world,0.000631286932504,-0.000384944513374,2.40329876799,-9.60045841453e-05,9.58007301613e-05,-2.7723008331e-07,0.999999990803
2131000000,213,2131000000,world,0.000635499269661,-0.000383267228581,2.41033153135,-9.84941715839e-05,0.000102068527955,-1.29804182681e-07,0.99999998994
2141000000,214,2141000000,world,0.000639634062871,-0.000381782406737,2.41730488726,-0.000100844004193,0.000108149205964,2.14476380463e-08,0.999999989067
2151000000,215,2151000000,world,0.000643727522481,-0.000380471477187,2.42422404548,-0.00010299717882,0.000114138808546,1.76367285107e-07,0.999999988182
2161000000,216,2161000000,world,0.000648000500689,-0.000379078710174,2.43109402516,-0.000104962964958,0.00012007445634,3.34826989381e-07,0.999999987282
2171000000,217,2171000000,world,0.000652475107092,-0.000377597436166,2.43791966142,-0.000106726470943,0.000125953112233,4.96803503924e-07,0.999999986373
2181000000,218,2181000000,world,0.000656996953827,-0.00037624261868,2.44470561172,-0.000108276640405,0.000131711867637,6.62225079426e-07,0.999999985464
2191000000,219,2191000000,world,0.000661598905627,-0.00037498756909,2.45145636167,-0.000109619038027,0.000137290558409,8.30617065435e-07,0.999999984567
2201000000,220,2201000000,world,0.000667344076699,-0.000372851833975,2.45817623051,-0.000110882307967,0.000142743709632,1.00189176812e-06,0.999999983664
2211000000,221,2211000000,world,0.000673841755817,-0.00037019680965,2.46486937812,-0.00011202551213,0.000147970418985,1.17603523802e-06,0.999999982777
2221000000,222,2221000000,world,0.000680398747119,-0.000367658209442,2.47153981001,-0.000112935437355,0.000152979686307,1.35295451993e-06,0.99999998192
2231000000,223,2231000000,world,0.00068817924333,-0.000364355474944,2.47819138159,-0.000113683388863,0.000157914218014,1.53254992157e-06,0.999999981068
2241000000,224,2241000000,world,0.00069710664395,-0.00036033914787,2.484827805,-0.000114248040534,0.000162762920621,1.71477892876e-06,0.999999980226
2251000000,225,2251000000,world,0.000706006441912,-0.000356483999271,2.49145252446,-0.000114532530769,0.000167372586815,1.89962785993e-06,0.999999979433
2261000000,226,2261000000,world,0.000714887945143,-0.000352776178337,2.49806577479,-0.000114526957997,0.000171684731885,2.08678108361e-06,0.999999978702
2271000000,227,2271000000,world,0.00072386616633,-0.000349212412709,2.50466473679,-0.000114249356543,0.000175667799795,2.27583239286e-06,0.999999978041
2281000000,228,2281000000,world,0.000733244750887,-0.000345812000965,2.51124657993,-0.00011370281821,0.000179307392153,2.46670113989e-06,0.999999977457
2291000000,229,2291000000,world,0.000742634414035,-0.000342491432256,2.5178085889,-0.000112877111157,0.000182609347714,2.65961360439e-06,0.999999976953
2301000000,230,2301000000,world,0.000752057863042,-0.000339225134423,2.5243481584,-0.000111763830098,0.000185585348919,2.85443460064e-06,0.999999976529
2311000000,231,2311000000,world,0.000762791444427,-0.000335477374113,2.53086278797,-0.000110416545121,0.000188367091297,3.05101665751e-06,0.999999976158
2321000000,232,2321000000,world,0.000773842009608,-0.000331598993519,2.53735007941,-0.000108792352687,0.000190836707564,3.2495239718e-06,0.999999975868
2331000000,233,2331000000,world,0.000784903553598,-0.000327747329941,2.54380767171,-0.000106856438457,0.000192929131735,3.44986596769e-06,0.999999975674
2341000000,234,2341000000,world,0.000795995404227,-0.000323905219521,2.55023189057,-0.000104608230253,0.000194620732158,3.65159903761e-06,0.999999975583
2351000000,235,2351000000,world,0.000807794067331,-0.000319909310833,2.55661781977,-0.000102076442388,0.000195968012774,3.85453866033e-06,0.999999975581
2361000000,236,2361000000,world,0.000820267437658,-0.000315756046929,2.56296069076,-9.92580222605e-05,0.000196996785888,4.05881702453e-06,0.999999975662
2371000000,237,2371000000,world,0.000833159670623,-0.000311644050244,2.56925593357,-9.61466194483e-05,0.00019767029929,4.2644002517e-06,0.999999975832
2381000000,238,2381000000,world,0.000846650483392,-0.000307586075066,2.57549916775,-9.27485996887e-05,0.000197973724614,4.47112935543e-06,0.999999976092
2391000000,239,2391000000,world,0.000860132637783,-0.000303478344763,2.58168619468,-8.90761580248e-05,0.00019783446458,4.67924381896e-06,0.999999976453
2401000000,240,2401000000,world,0.000873621728578,-0.00029930985098,2.58781298904,-8.51143195232e-05,0.000197243743543,4.88882346911e-06,0.999999976913
2411000000,241,2411000000,world,0.00088713704732,-0.000295070904313,2.59387569169,-8.08252367049e-05,0.000196199823267,5.09951070472e-06,0.999999977473
2421000000,242,2421000000,world,0.000900700183481,-0.000290754940355,2.59987060238,-7.62234404701e-05,0.000194712062975,5.31106821878e-06,0.999999978124
2431000000,243,2431000000,world,0.000914332833379,-0.000286356830181,2.60579417304,-7.13021762803e-05,0.000192828514833,5.52354584555e-06,0.999999978851
2441000000,244,2441000000,world,0.000928057120891,-0.000281874351972,2.61164300119,-6.60929547155e-05,0.000190569333326,5.7370661736e-06,0.999999979641
2451000000,245,2451000000,world,0.000941897511788,-0.000277307499979,2.61741382386,-6.06328803623e-05,0.000187831113353,5.95154376393e-06,0.999999980504
2461000000,246,2461000000,world,0.000956350377906,-0.000273332741869,2.62310354626,-5.48605600495e-05,0.000184648605303,6.16649987418e-06,0.999999981429
2471000000,247,2471000000,world,0.000970974066049,-0.000269865279868,2.62870938966,-4.87854456198e-05,0.000180969752066,6.38218697012e-06,0.999999982415
2481000000,248,2481000000,world,0.00098571638986,-0.000267499804764,2.63422875079,-4.22941905184e-05,0.000176811086535,6.59825167013e-06,0.999999983453
2491000000,249,2491000000,world,0.00100042141094,-0.000265216714238,2.63965913185,-3.5473185017e-05,0.00017218439081,6.81486413427e-06,0.999999984524
2501000000,250,2501000000,world,0.00101502363057,-0.000263139870744,2.64499813636,-2.83149405079e-05,0.000167136962406,7.03190574497e-06,0.999999985607
2511000000,251,2511000000,world,0.00102982370743,-0.000260761387467,2.65024346465,-2.08798761314e-05,0.000161802573264,7.24968582531e-06,0.999999986666
2521000000,252,2521000000,world,0.00104483473874,-0.00025808646357,2.65539291026,-1.32551485637e-05,0.000156060378815,7.46827255081e-06,0.999999987707
2531000000,253,2531000000,world,0.00106006682179,-0.000255127427008,2.66044483493,-5.47666678405e-06,0.000149804407912,7.68758065498e-06,0.999999988735
2541000000,254,2541000000,world,0.00107552525164,-0.000251902226413,2.66540027509,2.44399877077e-06,0.000143021822541,7.90764260128e-06,0.999999989738
2551000000,255,2551000000,world,0.00109097834841,-0.000248906736237,2.67026108976,1.05824348394e-05,0.000135700276794,8.12837871406e-06,0.999999990704
2561000000,256,2561000000,world,0.00110576209051,-0.000247510110929,2.67502906698,1.91559474722e-05,0.000127829794567,8.34898991895e-06,0.999999991611
2571000000,257,2571000000,world,0.00112084012977,-0.000245778627112,2.67970592577,2.79647177276e-05,0.000119570973259,8.57000052678e-06,0.999999992424
2581000000,258,2581000000,world,0.00113621233553,-0.000243726540594,2.68429331969,3.70216701996e-05,0.000111045003992,8.79142212323e-06,0.999999993111
2591000000,259,2591000000,world,0.00112983320607,-0.000266036510849,2.68879284225,4.88913995441e-05,0.000100081671508,9.00503676946e-06,0.999999993756
2601000000,260,2601000000,world,0.00112268356944,-0.000289265318486,2.69320601704,6.09022455672e-05,8.86030463892e-05,9.21885096792e-06,0.999999994178
2611000000,261,2611000000,world,0.00111747004949,-0.000310408308675,2.69753435546,7.26354026287e-05,7.68797770208e-05,9.43377488095e-06,0.999999994362
2621000000,262,2621000000,world,0.0011142965094,-0.00032936893309,2.7017795351,8.40198002792e-05,6.49717511667e-05,9.64991209104e-06,0.999999994313
2631000000,263,2631000000,world,0.00110317272237,-0.000355946689766,2.70594324248,9.60862574628e-05,5.1942457933e-05,9.86380079099e-06,0.999999993986
2641000000,264,2641000000,world,0.0010947096816,-0.000379762410356,2.71002709982,0.00010778022223,3.90911678332e-05,1.00788108268e-05,0.999999993377
2651000000,265,2651000000,world,0.00108892191873,-0.000400825422916,2.71403266771,0.00011903296084,2.65853667523e-05,1.02947680327e-05,0.999999992509
2661000000,266,2661000000,world,0.00108575363282,-0.000419213543042,2.71796144682,0.000129801685859,1.46549282616e-05,1.05117625321e-05,0.999999991413
2671000000,267,2671000000,world,0.0010840326419,-0.000435279685891,2.72181488012,0.00013993019765,3.0584294946e-06,1.07294516334e-05,0.999999990148
2681000000,268,2681000000,world,0.00108058103646,-0.000449816479001,2.72559435471,0.000149382342879,-8.72479762538e-06,1.09464758505e-05,0.999999988744
2691000000,269,2691000000,world,0.00107967306601,-0.00046210942641,2.72930120477,0.000158037197563,-2.02215290419e-05,1.11644543834e-05,0.999999987245
2701000000,270,2701000000,world,0.00108099699396,-0.000472003187919,2.73293671302,0.000165883574216,-3.13962058401e-05,1.13833044868e-05,0.999999985684
2711000000,271,2711000000,world,0.00108391471336,-0.000478697284216,2.73650211296,0.000172898143543,-4.2178223229e-05,1.16024924141e-05,0.999999984096
2721000000,272,2721000000,world,0.00108890638317,-0.000483889541581,2.73999858961,0.000179227972369,-5.24097829825e-05,1.18221326709e-05,0.999999982495
2731000000,273,2731000000,world,0.001095773148,-0.000487810083603,2.74342728272,0.00018487629582,-6.19750383458e-05,1.20421536691e-05,0.999999980917
2741000000,274,2741000000,world,0.00110430997619,-0.000490678192281,2.74678928797,0.000189819899927,-7.07983049382e-05,1.22626505457e-05,0.999999979403
2751000000,275,2751000000,world,0.00111431910608,-0.000492700533201,2.75008576868,0.000193997445282,-7.91326103444e-05,1.24834952471e-05,0.999999977974
2761000000,276,2761000000,world,0.00112537823059,-0.000492606782959,2.75331828631,0.000197265431758,-8.70783154931e-05,1.27040333841e-05,0.999999976671
2771000000,277,2771000000,world,0.00113720511114,-0.000489981160117,2.75648845003,0.000199601801719,-9.46480287608e-05,1.29240951241e-05,0.999999975517
2781000000,278,2781000000,world,0.00114996954522,-0.000487256995367,2.75959780603,0.000201299856831,-0.000101765574359,1.31445639877e-05,0.999999974475
2791000000,279,2791000000,world,0.00116710324287,-0.000483103499415,2.76264784538,0.000202230662178,-0.000107995789667,1.33664965613e-05,0.999999973631
2801000000,280,2801000000,world,0.00120448702327,-0.000466191668596,2.76564000218,0.000201202390217,-0.000111663825531,1.35953261783e-05,0.999999973432
2811000000,281,2811000000,world,0.00124089267708,-0.000450480289103,2.76857573308,0.000199700965248,-0.000115014052698,1.38233860568e-05,0.99999997335
2821000000,282,2821000000,world,0.0012760128907,-0.000436171872075,2.77145735263,0.000197795477007,-0.000118166261406,1.40508823868e-05,0.999999973358
2831000000,283,2831000000,world,0.00130636734824,-0.000426267124988,2.77428761776,0.000195860349218,-0.000121635766894,1.42767105015e-05,0.99999997332
2841000000,284,2841000000,world,0.00133138170529,-0.000421997811575,2.77706918879,0.000194063894463,-0.000125523156563,1.45008807447e-05,0.999999973186
2851000000,285,2851000000,world,0.00135513582526,-0.000418915763373,2.77980462872,0.000191961532356,-0.000129419214206,1.47246540273e-05,0.999999973092
2861000000,286,2861000000,world,0.00137764212472,-0.000416969848201,2.78249640068,0.000189546887487,-0.000133312034819,1.49479617997e-05,0.999999973038
2871000000,287,2871000000,world,0.00139893130153,-0.000416102015841,2.78514687426,0.000186792782811,-0.000137192395542,1.5170500368e-05,0.999999973028
2881000000,288,2881000000,world,0.00141650032266,-0.00041713868097,2.78775832788,0.000183764754501,-0.000141286197775,1.53914828393e-05,0.999999973016
2891000000,289,2891000000,world,0.00143144452143,-0.000419648576884,2.79033295469,0.000180435030971,-0.000145423937119,1.56115228461e-05,0.999999973026
2901000000,290,2901000000,world,0.00144560594182,-0.000422941201998,2.79287286456,0.000176786404925,-0.000149558188951,1.58312439835e-05,0.999999973064
2911000000,291,2911000000,world,0.00145664531315,-0.000427255297015,2.79538008533,0.000172864445401,-0.000153978418115,1.60498508835e-05,0.999999973075
2921000000,292,2921000000,world,0.00146563349731,-0.000432391823889,2.7978565685,0.000168667259148,-0.000158563654986,1.62678704051e-05,0.999999973072
2931000000,293,2931000000,world,0.00147433210589,-0.000438067775285,2.8003042397,0.000164136070851,-0.000163086884616,1.64860103199e-05,0.999999973095
2941000000,294,2941000000,world,0.00148351221584,-0.000443153836569,2.80272531235,0.000159113784544,-0.000167419281582,1.67040965473e-05,0.999999973187
2951000000,295,2951000000,world,0.00149304999063,-0.000447877447658,2.80512207427,0.000153578232339,-0.000171529008663,1.6921982701e-05,0.999999973353
2961000000,296,2961000000,world,0.00150239092726,-0.000453106982898,2.80749672642,0.000147605256474,-0.000175391827534,1.71397148148e-05,0.999999973578
2971000000,297,2971000000,world,0.00151155378766,-0.000458809805557,2.80985138623,0.0001412801375,-0.00017907737401,1.73574232173e-05,0.999999973835
2981000000,298,2981000000,world,0.00152054923767,-0.000464953455341,2.81218809033,0.000134646395427,-0.000182670592176,1.75750297138e-05,0.999999974096
2991000000,299,2991000000,world,0.00152937838137,-0.000471506090913,2.81450879756,0.000127726412289,-0.000186164372486,1.779261918e-05,0.999999974356
3001000000,300,3001000000,world,0.00153664929296,-0.000477629938451,2.81681539148,0.000120415885859,-0.000189685263698,1.80098290852e-05,0.999999974598
3011000000,301,3011000000,world,0.00154324284819,-0.000483814286401,2.81910968403,0.000112701525276,-0.000193098409093,1.82267520894e-05,0.99999997484
3021000000,302,3021000000,world,0.00154944131471,-0.000490132084235,2.8213934176,0.00010453400975,-0.000196341421587,1.84432394605e-05,0.999999975091
3031000000,303,3031000000,world,0.00155268734896,-0.000494536947634,2.82366826709,9.56578161916e-05,-0.000199610094571,1.86582133609e-05,0.999999975329
3041000000,304,3041000000,world,0.00155605123091,-0.000499446230864,2.8259358442,8.64242297125e-05,-0.000202567699824,1.88732783347e-05,0.99999997557
3051000000,305,3051000000,world,0.00155954400514,-0.000504848951769,2.82819707836,7.69439237298e-05,-0.000205314449648,1.90883475021e-05,0.999999975781
3061000000,306,3061000000,world,0.00156315986254,-0.000510725281681,2.8304503732,6.72519285697e-05,-0.000207842286351,1.93034580171e-05,0.999999975953
3071000000,307,3071000000,world,0.00156633097355,-0.000515756710081,2.83269358933,5.72221652066e-05,-0.000210190289367,1.95183956591e-05,0.999999976082
3081000000,308,3081000000,world,0.00156948153631,-0.00052096824013,2.83492467361,4.6871946549e-05,-0.0002122785097,1.97333837635e-05,0.999999976176
3091000000,309,3091000000,world,0.00157272770517,-0.000526670297023,2.83714165553,3.61769380679e-05,-0.000214071927969,1.99481222868e-05,0.999999976233
3101000000,310,3101000000,world,0.00157603763179,-0.000532833184118,2.83934264371,2.50796325712e-05,-0.000215544938588,2.01625985824e-05,0.999999976252
3111000000,311,3111000000,world,0.00157310846422,-0.000512992607679,2.84152582104,1.0826618904e-05,-0.000217296291995,2.03698290959e-05,0.999999976125
3121000000,312,3121000000,world,0.00156901963209,-0.000488674688758,2.84368944422,-4.03021576498e-06,-0.000218862564264,2.0575784296e-05,0.99999997583
3131000000,313,3131000000,world,0.00156540749217,-0.000466895185077,2.84583207369,-1.8599760841e-05,-0.00022006302512,2.07822882468e-05,0.999999975397
3141000000,314,3141000000,world,0.00156227338347,-0.000447777145469,2.84795301806,-3.27700344365e-05,-0.000220863870798,2.09894928153e-05,0.999999974852
3151000000,315,3151000000,world,0.00156000250484,-0.000421259708644,2.85005173702,-4.76131441767e-05,-0.000221190837018,2.11944376112e-05,0.999999974179
3161000000,316,3161000000,world,0.00155823064905,-0.000395545420635,2.85212771223,-6.22997714006e-05,-0.000221064983729,2.13991687401e-05,0.999999973396
3171000000,317,3171000000,world,0.00155750646732,-0.0003729177103,2.85418044641,-7.65757871223e-05,-0.000220421103979,2.16040025832e-05,0.999999972542
3181000000,318,3181000000,world,0.00155976614424,-0.000352398299672,2.85620946223,-9.04749816979e-05,-0.000219054442119,2.18082124027e-05,0.999999971677
3191000000,319,3191000000,world,0.00156204156903,-0.000335154334129,2.85821429936,-0.00010356776311,-0.000217267366133,2.20131445775e-05,0.999999970792
3201000000,320,3201000000,world,0.00156424773517,-0.000321001737626,2.86019451674,-0.000115721871204,-0.000215071426683,2.22186688718e-05,0.99999996993
3211000000,321,3211000000,world,0.00156631118011,-0.000309719418355,2.86214969065,-0.000126889755113,-0.000212457253719,2.24247991913e-05,0.999999969129
3221000000,322,3221000000,world,0.0015681696859,-0.000301062458902,2.86407941398,-0.000137119088763,-0.000209430811377,2.2631612768e-05,0.999999968412
3231000000,323,3231000000,world,0.00157326743384,-0.000296574229653,2.86598329773,-0.000146301508949,-0.00020565697635,2.28374373484e-05,0.99999996789
3241000000,324,3241000000,world,0.00157845758275,-0.000294516075385,2.86786096429,-0.000154633491696,-0.000201515532532,2.30431408529e-05,0.999999967474
3251000000,325,3251000000,world,0.00158303933682,-0.00029414028382,2.86971192467,-0.000162203352196,-0.000197148984398,2.32489285804e-05,0.999999967141
3261000000,326,3261000000,world,0.0015869657652,-0.000295172470465,2.87153519735,-0.000168914619942,-0.000192538101114,2.34549550368e-05,0.999999966923
3271000000,327,3271000000,world,0.00158472537546,-0.000316784609999,2.87332972041,-0.00017263505076,-0.000188212028232,2.36701197537e-05,0.999999967107
3281000000,328,3281000000,world,0.00157982539612,-0.000346266508435,2.87509446528,-0.0001747710344,-0.000183771991855,2.38885037289e-05,0.999999967556
3291000000,329,3291000000,world,0.00157474594701,-0.000374615472583,2.87682844495,-0.000176353552176,-0.00017894305445,2.41062271923e-05,0.999999968149
3301000000,330,3301000000,world,0.00157049259823,-0.000393369363042,2.87853071098,-0.000178321592258,-0.000173643576968,2.4320185686e-05,0.999999968729
3311000000,331,3311000000,world,0.0015661994734,-0.00041001021896,2.88020035806,-0.000179976050349,-0.000168003692684,2.45327360123e-05,0.999999969391
3321000000,332,3321000000,world,0.00156177883655,-0.000425376522653,2.88183651457,-0.00018128914187,-0.000162091558511,2.47441456027e-05,0.999999970124
3331000000,333,3331000000,world,0.00155750250919,-0.000438708716416,2.88343861024,-0.000182359136148,-0.00015590881631,2.49542984665e-05,0.999999970907
3341000000,334,3341000000,world,0.00155410588229,-0.000447974050282,2.88500717138,-0.000183381578892,-0.000149260364556,2.51622915502e-05,0.99999997173
3351000000,335,3351000000,world,0.00155052978996,-0.000456122233249,2.8865429675,-0.000184050957873,-0.000142202770129,2.53695037368e-05,0.99999997263
3361000000,336,3361000000,world,0.00154676858796,-0.000463207511355,2.88804673739,-0.000184369887659,-0.000134715327814,2.55760801726e-05,0.999999973603
3371000000,337,3371000000,world,0.00154281988573,-0.000469288702564,2.88951919111,-0.000184353510542,-0.000126826141153,2.57822194841e-05,0.999999974632
3381000000,338,3381000000,world,0.00153868392699,-0.000474426759472,2.89096101116,-0.000183999534859,-0.000118605208454,2.5987660077e-05,0.999999975701
3391000000,339,3391000000,world,0.00153582664719,-0.000477649561252,2.89237285342,-0.000183443326649,-0.000109970550444,2.61914718413e-05,0.999999976785
3401000000,340,3401000000,world,0.00153270335117,-0.000480115589616,2.89375534835,-0.000182569207718,-0.000101204878355,2.6394754916e-05,0.999999977865
3411000000,341,3411000000,world,0.00152930672673,-0.000481891975911,2.89510910192,-0.000181358216062,-9.2188643776e-05,2.65977034843e-05,0.999999978952
3421000000,342,3421000000,world,0.00152774121025,-0.000482784535835,2.89643469685,-0.000179830917945,-8.25807697214e-05,2.67994960581e-05,0.999999980062
3431000000,343,3431000000,world,0.00152578108158,-0.00048312013193,2.89773269245,-0.00017795334803,-7.2586035186e-05,2.70010550556e-05,0.999999981167
3441000000,344,3441000000,world,0.00152342273429,-0.00048295080522,2.89900362664,-0.000175718578321,-6.22199909272e-05,2.72025977227e-05,0.999999982256
3451000000,345,3451000000,world,0.00152067424837,-0.00048232188495,2.90024789711,-0.000173095039636,-5.15794491244e-05,2.74040375656e-05,0.999999983313
3461000000,346,3461000000,world,0.00153743583858,-0.000485486613944,2.90146500034,-0.000169643502485,-3.86619058931e-05,2.7599601743e-05,0.999999984482
3471000000,347,3471000000,world,0.00156558640417,-0.000490754509828,2.90265405376,-0.000165558428516,-2.45953205739e-05,2.77917145826e-05,0.999999985607
3481000000,348,3481000000,world,0.00159125942905,-0.00049521275687,2.9038142089,-0.000161168220545,-1.09262979237e-05,2.79843763255e-05,0.999999986561
3491000000,349,3491000000,world,0.00161428921618,-0.000498848509803,2.90494465368,-0.000156519349618,2.54579217005e-06,2.81775746806e-05,0.999999987351
3501000000,350,3501000000,world,0.00163786975664,-0.0005039143354,2.90604460882,-0.000151398255759,1.61543977538e-05,2.83703438388e-05,0.999999988006
3511000000,351,3511000000,world,0.00166332997,-0.000511332166705,2.90711332507,-0.000145730808022,2.99695881439e-05,2.85624506511e-05,0.999999988524
3521000000,352,3521000000,world,0.00168566657104,-0.00051761656157,2.90815008202,-0.00013985960184,4.32849343804e-05,2.87554709567e-05,0.999999988869
3531000000,353,3531000000,world,0.00170495422011,-0.000522765004389,2.90915431189,-0.000133777140932,5.59276042788e-05,2.89490255333e-05,0.999999989069
3541000000,354,3541000000,world,0.0017213276581,-0.000526797902296,2.9101273469,-0.000127507004763,6.7741388381e-05,2.91430087131e-05,0.999999989152
3551000000,355,3551000000,world,0.00173496621899,-0.000529752678109,2.91107189855,-0.000121062355649,7.86030930709e-05,2.93375480511e-05,0.999999989152
3561000000,356,3561000000,world,0.00174782590786,-0.000535246288554,2.9119906103,-0.000114147791626,8.88954075239e-05,2.95310538713e-05,0.999999989098
3571000000,357,3571000000,world,0.00175827249784,-0.000539559723906,2.91288602414,-0.000107209103546,9.84929763094e-05,2.97250450507e-05,0.999999988961
3581000000,358,3581000000,world,0.00176652978283,-0.000542731660224,2.91376058628,-0.000100265589268,0.000107390232202,2.99195211582e-05,0.999999988759
3591000000,359,3591000000,world,0.00177283100323,-0.000544815613594,2.91461664991,-9.3291313554e-05,0.000115537785717,3.01145650153e-05,0.99999998852
3601000000,360,3601000000,world,0.00177384452827,-0.000550282639051,2.91545648052,-8.57749018272e-05,0.000122479631701,3.03079784816e-05,0.999999988361
3611000000,361,3611000000,world,0.00177135701616,-0.000556900924636,2.91628225451,-7.79753083524e-05,0.000128350802672,3.05003343567e-05,0.999999988258
3621000000,362,3621000000,world,0.00176379671714,-0.000566501029753,2.9170960669,-6.97127876337e-05,0.000132955313074,3.06908317086e-05,0.999999988261
3631000000,363,3631000000,world,0.00175584819872,-0.000574562429379,2.91789992969,-6.15744773152e-05,0.000136890514009,3.08816504882e-05,0.999999988258
3641000000,364,3641000000,world,0.00174775828842,-0.00058111464105,2.91869578008,-5.365486025e-05,0.000140216304326,3.10726638655e-05,0.999999988248
3651000000,365,3651000000,world,0.0017397321571,-0.000586214234187,2.91948530045,-4.59838510105e-05,0.000142943231283,3.12642278477e-05,0.999999988238
3661000000,366,3661000000,world,0.00173193749948,-0.000589938068747,2.92026866226,-3.85523010312e-05,0.000145027680443,3.14573567251e-05,0.999999988246
3671000000,367,3671000000,world,0.00172106585983,-0.000585390554133,2.92104534475,-3.20201991655e-05,0.000146114515915,3.16547184295e-05,0.999999988312
3681000000,368,3681000000,world,0.00170304019526,-0.000564187690318,2.92181484421,-2.72329137175e-05,0.000145807545233,3.18592792559e-05,0.999999988492
3691000000,369,3691000000,world,0.00168670936418,-0.000545076059488,2.92257667381,-2.21953374808e-05,0.000145120337905,3.20634288445e-05,0.99999998871
3701000000,370,3701000000,world,0.00167273737522,-0.000530407413887,2.9233303675,-1.66610866506e-05,0.000144223724188,3.22664913427e-05,0.99999998894
3711000000,371,3711000000,world,0.00166013828107,-0.000516230173896,2.9240754779,-1.10893199776e-05,0.000142978601412,3.24699025186e-05,0.99999998919
3721000000,372,3721000000,world,0.00164893641209,-0.000502644400297,2.92481157513,-5.45336480265e-06,0.000141399735991,3.26735554346e-05,0.999999989454
3731000000,373,3731000000,world,0.00163912442848,-0.000489717363232,2.92553829455,2.82402560129e-07,0.000139518805763,3.2877534272e-05,0.999999989727
3741000000,374,3741000000,world,0.00163067038275,-0.000477488330738,2.92625564575,6.19621066545e-06,0.000137374438778,3.30818596321e-05,0.999999989998
3751000000,375,3751000000,world,0.00162510668023,-0.000468598041457,2.92696379632,1.26132723018e-05,0.000135170393681,3.32853526937e-05,0.999999990231
3761000000,376,3761000000,world,0.0016210765925,-0.000461120823235,2.92766290866,1.93359769592e-05,0.000132808264167,3.34885383905e-05,0.999999990433
3771000000,377,3771000000,world,0.00161808160532,-0.00045411732865,2.92835313862,2.62726599247e-05,0.000130319769006,3.36918737693e-05,0.999999990596
3781000000,378,3781000000,world,0.00161603290299,-0.000447549783777,2.92903463582,3.33472330667e-05,0.000127637675851,3.38954801443e-05,0.999999990724
3791000000,379,3791000000,world,0.00161478722721,-0.000443399884588,2.92970754393,4.07454483825e-05,0.000124692507479,3.40988918281e-05,0.999999990814
3801000000,380,3801000000,world,0.00161431450741,-0.000439713349638,2.93037200115,4.82532041099e-05,0.000121488461393,3.43026391506e-05,0.999999990868
3811000000,381,3811000000,world,0.00161454159918,-0.000436210530185,2.93102814025,5.5884291922e-05,0.000118040038522,3.45069411291e-05,0.999999990876
3821000000,382,3821000000,world,0.00161490349662,-0.000434317368259,2.93167608872,6.38537694482e-05,0.000114323641893,3.47112335071e-05,0.999999990824
3831000000,383,3831000000,world,0.00161564559977,-0.000433067293272,2.93231596909,7.20462075778e-05,0.000110405145709,3.49155017402e-05,0.9999999907
3841000000,384,3841000000,world,0.0016169241332,-0.000431780090181,2.93294789913,8.03969376514e-05,0.000106391011732,3.51200086363e-05,0.999999990492
3851000000,385,3851000000,world,0.00161868490015,-0.00043043699212,2.93357184595,8.88104336283e-05,0.000102250978109,3.53249463954e-05,0.999999990205
3861000000,386,3861000000,world,0.0016202116158,-0.000430851385252,2.93418668901,9.74113129045e-05,9.77843150646e-05,3.55299259057e-05,0.999999989843
3871000000,387,3871000000,world,0.00162194768888,-0.000431688027588,2.93479087241,0.000106035760678,9.3032403898e-05,3.57352174022e-05,0.999999989412
3881000000,388,3881000000,world,0.00162408497417,-0.000432312664096,2.93538290082,0.000114634058381,8.80301014931e-05,3.59410866417e-05,0.999999988909
3891000000,389,3891000000,world,0.0016265871322,-0.000432727309554,2.93596133854,0.000123289937737,8.28227457154e-05,3.61473551044e-05,0.999999988317
3901000000,390,3901000000,world,0.00162915668863,-0.000433639563883,2.93652480708,0.000132073311269,7.74220813883e-05,3.63535684875e-05,0.99999998762
3911000000,391,3911000000,world,0.00163101372974,-0.000437036585001,2.93707198253,0.000141197119648,7.18369790993e-05,3.65594156095e-05,0.999999986783
3921000000,392,3921000000,world,0.00163321199754,-0.000440088217548,2.93760159474,0.000150290548152,6.62301040982e-05,3.6765619446e-05,0.999999985837
3931000000,393,3931000000,world,0.00162163540874,-0.000466504732423,2.9381127823,0.000161790697072,5.89540564309e-05,3.69669931946e-05,0.999999984491
3941000000,394,3941000000,world,0.00160777222617,-0.000496970622401,2.93860607354,0.000173576858548,5.12093290368e-05,3.71667014696e-05,0.999999982934
3951000000,395,3951000000,world,0.00159536594015,-0.000525191378734,2.93908228272,0.000184903435977,4.34322840267e-05,3.73660451153e-05,0.999999981264
