%time,field.header.seq,field.header.stamp,field.header.frame_id,field.twist.linear.x,field.twist.linear.y,field.twist.linear.z,field.twist.angular.x,field.twist.angular.y,field.twist.angular.z
291000000,28,291000000,,-0.0163728204354,0.00205734610794,-0.0080023951185,0.0,0.0,0.0
301000000,29,301000000,,0.0333131276481,-0.00427688526923,-0.00287900340008,0.0,0.0,0.0
311000000,30,311000000,,0.036398504912,0.00566965779968,-0.00911854699019,0.0,0.0,0.0
321000000,31,321000000,,0.00137549696983,0.0168007710095,-0.0160991192333,0.0,0.0,0.0
331000000,32,331000000,,0.00321829937912,0.012694639103,0.0247220371681,0.0,0.0,0.0
341000000,33,341000000,,-0.000685493765959,-0.00306635360744,0.0235028864508,0.0,0.0,0.0
351000000,34,351000000,,0.0263461017852,0.023158825215,-0.0225151852682,0.0,0.0,0.0
361000000,35,361000000,,-0.00123758146129,0.0257245435434,-0.0255383165241,0.0,0.0,0.0
371000000,36,371000000,,0.0190172909807,-0.0185624704783,0.0260463893863,0.0,0.0,0.0
381000000,37,381000000,,-0.0240771746906,-0.0306258283384,0.0135745925675,0.0,0.0,0.0
391000000,38,391000000,,0.0120203785511,-0.0304603861321,-0.000476789462651,0.0,0.0,0.0
401000000,39,401000000,,-0.0277374973152,0.00831970103561,-0.00131787427623,0.0,0.0,0.0
411000000,40,411000000,,-0.0266263687066,0.0318442121144,0.014797323632,0.0,0.0,0.0
421000000,41,421000000,,-0.0193021305785,-0.00690409839558,-0.0284717002483,0.0,0.0,0.0
431000000,42,431000000,,0.00442143131268,-0.0351363042546,0.00644961382692,0.0,0.0,0.0
442000000,43,442000000,,-0.0117236390494,-0.0141100159671,0.0320629303292,0.0,0.0,0.0
451000000,44,451000000,,-0.00216356706421,-0.0196970102701,0.00821801284573,0.0,0.0,0.0
461000000,45,461000000,,-0.0101195464467,-0.0291210465917,-0.0235792483525,0.0,0.0,0.0
471000000,46,471000000,,0.0177017951284,-0.0100264763967,-0.00119011918505,0.0,0.0,0.0
481000000,47,481000000,,0.00858110155425,-0.0130111000155,-0.00957701559312,0.0,0.0,0.0
491000000,48,491000000,,0.0417072427654,0.0224800456008,-0.00700702384031,0.0,0.0,0.0
502000000,49,502000000,,0.0404940046968,-0.0517223087083,0.0252637325283,0.0,0.0,0.0
512000000,50,512000000,,-0.0132947243633,0.0250495695149,-0.0362576098653,0.0,0.0,0.0
523000000,51,523000000,,-0.00713280577604,-0.0119292757184,-0.0176880406452,0.0,0.0,0.0
532000000,52,532000000,,-0.0451970308163,0.0340405415979,0.00434310431666,0.0,0.0,0.0
541000000,53,541000000,,0.00390561354243,-0.0183053465359,0.064185433129,0.0,0.0,0.0
551000000,54,551000000,,0.00285715023901,-0.000973684547776,0.0868905510276,0.0,0.0,0.0
564000000,55,564000000,,0.00302145877441,0.0050443186073,0.117821110058,0.0,0.0,0.0
572000000,56,572000000,,-0.0242533138503,0.00811677669929,0.120495004273,0.0,0.0,0.0
584000000,57,584000000,,0.02246883153,0.00956663964188,0.136688066743,0.0,0.0,0.0
591000000,58,591000000,,0.0210578681064,0.00225434015753,0.188942774891,0.0,0.0,0.0
601000000,59,601000000,,-0.00551138068484,0.00409608551698,0.222707110148,0.0,0.0,0.0
611000000,60,611000000,,-0.0173311656528,0.0124152065215,0.237058336515,0.0,0.0,0.0
621000000,61,621000000,,-0.00951645045508,0.00593273407507,0.332272883712,0.0,0.0,0.0
631000000,62,631000000,,-0.00897623935119,0.0255213310029,0.356303786114,0.0,0.0,0.0
641000000,63,641000000,,0.000706890538069,0.016638529542,0.369120724793,0.0,0.0,0.0
652000000,64,652000000,,0.0200279599933,-0.0155039083264,0.444293006943,0.0,0.0,0.0
662000000,65,662000000,,0.0114036972631,0.00232325040973,0.461938447542,0.0,0.0,0.0
673000000,66,673000000,,0.000431516760788,0.0129687344778,0.535726710196,0.0,0.0,0.0
682000000,67,682000000,,-0.0368730125421,0.00797606711091,0.609636085221,0.0,0.0,0.0
691000000,68,691000000,,0.0248822129483,-0.0228070618906,0.64804637279,0.0,0.0,0.0
701000000,69,701000000,,0.0150297818678,-0.024725459472,0.73877319663,0.0,0.0,0.0
711000000,70,711000000,,0.0325512921935,-0.0468732424061,0.792946689577,0.0,0.0,0.0
721000000,71,721000000,,-0.0280764916034,-0.028223220733,0.827546874132,0.0,0.0,0.0
731000000,72,731000000,,-0.00363353676452,-0.00466302043601,0.90146728228,0.0,0.0,0.0
741000000,73,741000000,,-0.022513113404,-0.00991202107755,0.97632179909,0.0,0.0,0.0
751000000,74,751000000,,0.000699065392056,-0.0126260789639,1.01690003165,0.0,0.0,0.0
761000000,75,761000000,,-0.028378559764,-0.0031299260099,1.0732743024,0.0,0.0,0.0
771000000,76,771000000,,-0.0119421943858,-0.0120338097105,1.14724735309,0.0,0.0,0.0
781000000,77,781000000,,-0.0179493312643,0.00515396823487,1.18185174956,0.0,0.0,0.0
791000000,78,791000000,,-0.02886311211,0.0183938753501,1.27032168295,0.0,0.0,0.0
801000000,79,801000000,,-0.0356638318556,0.000945814252442,1.2602178779,0.0,0.0,0.0
812000000,80,812000000,,0.0144154357888,-0.0105495318359,1.34415070953,0.0,0.0,0.0
821000000,81,821000000,,0.00459217469017,0.0131825359962,1.35456486978,0.0,0.0,0.0
831000000,82,831000000,,0.0126776430691,-0.00338696188809,1.43314582028,0.0,0.0,0.0
841000000,83,841000000,,-0.0133202361497,-0.014441094337,1.47703371722,0.0,0.0,0.0
851000000,84,851000000,,-0.0131330353923,0.0118092208134,1.52667957325,0.0,0.0,0.0
861000000,85,861000000,,0.0172008815972,-0.00887743467498,1.55675584999,0.0,0.0,0.0
871000000,86,871000000,,0.0128828915824,-0.0187096414503,1.55610817501,0.0,0.0,0.0
881000000,87,881000000,,-0.00647461134649,0.00610140267819,1.62591167745,0.0,0.0,0.0
891000000,88,891000000,,0.00271238910434,0.0222799761806,1.63341922052,0.0,0.0,0.0
902000000,89,902000000,,0.0182999012403,-0.00400690738287,1.65573137396,0.0,0.0,0.0
911000000,90,911000000,,-0.0286776917036,-0.0257055534021,1.68697426439,0.0,0.0,0.0
922000000,91,922000000,,-0.0252165197134,-0.0143155616235,1.69798778066,0.0,0.0,0.0
932000000,92,932000000,,0.0105081602638,0.0197140670309,1.7152354858,0.0,0.0,0.0
941000000,93,941000000,,-0.00160574801962,0.00767460522612,1.7193262951,0.0,0.0,0.0
951000000,94,951000000,,0.00107305077754,-0.0172327535516,1.73130656832,0.0,0.0,0.0
961000000,95,961000000,,-0.006370578043,-0.039657451968,1.71381205957,0.0,0.0,0.0
971000000,96,971000000,,-0.0335811416832,0.0125057795796,1.72481969412,0.0,0.0,0.0
981000000,97,981000000,,0.0121116943048,-0.0191105356989,1.70979225829,0.0,0.0,0.0
992000000,98,992000000,,-0.0147923217249,0.00441707597037,1.77271584279,0.0,0.0,0.0
1001000000,99,1001000000,,-0.0345273793697,-0.00400245721743,1.69705233723,0.0,0.0,0.0
1012000000,100,1012000000,,-0.00444389211763,0.020988353205,1.71600129359,0.0,0.0,0.0
1022000000,101,1022000000,,0.0129674244232,0.0261473114046,1.70192451366,0.0,0.0,0.0
1032000000,102,1032000000,,-0.013778305351,-0.0214284500493,1.73244669056,0.0,0.0,0.0
1044000000,103,1044000000,,0.00670595961784,-0.00938807306678,1.65113334598,0.0,0.0,0.0
1051000000,104,1051000000,,-0.00312944035778,-0.0548678280151,1.65673006506,0.0,0.0,0.0
1061000000,105,1061000000,,-0.00401152701587,0.017297863381,1.62920076806,0.0,0.0,0.0
1071000000,106,1071000000,,0.00957287178601,0.0247420217054,1.58291885591,0.0,0.0,0.0
1080000000,107,1080000000,,0.00164423683239,-0.00983027328899,1.59072777264,0.0,0.0,0.0
1091000000,108,1091000000,,-0.0247542301747,-0.000508923764428,1.59385644984,0.0,0.0,0.0
1101000000,109,1101000000,,-0.0160634202148,-0.00993570144773,1.55337766303,0.0,0.0,0.0
1112000000,110,1112000000,,0.0031066075336,-0.00961545890686,1.5417918924,0.0,0.0,0.0
1122000000,111,1122000000,,0.027455809117,0.0101412014201,1.53363878723,0.0,0.0,0.0
1132000000,112,1132000000,,0.0180928626837,-0.00303282236678,1.49905164353,0.0,0.0,0.0
1141000000,113,1141000000,,-0.0078353340311,0.038281335277,1.47943781198,0.0,0.0,0.0
1151000000,114,1151000000,,0.0347258492954,-0.0277865148384,1.46548720889,0.0,0.0,0.0
1162000000,115,1162000000,,0.0111639573408,-0.026708074407,1.43834148293,0.0,0.0,0.0
1172000000,116,1172000000,,-0.0402636331086,0.00795628855552,1.42008795606,0.0,0.0,0.0
1181000000,117,1181000000,,0.00779989810066,0.0606229212499,1.40300489275,0.0,0.0,0.0
1191000000,118,1191000000,,0.00482573598858,-0.0162381656146,1.40857229283,0.0,0.0,0.0
1205000000,119,1205000000,,-0.00923271975648,0.00191148903889,1.34375652125,0.0,0.0,0.0
1212000000,120,1212000000,,-0.00298272752043,-0.000447928227812,1.32377045731,0.0,0.0,0.0
1222000000,121,1222000000,,-0.0340281822479,0.00189502643382,1.32114183148,0.0,0.0,0.0
1229000000,122,1229000000,,-0.0335026903241,-0.0379572064306,1.24876542768,0.0,0.0,0.0
1242000000,123,1242000000,,-0.0270468830215,0.0294182113663,1.24618439119,0.0,0.0,0.0
1251000000,124,1251000000,,0.00625816723021,-0.0255964057265,1.26981535708,0.0,0.0,0.0
1261000000,125,1261000000,,0.0257985313111,0.00652278657414,1.25280272854,0.0,0.0,0.0
1271000000,126,1271000000,,0.00867958251676,0.0106562908979,1.23701844742,0.0,0.0,0.0
1285000000,127,1285000000,,0.0201443790638,0.00420467328696,1.20863892433,0.0,0.0,0.0
1291000000,128,1291000000,,-0.0327441055359,0.0130809315124,1.21404275785,0.0,0.0,0.0
1301000000,129,1301000000,,0.0218852317789,-0.0330429982391,1.18051760003,0.0,0.0,0.0
1313000000,130,1313000000,,-0.0196800825018,0.00451138254739,1.17800127012,0.0,0.0,0.0
1326000000,131,1326000000,,0.00720132232479,-0.0311841928379,1.17746101324,0.0,0.0,0.0
1337000000,132,1337000000,,-0.0122170312906,-0.0380195413128,1.18193531133,0.0,0.0,0.0
1344000000,133,1344000000,,-0.00220847349978,-0.00341692260653,1.16946095983,0.0,0.0,0.0
1351000000,134,1351000000,,0.0105645306023,-0.0188549590958,1.17121319963,0.0,0.0,0.0
1368000000,135,1368000000,,-0.00703366923164,0.00268785443985,1.17236887093,0.0,0.0,0.0
1381000000,136,1381000000,,0.0453391309033,0.0112950417222,1.15690627525,0.0,0.0,0.0
1386000000,137,1386000000,,0.0372637876154,0.00435737643771,1.12760450531,0.0,0.0,0.0
1391000000,138,1391000000,,0.00317468308274,0.0180693708764,1.11963777962,0.0,0.0,0.0
1402000000,139,1402000000,,-0.0111882580765,-0.0207257756851,1.10540182158,0.0,0.0,0.0
1416000000,140,1416000000,,0.00980385527352,0.00368719734924,1.1302177393,0.0,0.0,0.0
1421000000,141,1421000000,,0.0183651370146,0.00090440993296,1.12847323924,0.0,0.0,0.0
1432000000,142,1432000000,,0.00978413967735,-0.0229529815389,1.14677139593,0.0,0.0,0.0
1441000000,143,1441000000,,0.00266328483106,-0.0106823097334,1.10014418105,0.0,0.0,0.0
1451000000,144,1451000000,,-0.0129321011106,0.0101059862921,1.10151384781,0.0,0.0,0.0
1461000000,145,1461000000,,0.00363960790699,0.0376445496859,1.1410652009,0.0,0.0,0.0
1471000000,146,1471000000,,0.0144145316271,0.000534873575028,1.14211714765,0.0,0.0,0.0
1482000000,147,1482000000,,-0.00133701711122,0.00362364818254,1.11743594467,0.0,0.0,0.0
1491000000,148,1491000000,,-0.0132285425835,0.0214128374334,1.14329034279,0.0,0.0,0.0
1501000000,149,1501000000,,0.0083009571403,-0.0118970093375,1.16870388076,0.0,0.0,0.0
1511000000,150,1511000000,,0.024484011794,-0.00387467742125,1.14841943222,0.0,0.0,0.0
1521000000,151,1521000000,,0.023348669189,-0.0127738885988,1.12319915736,0.0,0.0,0.0
1532000000,152,1532000000,,0.0268917940857,0.0067931518426,1.16079941094,0.0,0.0,0.0
1541000000,153,1541000000,,0.0346466612518,-0.00169009684524,1.16026667782,0.0,0.0,0.0
1552000000,154,1552000000,,0.000103856350007,0.0241208680185,1.16370705405,0.0,0.0,0.0
1561000000,155,1561000000,,0.0209888861744,0.0146886092027,1.16952312186,0.0,0.0,0.0
1571000000,156,1571000000,,0.0289003671454,0.0426146865293,1.18586322567,0.0,0.0,0.0
1584000000,157,1584000000,,-0.0318369280874,-0.0155924415664,1.1998787952,0.0,0.0,0.0
1596000000,158,1596000000,,-0.0149462588893,-0.0283604835328,1.19264562233,0.0,0.0,0.0
1601000000,159,1601000000,,0.0221039347917,0.0517550694203,1.17548827657,0.0,0.0,0.0
1612000000,160,1612000000,,0.00190736978308,-0.0354287138145,1.20214973855,0.0,0.0,0.0
1621000000,161,1621000000,,-0.00674554539892,-0.00325093755248,1.20887884159,0.0,0.0,0.0
1631000000,162,1631000000,,-0.00511543573475,0.0115811006618,1.17454940454,0.0,0.0,0.0
1641000000,163,1641000000,,0.0159404865426,-0.0217894710226,1.21056445041,0.0,0.0,0.0
1651000000,164,1651000000,,0.016646543352,-0.0176746331359,1.185566558,0.0,0.0,0.0
1661000000,165,1661000000,,-0.0097237506253,0.00328680278884,1.18259985733,0.0,0.0,0.0
1672000000,166,1672000000,,0.02460182484,-0.0108020956857,1.16108057661,0.0,0.0,0.0
1681000000,167,1681000000,,0.0163712325018,-0.0415165087109,1.17859710735,0.0,0.0,0.0
1691000000,168,1691000000,,-0.0132751825889,0.00245928779253,1.15803946633,0.0,0.0,0.0
1701000000,169,1701000000,,-0.0227042141366,0.00448726231448,1.18899780942,0.0,0.0,0.0
1711000000,170,1711000000,,-0.00417069733005,-0.0158195857845,1.17002182669,0.0,0.0,0.0
1721000000,171,1721000000,,0.0167215831955,-0.00149088217012,1.16780725591,0.0,0.0,0.0
1731000000,172,1731000000,,0.00819746733761,-0.00610490645608,1.10655064143,0.0,0.0,0.0
1741000000,173,1741000000,,-0.000298104192655,-0.0068558683579,1.10656334198,0.0,0.0,0.0
1752000000,174,1752000000,,0.00657425372026,0.0216588271077,1.16875541057,0.0,0.0,0.0
1765000000,175,1765000000,,-0.0124762004473,-0.0143223988442,1.12739733079,0.0,0.0,0.0
1771000000,176,1771000000,,-0.00859343110365,-0.0111266236165,1.11727540889,0.0,0.0,0.0
1782000000,177,1782000000,,-0.0228370884416,0.00231274922809,1.06604265786,0.0,0.0,0.0
1792000000,178,1792000000,,0.00299469836171,0.00890469348019,1.07202028093,0.0,0.0,0.0
1801000000,179,1801000000,,0.00845664676974,0.0133827924116,1.09799404614,0.0,0.0,0.0
1811000000,180,1811000000,,0.00195577806379,0.0228846429768,1.08473487541,0.0,0.0,0.0
1821000000,181,1821000000,,-0.0116853915436,0.0130315089006,1.0624960947,0.0,0.0,0.0
1833000000,182,1833000000,,0.0368046280057,-0.00676245550619,1.04821434791,0.0,0.0,0.0
1841000000,183,1841000000,,-0.000999816292416,-0.00353788267861,1.03718086363,0.0,0.0,0.0
1851000000,184,1851000000,,0.0342641132203,0.00986757949442,1.00441352735,0.0,0.0,0.0
1861000000,185,1861000000,,0.029421769,0.0443128599093,1.00880979761,0.0,0.0,0.0
1871000000,186,1871000000,,0.005757646712,0.022236687937,1.00521797214,0.0,0.0,0.0
1881000000,187,1881000000,,0.00302489306897,-0.012497639219,0.997878492058,0.0,0.0,0.0
1891000000,188,1891000000,,0.0054875518063,-0.00208659018513,0.961726626876,0.0,0.0,0.0
1901000000,189,1901000000,,0.019372198254,-0.0436129542669,0.923597248324,0.0,0.0,0.0
1911000000,190,1911000000,,-0.0232268784649,0.0192887913831,0.931107748329,0.0,0.0,0.0
1921000000,191,1921000000,,-0.0152919097915,-0.00917865170342,0.913113642273,0.0,0.0,0.0
1931000000,192,1931000000,,-0.00158611910377,0.00291933086258,0.874387319468,0.0,0.0,0.0
1941000000,193,1941000000,,0.00177965174985,0.0426705537718,0.869432029531,0.0,0.0,0.0
1952000000,194,1952000000,,0.0217230468296,-0.0255906738634,0.855821045533,0.0,0.0,0.0
1961000000,195,1961000000,,-0.0196455136496,-0.00880980309758,0.829211440218,0.0,0.0,0.0
1972000000,196,1972000000,,0.0167800732447,0.0309836791932,0.83959033655,0.0,0.0,0.0
1982000000,197,1982000000,,0.00773598756448,0.0121251285475,0.816100730384,0.0,0.0,0.0
1991000000,198,1991000000,,-0.0163708602661,-0.0106161913976,0.837492956224,0.0,0.0,0.0
2006000000,199,2006000000,,-0.0156698577457,0.0308496667195,0.814078056457,0.0,0.0,0.0
2012000000,200,2012000000,,-0.0025217027813,-0.00531801443416,0.805662777708,0.0,0.0,0.0
2026000000,201,2026000000,,-0.0217532303323,-0.00591008088751,0.795335599978,0.0,0.0,0.0
2032000000,202,2032000000,,-0.00850645140433,0.0139372849364,0.776904239687,0.0,0.0,0.0
2041000000,203,2041000000,,-0.0086000465431,-0.00865631981317,0.738385091708,0.0,0.0,0.0
2052000000,204,2052000000,,0.00560032408552,-0.0141178228915,0.757482233573,0.0,0.0,0.0
2062000000,205,2062000000,,0.00571934788651,0.0287436119007,0.77110710701,0.0,0.0,0.0
2072000000,206,2072000000,,-0.0270517513929,-0.00355748309268,0.758690215138,0.0,0.0,0.0
2081000000,207,2081000000,,0.00179714752883,0.0132469158076,0.766348363062,0.0,0.0,0.0
2091000000,208,2091000000,,0.0155891775274,0.00184231052273,0.744800605842,0.0,0.0,0.0
2101000000,209,2101000000,,0.0192773435635,-0.00333313971194,0.752783132537,0.0,0.0,0.0
2111000000,210,2111000000,,0.0102030049703,0.00119974735298,0.716848202132,0.0,0.0,0.0
2121000000,211,2121000000,,-0.0376892739118,-0.00818599985065,0.739952178289,0.0,0.0,0.0
2132000000,212,2132000000,,0.0325445642395,-0.00639370742282,0.683941826877,0.0,0.0,0.0
2141000000,213,2141000000,,0.0137201126791,0.0109683071603,0.706580311072,0.0,0.0,0.0
2155000000,214,2155000000,,-0.00228209519141,-0.0191297598367,0.669205846459,0.0,0.0,0.0
2161000000,215,2161000000,,0.00824125089047,-0.000113301645784,0.712196910758,0.0,0.0,0.0
2172000000,216,2172000000,,-0.0419538658702,-0.0374031745646,0.690972837702,0.0,0.0,0.0
2181000000,217,2181000000,,0.00604603678667,-0.0152487248348,0.706654155686,0.0,0.0,0.0
2191000000,218,2191000000,,-0.00403365320419,-0.00934995368422,0.662537101555,0.0,0.0,0.0
2202000000,219,2202000000,,0.0213619333168,0.0147198931576,0.707192431157,0.0,0.0,0.0
2211000000,220,2211000000,,-0.0270267600357,-0.024020460664,0.670888354942,0.0,0.0,0.0
2221000000,221,2221000000,,-0.00578612834006,-0.00470407750649,0.658181853756,0.0,0.0,0.0
2235000000,222,2235000000,,0.0126467673281,-0.0190892924202,0.660817110759,0.0,0.0,0.0
2243000000,223,2243000000,,0.00177256774835,0.0107184416981,0.664162128678,0.0,0.0,0.0
2251000000,224,2251000000,,-0.0123023685603,-0.0138851801741,0.662217971661,0.0,0.0,0.0
2262000000,225,2262000000,,-0.0342160636635,0.0230125472664,0.667204185821,0.0,0.0,0.0
2271000000,226,2271000000,,0.00334555025359,0.0214201583262,0.659379559751,0.0,0.0,0.0
2281000000,227,2281000000,,-0.042375688129,-0.000174773590221,0.674235553187,0.0,0.0,0.0
2291000000,228,2291000000,,-0.035312232456,-0.00681624467012,0.654721596939,0.0,0.0,0.0
2301000000,229,2301000000,,0.0366812044645,-0.0281600486083,0.665257609115,0.0,0.0,0.0
2311000000,230,2311000000,,0.000793225400157,-0.00250286381948,0.660694928073,0.0,0.0,0.0
2321000000,231,2321000000,,0.0108085446815,0.0123207283292,0.660842761538,0.0,0.0,0.0
2331000000,232,2331000000,,0.0119539921211,-0.0420008154453,0.641828031283,0.0,0.0,0.0
2341000000,233,2341000000,,-0.031752134573,-0.00395171612462,0.646001449011,0.0,0.0,0.0
2351000000,234,2351000000,,-0.0162353913221,0.00814912393978,0.613134017252,0.0,0.0,0.0
2361000000,235,2361000000,,-0.0246993042513,0.00237159740437,0.649569341839,0.0,0.0,0.0
2375000000,236,2375000000,,-0.0148683270217,0.0299571266361,0.657266954322,0.0,0.0,0.0
2383000000,237,2383000000,,0.00171194331665,-0.0498361266819,0.615858492284,0.0,0.0,0.0
2392000000,238,2392000000,,0.0234985325883,-0.00967273365842,0.639943188133,0.0,0.0,0.0
2402000000,239,2402000000,,-0.00126207900115,-0.00170889028431,0.595855676664,0.0,0.0,0.0
2415000000,240,2415000000,,0.00652788415073,-0.00232530351376,0.612833999853,0.0,0.0,0.0
2435000000,241,2435000000,,0.008211764981,0.0389726869156,0.578244891067,0.0,0.0,0.0
2435000000,242,2435000000,,0.00868288499687,-0.00772003783128,0.609435928811,0.0,0.0,0.0
2447000000,243,2447000000,,-0.00703462044311,0.0392249166781,0.578788469066,0.0,0.0,0.0
2451000000,244,2451000000,,-0.0108312384834,-0.00212566334144,0.578163870774,0.0,0.0,0.0
2461000000,245,2461000000,,-0.0128682114531,0.0469163248066,0.60210457649,0.0,0.0,0.0
2471000000,246,2471000000,,0.0131737366296,0.0087311573338,0.576988569812,0.0,0.0,0.0
2482000000,247,2482000000,,0.012835646242,-0.0053822173463,0.571415339543,0.0,0.0,0.0
2491000000,248,2491000000,,0.0176100704204,-0.00103842814175,0.520155520514,0.0,0.0,0.0
2501000000,249,2501000000,,0.0159325722983,-0.00570824262314,0.501202666051,0.0,0.0,0.0
2512000000,250,2512000000,,-0.0108669864456,-0.0301404074431,0.529149446596,0.0,0.0,0.0
2521000000,251,2521000000,,0.022318890106,0.00239402181143,0.51975426318,0.0,0.0,0.0
2531000000,252,2531000000,,0.0130006896073,-0.000729973466482,0.491100561381,0.0,0.0,0.0
2545000000,253,2545000000,,-0.0222146705626,-0.0275756075882,0.517412939472,0.0,0.0,0.0
2551000000,254,2551000000,,0.0330728831421,0.0220896756957,0.484710818972,0.0,0.0,0.0
2567000000,255,2567000000,,-0.0171559455974,0.0271091409547,0.49155770041,0.0,0.0,0.0
2573000000,256,2573000000,,-0.0214640713392,0.0309256785006,0.465336848605,0.0,0.0,0.0
2581000000,257,2581000000,,0.00345649804797,-0.0184516563003,0.473466108138,0.0,0.0,0.0
2592000000,258,2592000000,,-0.0539380950892,0.00780951994463,0.457512923896,0.0,0.0,0.0
2601000000,259,2601000000,,0.00302254458485,-0.0115136100717,0.427700776049,0.0,0.0,0.0
2614000000,260,2614000000,,-0.0131798342303,0.0604245091397,0.449578097273,0.0,0.0,0.0
2621000000,261,2621000000,,0.016533422285,0.017505223733,0.408817033064,0.0,0.0,0.0
2631000000,262,2631000000,,0.0434848857105,0.0164742016585,0.404692076768,0.0,0.0,0.0
2641000000,263,2641000000,,-0.017775137148,0.0115971111002,0.392361672576,0.0,0.0,0.0
2651000000,264,2651000000,,-0.0128213651669,0.0150823379356,0.410585217345,0.0,0.0,0.0
2661000000,265,2661000000,,-0.0231552074988,-0.0191496314722,0.435812280287,0.0,0.0,0.0
2671000000,266,2671000000,,0.00273398705734,-0.0490533943641,0.372018856128,0.0,0.0,0.0
2681000000,267,2681000000,,0.0388955820972,-0.00860059005795,0.36355920724,0.0,0.0,0.0
2695000000,268,2695000000,,0.0321752385617,0.0068126831326,0.401523874106,0.0,0.0,0.0
2701000000,269,2701000000,,0.0264744335988,-0.0246935546096,0.358121393887,0.0,0.0,0.0
2711000000,270,2711000000,,-0.00772613879754,0.0209998945106,0.372817041816,0.0,0.0,0.0
2732000000,271,2732000000,,0.0270564431345,0.00182326129904,0.344896419743,0.0,0.0,0.0
2732000000,272,2732000000,,-0.00907318649421,-0.0102801631982,0.311477535476,0.0,0.0,0.0
2741000000,273,2741000000,,0.0109587825105,-0.0123628115709,0.339137433112,0.0,0.0,0.0
2756000000,274,2756000000,,0.0151622794943,0.0152665893361,0.348889848797,0.0,0.0,0.0
2762000000,275,2762000000,,0.00468132926145,0.00449855457568,0.341496409632,0.0,0.0,0.0
2771000000,276,2771000000,,0.0237411819998,-0.00194359099203,0.344545819447,0.0,0.0,0.0
2781000000,277,2781000000,,-0.0192997242998,-0.00491366378016,0.313975356991,0.0,0.0,0.0
2792000000,278,2792000000,,0.00383879692436,-0.00133944717711,0.320137644681,0.0,0.0,0.0
2803000000,279,2803000000,,0.0195149427386,0.0216371869234,0.313178685056,0.0,0.0,0.0
2813000000,280,2813000000,,-0.00743325482937,-0.0292435239321,0.260416144687,0.0,0.0,0.0
2821000000,281,2821000000,,-0.000277037090852,0.0159307406477,0.280401957921,0.0,0.0,0.0
2831000000,282,2831000000,,0.0145818609904,0.0247489441212,0.291761697714,0.0,0.0,0.0
2843000000,283,2843000000,,0.0282580611091,0.00580153062919,0.265476595736,0.0,0.0,0.0
2857000000,284,2857000000,,0.0193877557166,-0.0356164960027,0.229188843668,0.0,0.0,0.0
2871000000,285,2871000000,,-0.00255264247547,0.0115122452893,0.28900977657,0.0,0.0,0.0
2873000000,286,2873000000,,0.0040711946118,-0.0101060323605,0.261574135203,0.0,0.0,0.0
2881000000,287,2881000000,,0.00271039915589,0.000705787584391,0.265632973836,0.0,0.0,0.0
2898000000,288,2898000000,,-0.000908884987223,0.024688759975,0.237394196072,0.0,0.0,0.0
2901000000,289,2901000000,,0.038804068589,0.0167374951814,0.254491843642,0.0,0.0,0.0
2913000000,290,2913000000,,0.000784432447119,0.0425171592083,0.197523300473,0.0,0.0,0.0
2921000000,291,2921000000,,0.0187027115288,-0.00939648211068,0.230343164953,0.0,0.0,0.0
2931000000,292,2931000000,,-0.00501195386207,0.0132900464138,0.243806352512,0.0,0.0,0.0
2941000000,293,2941000000,,-0.00511494981555,-0.0056063747366,0.241399931536,0.0,0.0,0.0
2953000000,294,2953000000,,0.0137955219017,-0.0425816653688,0.260123316617,0.0,0.0,0.0
2961000000,295,2961000000,,-0.0298176340319,-0.00703189092646,0.242022665336,0.0,0.0,0.0
2982000000,297,2982000000,,0.0204785629151,-0.0202545232311,0.226297506252,0.0,0.0,0.0
2990000000,298,2990000000,,0.00107696977416,0.00248813883971,0.249031434783,0.0,0.0,0.0
3001000000,299,3001000000,,-0.000824256435241,-0.0124644764719,0.22954989671,0.0,0.0,0.0
3012000000,300,3012000000,,0.0393505032386,-0.0044520859264,0.208971595387,0.0,0.0,0.0
3021000000,301,3021000000,,-0.0195220246893,0.0114891696266,0.227372633628,0.0,0.0,0.0
3031000000,302,3031000000,,0.0222274145184,0.00483775553324,0.219371430373,0.0,0.0,0.0
3041000000,303,3041000000,,0.0415229758882,-0.0117160093776,0.209984250553,0.0,0.0,0.0
3051000000,304,3051000000,,-0.00185731197238,-0.000862337704939,0.233814833821,0.0,0.0,0.0
3061000000,305,3061000000,,-0.0068702536233,0.0187973045513,0.233859212263,0.0,0.0,0.0
3071000000,306,3071000000,,-0.00731217188388,-0.000239707745858,0.2174307861,0.0,0.0,0.0
3081000000,307,3081000000,,0.00119693126777,-0.0187877563079,0.242517293217,0.0,0.0,0.0
3091000000,308,3091000000,,0.0210244757323,-0.00599718149852,0.217117797555,0.0,0.0,0.0
3101000000,309,3101000000,,-0.00123463050666,-0.0437048836894,0.205448707413,0.0,0.0,0.0
3111000000,310,3111000000,,0.0308866027753,-0.0245647830178,0.203471930343,0.0,0.0,0.0
3121000000,311,3121000000,,0.0160404781568,0.00701607053837,0.218014764083,0.0,0.0,0.0
3131000000,312,3131000000,,-0.0253497695926,-0.00896091288124,0.215355188034,0.0,0.0,0.0
3141000000,313,3141000000,,-0.0291689008316,-0.0187546802523,0.187217020895,0.0,0.0,0.0
3151000000,314,3151000000,,-0.0268055244154,0.0248568409502,0.159489362194,0.0,0.0,0.0
3162000000,315,3162000000,,0.0173376406867,0.034951531616,0.207382644974,0.0,0.0,0.0
3175000000,316,3175000000,,0.0200715277833,0.00343625859298,0.195260308743,0.0,0.0,0.0
3181000000,317,3181000000,,-0.0179915147817,0.00809493633219,0.166874811637,0.0,0.0,0.0
3192000000,318,3192000000,,0.0127997404028,-0.0357182512009,0.20387693909,0.0,0.0,0.0
3201000000,319,3201000000,,0.0132081941697,-0.0359510439848,0.213172110384,0.0,0.0,0.0
3212000000,320,3212000000,,0.0294763675332,0.0185636729482,0.20057689341,0.0,0.0,0.0
3221000000,321,3221000000,,-0.0040530829693,-0.0181949101961,0.186717013581,0.0,0.0,0.0
3231000000,322,3231000000,,0.0170660443675,-0.0317065759371,0.161461752716,0.0,0.0,0.0
3241000000,323,3241000000,,0.047240069251,-0.0048376988511,0.196818962191,0.0,0.0,0.0
3251000000,324,3251000000,,0.0173693681277,-0.0182033185358,0.174549922532,0.0,0.0,0.0
3261000000,325,3261000000,,-0.0131759787884,0.0117850169741,0.198381579081,0.0,0.0,0.0
3271000000,326,3271000000,,0.0258392465722,0.0293347886398,0.172435811437,0.0,0.0,0.0
3281000000,327,3281000000,,0.017912406746,0.00571734185766,0.188544747693,0.0,0.0,0.0
3291000000,328,3291000000,,-0.00157528032503,-0.0381785092381,0.160168100396,0.0,0.0,0.0
3301000000,329,3301000000,,0.0108318188357,0.0293411348554,0.200278094398,0.0,0.0,0.0
3311000000,330,3311000000,,-0.0123865488066,-0.0022326488154,0.184301713978,0.0,0.0,0.0
3321000000,331,3321000000,,-0.00354104037742,-0.0278615765819,0.172662231903,0.0,0.0,0.0
3331000000,332,3331000000,,0.0131735185252,-0.0206609784346,0.14185730203,0.0,0.0,0.0
3341000000,333,3341000000,,-0.022484643374,0.00278372894332,0.137788384511,0.0,0.0,0.0
3351000000,334,3351000000,,-0.00900000076501,-0.00739232310668,0.145759211388,0.0,0.0,0.0
3361000000,335,3361000000,,-0.00848864966516,-0.016485547058,0.177589784904,0.0,0.0,0.0
3371000000,336,3371000000,,-0.00172419183166,0.0491578148204,0.15402745724,0.0,0.0,0.0
3381000000,337,3381000000,,0.014338908161,-0.0310031169358,0.162513100287,0.0,0.0,0.0
3391000000,338,3391000000,,0.00321028869474,-0.00782906928665,0.167525225237,0.0,0.0,0.0
3401000000,339,3401000000,,0.0397976564279,-0.0282512770214,0.130509943664,0.0,0.0,0.0
3412000000,340,3412000000,,0.0114026424825,0.0201368421245,0.161477578735,0.0,0.0,0.0
3422000000,341,3422000000,,-0.0428666226828,-0.0175477018413,0.129358374906,0.0,0.0,0.0
3431000000,342,3431000000,,-0.0406903171523,-0.000817305603397,0.152205681373,0.0,0.0,0.0
3440000000,343,3440000000,,0.00746791338776,0.00190107721333,0.129676167768,0.0,0.0,0.0
3454000000,344,3454000000,,0.00255650867542,0.00846372632015,0.123421951532,0.0,0.0,0.0
3461000000,345,3461000000,,0.0172465415357,-0.01382543632,0.124693750026,0.0,0.0,0.0
3471000000,346,3471000000,,0.0156310003058,0.00793701487785,0.125038358182,0.0,0.0,0.0
3481000000,347,3481000000,,0.00278690138359,0.00161743077221,0.120169097296,0.0,0.0,0.0
3491000000,348,3491000000,,0.0207925772158,0.0290854169379,0.0938713430664,0.0,0.0,0.0
3501000000,349,3501000000,,-0.00953369821093,-0.00753307320221,0.126661348536,0.0,0.0,0.0
3511000000,350,3511000000,,0.0254021697918,-0.0140050738768,0.0949668152167,0.0,0.0,0.0
3522000000,351,3522000000,,-0.00896043860982,0.00185973220891,0.0866283204525,0.0,0.0,0.0
3532000000,352,3532000000,,0.0205824143258,-0.00031236320168,0.108296506554,0.0,0.0,0.0
3541000000,353,3541000000,,0.0255114765639,0.00713467611872,0.100727898268,0.0,0.0,0.0
3551000000,354,3551000000,,0.00808161422774,-0.0167006991081,0.0918934811646,0.0,0.0,0.0
3562000000,355,3562000000,,-0.0143760036766,0.000696406875946,0.0880460226648,0.0,0.0,0.0
3571000000,356,3571000000,,-0.00658255720638,0.00953230307737,0.0926285383389,0.0,0.0,0.0
3581000000,357,3581000000,,0.020558192058,0.0191910184314,0.118054895402,0.0,0.0,0.0
3591000000,358,3591000000,,0.00288015019187,-0.0232589318375,0.0943988258742,0.0,0.0,0.0
3601000000,359,3601000000,,0.00343353132577,-0.017076399633,0.0746555735397,0.0,0.0,0.0
3611000000,360,3611000000,,0.025932064265,0.0105432338555,0.0876333431933,0.0,0.0,0.0
3621000000,361,3621000000,,-0.00999245201598,0.00966265270518,0.0968375910638,0.0,0.0,0.0
3631000000,362,3631000000,,0.0064909691277,-0.0303554951155,0.11849176639,0.0,0.0,0.0
3641000000,363,3641000000,,-0.0002044660476,-0.0215320006249,0.0983985657592,0.0,0.0,0.0
3651000000,364,3651000000,,0.0110129081221,-0.0161545522055,0.0835328435435,0.0,0.0,0.0
3661000000,365,3661000000,,0.0316393224474,0.0160911490517,0.0585744924785,0.0,0.0,0.0
3671000000,366,3671000000,,0.0228979400454,-0.00358040274532,0.0668052458868,0.0,0.0,0.0
3681000000,367,3681000000,,0.010480787373,0.0189173439259,0.0767554883776,0.0,0.0,0.0
3692000000,368,3692000000,,-0.0111409009389,-0.0110457951537,0.0788422916067,0.0,0.0,0.0
3701000000,369,3701000000,,0.000273000048016,0.0170528966451,0.0641388052302,0.0,0.0,0.0
3711000000,370,3711000000,,-0.0133147054949,-0.0606441028337,0.0721348647655,0.0,0.0,0.0
3721000000,371,3721000000,,0.0128248767609,-0.00718772546146,0.0889073159579,0.0,0.0,0.0
3731000000,372,3731000000,,-0.00395157510767,-0.0192147799327,0.0804846187153,0.0,0.0,0.0
3742000000,373,3742000000,,4.07306133825e-05,0.0140081687651,0.0596571048453,0.0,0.0,0.0
3751000000,374,3751000000,,0.0367092328022,-0.00372380086652,0.0455980398438,0.0,0.0,0.0
3763000000,375,3763000000,,0.0142365657559,-0.00803870537907,0.0252955424263,0.0,0.0,0.0
3771000000,376,3771000000,,-0.00448053662569,-0.00354948930062,0.0728157119358,0.0,0.0,0.0
3781000000,377,3781000000,,0.0271151225231,0.0278371314298,0.075449472128,0.0,0.0,0.0
3791000000,378,3791000000,,-0.00813944260033,-0.029123588129,0.10175113508,0.0,0.0,0.0
3801000000,379,3801000000,,0.0103830842733,0.0295811296703,0.0484059378158,0.0,0.0,0.0
3811000000,380,3811000000,,0.0037199950836,-0.00998782680149,0.0501112293729,0.0,0.0,0.0
3821000000,381,3821000000,,0.019012712829,-0.0344702934119,0.0565701155007,0.0,0.0,0.0
3831000000,382,3831000000,,-0.000160484623678,0.0151326144068,0.0340581765249,0.0,0.0,0.0
3841000000,383,3841000000,,0.00155668135788,0.0333630762779,0.0772106620369,0.0,0.0,0.0
3851000000,384,3851000000,,-0.0100166136198,0.02134270352,0.070683688978,0.0,0.0,0.0
3862000000,385,3862000000,,0.0181054516285,-0.00261390615372,0.0531860466659,0.0,0.0,0.0
3871000000,386,3871000000,,0.0109953814233,-0.027115612816,0.0871870379065,0.0,0.0,0.0
3882000000,387,3882000000,,-0.00101336526138,0.000731916781371,0.0736942380975,0.0,0.0,0.0
3892000000,388,3892000000,,-0.00747396909619,0.0372098394091,0.0726453785718,0.0,0.0,0.0
3901000000,389,3901000000,,-0.00442643473801,0.0328910456641,0.0461399247113,0.0,0.0,0.0
3911000000,390,3911000000,,-0.0128883795365,0.00293040023987,0.020727704763,0.0,0.0,0.0
3921000000,391,3921000000,,0.0097341773969,0.0204871201365,0.0832916602467,0.0,0.0,0.0
3931000000,392,3931000000,,0.00948515286618,0.00586279781971,0.0463476653082,0.0,0.0,0.0
3948000000,393,3948000000,,0.00340014559973,-0.0100976439281,0.0498392442304,0.0,0.0,0.0
3953000000,394,3953000000,,0.00638207884794,-0.00246197653636,0.0722955332331,0.0,0.0,0.0
3961000000,395,3961000000,,-0.00404547326711,-0.0195528173427,0.0504637821604,0.0,0.0,0.0
3971000000,396,3971000000,,0.0106201789098,-0.0220456905097,0.0320783393177,0.0,0.0,0.0
3982000000,397,3982000000,,0.0189090097552,-0.00325048691936,0.0127235445288,0.0,0.0,0.0
3991000000,398,3991000000,,-0.000864964215076,0.0374150076845,0.0816576920099,0.0,0.0,0.0
4006000000,399,4006000000,,-0.0213630787582,-0.0504159850775,0.00701966901995,0.0,0.0,0.0
4015000000,400,4015000000,,-0.0215077686059,0.0188988930217,0.0425166399796,0.0,0.0,0.0
4032000000,402,4032000000,,0.0209094446129,-0.0282440329614,0.00862952875521,0.0,0.0,0.0
4043000000,403,4043000000,,0.00802908867121,0.00917839719334,0.0566053188774,0.0,0.0,0.0
4051000000,404,4051000000,,0.0327068899366,0.0230018990331,0.0398818734542,0.0,0.0,0.0
4061000000,405,4061000000,,-0.0070357455192,-0.0127150393651,0.0318626593203,0.0,0.0,0.0
4071000000,406,4071000000,,-0.0327376860796,0.00996468222284,0.0370067727431,0.0,0.0,0.0
4081000000,407,4081000000,,0.00506465622195,-0.00972359062295,0.0421747502391,0.0,0.0,0.0
4091000000,408,4091000000,,0.0198820754918,-0.0292867534637,-0.0198438999918,0.0,0.0,0.0
4103000000,409,4103000000,,0.0209461012421,-0.00621511899442,0.0508694043392,0.0,0.0,0.0
4111000000,410,4111000000,,0.000372372432123,-0.0179695291122,0.0336543424388,0.0,0.0,0.0
4122000000,411,4122000000,,-0.0213068053759,0.035301249724,0.0390682071194,0.0,0.0,0.0
4133000000,412,4133000000,,-0.0399340995594,0.00832715485038,0.00169024856736,0.0,0.0,0.0
4143000000,413,4143000000,,-0.0027951491612,0.0433149140051,-0.0162459122043,0.0,0.0,0.0
4151000000,414,4151000000,,-0.00983208465162,0.00337718906898,0.0350580095362,0.0,0.0,0.0
4161000000,415,4161000000,,0.00606202243248,-0.00316845979227,-0.0257583990472,0.0,0.0,0.0
4171000000,416,4171000000,,0.0189608200636,0.00289095979369,-0.0112534779548,0.0,0.0,0.0
4181000000,417,4181000000,,0.0096771657131,-0.00164121949219,0.00437186107851,0.0,0.0,0.0
4193000000,418,4193000000,,-0.0855107801996,-0.034108778527,0.0071556572074,0.0,0.0,0.0
4202000000,419,4202000000,,0.0138034826365,-0.000598993960441,0.00943598202109,0.0,0.0,0.0
4212000000,420,4212000000,,-0.0255464460811,0.0154709888992,0.0316958779562,0.0,0.0,0.0
4221000000,421,4221000000,,0.0124838310414,0.0158591601838,0.0199972630338,0.0,0.0,0.0
4231000000,422,4231000000,,-0.0372115892149,0.0119396413217,0.0171888994416,0.0,0.0,0.0
4241000000,423,4241000000,,0.00752047451865,0.00440455480709,0.0372054334798,0.0,0.0,0.0
4251000000,424,4251000000,,0.00693718511411,-0.0461535536932,0.0214588309281,0.0,0.0,0.0
4261000000,425,4261000000,,-0.0265734521827,-0.0277590720149,0.00880115922792,0.0,0.0,0.0
4272000000,426,4272000000,,0.0176652546024,-0.0128241306969,0.0329902100484,0.0,0.0,0.0
4281000000,427,4281000000,,-0.00209708236882,-0.0180380466248,0.0647691809538,0.0,0.0,0.0
4291000000,428,4291000000,,0.0392666401851,-0.00911810932127,0.0613507373768,0.0,0.0,0.0
4303000000,429,4303000000,,-0.0193562540771,0.00318963255958,0.0385955034543,0.0,0.0,0.0
4312000000,430,4312000000,,-0.0490156623238,-0.0158336708392,0.0235620548643,0.0,0.0,0.0
4320000000,431,4320000000,,-0.00836393905198,0.0246321376471,0.0290317703708,0.0,0.0,0.0
4331000000,432,4331000000,,-0.0107828896353,0.00297015879672,0.00606993642854,0.0,0.0,0.0
4343000000,433,4343000000,,0.0482817360323,-0.0175880947738,0.0059742845939,0.0,0.0,0.0
4351000000,434,4351000000,,0.00258042400389,0.0282616654729,0.0165320602731,0.0,0.0,0.0
4361000000,435,4361000000,,-0.0198059303171,0.0456453630168,0.0179726758838,0.0,0.0,0.0
4371000000,436,4371000000,,0.0125166296237,-0.0208748471466,0.0234313636688,0.0,0.0,0.0
4381000000,437,4381000000,,-0.00154238510653,-0.0153512368102,0.0446702249149,0.0,0.0,0.0
4391000000,438,4391000000,,0.0135920335653,0.000275052240483,0.0330373194533,0.0,0.0,0.0
4401000000,439,4401000000,,-0.0151714370576,0.016471271505,-0.0175634416688,0.0,0.0,0.0
4411000000,440,4411000000,,-0.00259683846149,-0.0213655307629,0.0340327619295,0.0,0.0,0.0
4421000000,441,4421000000,,0.0367383099636,0.00392558255431,0.0531553250088,0.0,0.0,0.0
4432000000,442,4432000000,,-0.011822346955,0.00136657929485,0.0310594680307,0.0,0.0,0.0
4442000000,443,4442000000,,-0.00687683038512,0.0356571782393,0.0104519728269,0.0,0.0,0.0
4452000000,444,4452000000,,0.0361311328005,0.0163432054943,0.0442711920128,0.0,0.0,0.0
4461000000,445,4461000000,,0.0411825484948,-0.0234178707254,0.00503013567619,0.0,0.0,0.0
4472000000,446,4472000000,,0.000554101756914,0.0147492699086,0.02865688601,0.0,0.0,0.0
4481000000,447,4481000000,,0.0274563631938,-0.0037469308886,-0.00372318995579,0.0,0.0,0.0
4491000000,448,4491000000,,-0.00242317041579,0.00232201360615,0.0243510354155,0.0,0.0,0.0
4501000000,449,4501000000,,-0.0150918873037,0.00131861760736,0.0590994360949,0.0,0.0,0.0
4511000000,450,4511000000,,-0.0124721866601,-0.0255245974453,-0.0048988913002,0.0,0.0,0.0
4522000000,451,4522000000,,-0.00224578994431,-0.0480573334928,0.0397896570845,0.0,0.0,0.0
4545000000,452,4545000000,,0.0427442779535,-0.0162894960701,0.00601648030065,0.0,0.0,0.0
4545000000,453,4545000000,,-0.0175689342209,0.00412168347386,0.0321791923923,0.0,0.0,0.0
4556000000,454,4556000000,,-0.0178309725997,-0.0315939587838,0.0435969468877,0.0,0.0,0.0
4574000000,455,4574000000,,-0.00551664002283,-0.0208323806585,-3.52913690489e-05,0.0,0.0,0.0
4574000000,456,4574000000,,-0.0124075639412,-0.0478660701153,0.0360586146835,0.0,0.0,0.0
4582000000,457,4582000000,,-0.00884123476292,-0.012371187487,0.0149458915693,0.0,0.0,0.0
4592000000,458,4592000000,,0.0069329390294,-0.0128747165489,-0.00232504741502,0.0,0.0,0.0
4604000000,459,4604000000,,0.0269686539117,0.00617859418713,0.000160939630369,0.0,0.0,0.0
4611000000,460,4611000000,,-0.00126464310907,-0.0209493588432,0.0246756629388,0.0,0.0,0.0
4622000000,461,4622000000,,-0.0317168986602,0.0070517290974,0.00972720923749,0.0,0.0,0.0
4637000000,462,4637000000,,0.0342355578509,0.015303107088,0.0371606849534,0.0,0.0,0.0
4640000000,463,4640000000,,-0.0166980376671,-0.00893951257908,0.0192530927948,0.0,0.0,0.0
4653000000,464,4653000000,,0.0193474401391,-0.0782546902333,0.0366350515177,0.0,0.0,0.0
4661000000,465,4661000000,,-0.0278148448706,-0.0130963592874,-0.0034956704904,0.0,0.0,0.0
4671000000,466,4671000000,,-0.00820636867818,0.0214275036341,0.0297885813951,0.0,0.0,0.0
4691000000,468,4691000000,,-0.0114232039428,-0.0218485938691,0.0441694363522,0.0,0.0,0.0
4701000000,469,4701000000,,-0.000787788076351,0.00183188933733,0.0253535410404,0.0,0.0,0.0
4711000000,470,4711000000,,-0.00919790643591,0.00850143603415,0.0222705272707,0.0,0.0,0.0
4721000000,471,4721000000,,0.0149493560589,0.00436746066123,0.0189870376786,0.0,0.0,0.0
4731000000,472,4731000000,,-0.00597840091463,-0.0327796591695,0.0189286305803,0.0,0.0,0.0
4743000000,473,4743000000,,0.00990030790074,0.00387780493294,-0.0104255785582,0.0,0.0,0.0
4752000000,474,4752000000,,-0.0202295375508,-0.00285206076051,0.01156762944,0.0,0.0,0.0
4761000000,475,4761000000,,-0.0218229786133,-0.0286501959062,-0.0178966224914,0.0,0.0,0.0
4771000000,476,4771000000,,-0.0420904007133,-0.021083190452,-0.00809359576295,0.0,0.0,0.0
4782000000,477,4782000000,,0.00903056519903,-0.011961797821,-0.0135197083262,0.0,0.0,0.0
4791000000,478,4791000000,,0.00721234431523,-0.00142784849377,-0.00394818052787,0.0,0.0,0.0
4802000000,479,4802000000,,-0.00670406888157,0.0226221969431,0.0118946251067,0.0,0.0,0.0
4812000000,480,4812000000,,-0.0138238361866,0.0137349764934,0.00417752296555,0.0,0.0,0.0
4826000000,481,4826000000,,-0.0232344328639,0.023641149852,0.0273859514211,0.0,0.0,0.0
4831000000,482,4831000000,,-0.0237662030592,-0.0171171552281,-0.0336153433634,0.0,0.0,0.0
4845000000,483,4845000000,,0.00828114897434,0.00848112783256,-0.0167094436833,0.0,0.0,0.0
4851000000,484,4851000000,,0.012836614606,-0.0316778505824,-0.0436686681205,0.0,0.0,0.0
4861000000,485,4861000000,,-0.0221016350578,-0.00857753375732,-0.0180878997026,0.0,0.0,0.0
4871000000,486,4871000000,,-0.000803196563995,0.000224401757009,-0.0228733243913,0.0,0.0,0.0
4881000000,487,4881000000,,-0.0107087056441,0.00902827640019,0.00945623783091,0.0,0.0,0.0
4891000000,488,4891000000,,-0.0105398576939,-0.0168694770677,-0.0255861167415,0.0,0.0,0.0
4904000000,489,4904000000,,-0.00588707482565,-0.0122540440615,-0.0505839883905,0.0,0.0,0.0
4911000000,490,4911000000,,0.031123927833,-0.0115754590988,-0.00507088869868,0.0,0.0,0.0
4921000000,491,4921000000,,-0.0358896493842,-0.0155292901637,0.00141320529416,0.0,0.0,0.0
4930000000,492,4930000000,,0.00419468914982,-0.00429108483204,0.0184724947164,0.0,0.0,0.0
4941000000,493,4941000000,,-0.0164894424854,-0.0218866699822,0.00575190114436,0.0,0.0,0.0
4953000000,494,4953000000,,0.00413036644515,0.0314390709741,-0.0475484281075,0.0,0.0,0.0
4963000000,495,4963000000,,-0.019525505093,-0.0249129197515,-0.0269505649142,0.0,0.0,0.0
4972000000,496,4972000000,,-0.0211214645266,0.00748163366743,-0.0294412941439,0.0,0.0,0.0
4981000000,497,4981000000,,0.00250662550483,0.0336771835723,-0.0367310427412,0.0,0.0,0.0
4991000000,498,4991000000,,-0.00718088750312,0.016517612211,-0.0194790301898,0.0,0.0,0.0
5001000000,499,5001000000,,0.00890642991566,0.00379260113215,-0.0420709461125,0.0,0.0,0.0
5011000000,500,5011000000,,0.0269703948739,-0.0320593834679,-0.0201160048388,0.0,0.0,0.0
5021000000,501,5021000000,,0.00138977574558,0.00669986503937,-0.0233847955201,0.0,0.0,0.0
5031000000,502,5031000000,,0.0332525775438,0.00907558405716,0.0347660053715,0.0,0.0,0.0
5041000000,503,5041000000,,-0.0341557660212,-0.0077755594346,0.0086991424585,0.0,0.0,0.0
5051000000,504,5051000000,,0.0246011181397,0.0057934372325,-0.00466498584412,0.0,0.0,0.0
5061000000,505,5061000000,,-0.0320824348577,-0.00970028709161,0.0199605634162,0.0,0.0,0.0
5071000000,506,5071000000,,-0.00264257972371,8.65574745958e-05,-0.0278694495848,0.0,0.0,0.0
5082000000,507,5082000000,,0.0241882400455,-0.0129063236383,-0.0308320887244,0.0,0.0,0.0
5091000000,508,5091000000,,0.00484479462138,-0.0121474842944,0.010392308101,0.0,0.0,0.0
5102000000,509,5102000000,,0.00229695396169,-0.047390761999,-0.0162632838468,0.0,0.0,0.0
5111000000,510,5111000000,,0.00486061526261,0.0245504285773,-0.0109851825668,0.0,0.0,0.0
5121000000,511,5121000000,,-0.00834027002405,-0.0158624945507,-0.00752453934891,0.0,0.0,0.0
5131000000,512,5131000000,,0.00998743343017,-0.016947011539,-0.0526760345989,0.0,0.0,0.0
5141000000,513,5141000000,,0.00167669382072,-0.0141733903069,-0.00981575812525,0.0,0.0,0.0
5152000000,514,5152000000,,0.0304963762748,-0.00813887962003,0.00032727084755,0.0,0.0,0.0
5161000000,515,5161000000,,0.0181372113191,0.00651503117434,-0.00383652121461,0.0,0.0,0.0
5171000000,516,5171000000,,-0.0200055183397,-0.0267106696773,-0.00317587880719,0.0,0.0,0.0
5181000000,517,5181000000,,-0.0419431276394,-0.0137804350141,0.0128749323613,0.0,0.0,0.0
5191000000,518,5191000000,,-0.0210090915533,0.0167065394758,-0.0057082338373,0.0,0.0,0.0
5202000000,519,5202000000,,-0.00777006153689,-0.064790706407,-0.00721035621452,0.0,0.0,0.0
5211000000,520,5211000000,,-0.0405446324541,-0.00860622022071,-0.00979638152535,0.0,0.0,0.0
5221000000,521,5221000000,,0.0142930363309,0.00684957152525,-0.011324774135,0.0,0.0,0.0
5231000000,522,5231000000,,-0.0271748869407,0.0165751377923,-0.00578960673919,0.0,0.0,0.0
5241000000,523,5241000000,,-0.0244760985586,0.0156035038543,0.00502203094584,0.0,0.0,0.0
5251000000,524,5251000000,,0.0355166048547,-0.0140721047643,-0.0174465934124,0.0,0.0,0.0
5261000000,525,5261000000,,0.0164061390213,0.0220936306663,-0.038436599334,0.0,0.0,0.0
5271000000,526,5271000000,,-0.0401442587504,-0.0388439633756,0.0193765068769,0.0,0.0,0.0
5281000000,527,5281000000,,0.0051511020809,-0.0124717421753,0.0325898177013,0.0,0.0,0.0
5291000000,528,5291000000,,0.0059530623742,-0.0160621344398,-0.00825883027878,0.0,0.0,0.0
5301000000,529,5301000000,,0.0143390515704,-0.014670228922,-0.00969790538561,0.0,0.0,0.0
5311000000,530,5311000000,,-0.015326167694,-0.00829031106094,-0.0104760250206,0.0,0.0,0.0
5321000000,531,5321000000,,-0.024876756922,0.0325580049833,0.0209121435717,0.0,0.0,0.0
5331000000,532,5331000000,,-0.00178509079485,0.0375146462672,-0.0421354929741,0.0,0.0,0.0
5341000000,533,5341000000,,0.0238676066008,0.00900737652126,-0.0123652610509,0.0,0.0,0.0
5351000000,534,5351000000,,-0.0034136981979,0.00294687162848,-0.0279334914052,0.0,0.0,0.0
5361000000,535,5361000000,,0.0421820503482,-0.0163812070405,-0.0127366985973,0.0,0.0,0.0
5371000000,536,5371000000,,0.0176096471386,-0.00537840432362,-0.015229578313,0.0,0.0,0.0
5382000000,537,5382000000,,0.0216377137383,0.00379089947651,-0.0268393084283,0.0,0.0,0.0
5391000000,538,5391000000,,0.0168118350302,0.0181531364198,0.0151768286126,0.0,0.0,0.0
5401000000,539,5401000000,,0.044337526834,0.00475202214969,0.0225584635346,0.0,0.0,0.0
5411000000,540,5411000000,,0.000613975993602,0.0125888183957,-0.0257968054585,0.0,0.0,0.0
5421000000,541,5421000000,,-0.0261534231073,-0.00540892452144,-0.0208632322088,0.0,0.0,0.0
5431000000,542,5431000000,,0.0154942762271,0.000745090971121,-0.0220313626648,0.0,0.0,0.0
5441000000,543,5441000000,,0.0109765227412,0.000419571947141,-0.00236404129657,0.0,0.0,0.0
5451000000,544,5451000000,,-0.0474406790565,-0.00703689140964,0.00818409855523,0.0,0.0,0.0
5461000000,545,5461000000,,-0.00322062470318,0.00543083668847,-0.0583933162069,0.0,0.0,0.0
5471000000,546,5471000000,,0.0235878245935,0.00237788284135,0.00501174637483,0.0,0.0,0.0
5481000000,547,5481000000,,-0.00340403828937,-0.0170507610509,-0.0610874206793,0.0,0.0,0.0
5491000000,548,5491000000,,0.00360666954357,0.0107618210436,-0.0528713489287,0.0,0.0,0.0
5501000000,549,5501000000,,0.0141311956207,-0.00665775207692,-0.00970111665696,0.0,0.0,0.0
5511000000,550,5511000000,,-0.0191950066733,0.0285347244926,-0.0295398310907,0.0,0.0,0.0
5521000000,551,5521000000,,-0.00783159647047,-0.00899040946717,0.034528807389,0.0,0.0,0.0
5531000000,552,5531000000,,-0.0259970825411,-0.0274388074179,-0.012199464802,0.0,0.0,0.0
5541000000,553,5541000000,,0.0192351080214,-0.0158468661429,0.00279063613473,0.0,0.0,0.0
5551000000,554,5551000000,,0.00927737116732,0.023528107299,-0.000762641326596,0.0,0.0,0.0
5560000000,555,5560000000,,-0.0224292243003,-0.00881674517578,-0.0071471561711,0.0,0.0,0.0
5571000000,556,5571000000,,0.0116509033835,-0.0251018161872,0.0393140699197,0.0,0.0,0.0
5581000000,557,5581000000,,-0.00998717217389,-0.00647877827239,-0.00040259546318,0.0,0.0,0.0
5591000000,558,5591000000,,0.0154832302808,-0.0124257654706,0.00207253681734,0.0,0.0,0.0
5600000000,559,5600000000,,0.00455217264422,-0.0076627204346,0.00467807434948,0.0,0.0,0.0
5611000000,560,5611000000,,0.0360623126863,0.0365294075656,0.0408310648918,0.0,0.0,0.0
5621000000,561,5621000000,,-0.0201710069864,-0.0258159838973,-0.0098735110719,0.0,0.0,0.0
5631000000,562,5631000000,,0.0198338708714,0.0396411321657,0.0220784326205,0.0,0.0,0.0
5641000000,563,5641000000,,-0.0205933515061,-0.00275406372632,0.00355863135223,0.0,0.0,0.0
5651000000,564,5651000000,,-0.0204295175339,-0.0352465910361,0.0345719479776,0.0,0.0,0.0
5661000000,565,5661000000,,-0.0229590410525,0.00736259245976,-0.0476769782128,0.0,0.0,0.0
5671000000,566,5671000000,,0.0295544824614,0.00617280897915,-0.00940908564197,0.0,0.0,0.0
5681000000,567,5681000000,,-0.0181401347706,-0.037325697699,0.0348717997028,0.0,0.0,0.0
5691000000,568,5691000000,,0.0170149137845,-0.0140107074547,-0.0332057966356,0.0,0.0,0.0
5702000000,569,5702000000,,-0.0713937827511,-0.0373708807987,0.0220817360758,0.0,0.0,0.0
5711000000,570,5711000000,,0.00755187987297,-0.0104059415794,0.012877112273,0.0,0.0,0.0
5721000000,571,5721000000,,-0.0176057336757,-0.0510497731331,0.0204626590146,0.0,0.0,0.0
5731000000,572,5731000000,,-0.00184565732678,0.0340847868783,0.0312775957566,0.0,0.0,0.0
5743000000,573,5743000000,,0.0190520871261,0.0319908109682,0.0330356784454,0.0,0.0,0.0
5752000000,574,5752000000,,0.0043076923435,-0.0205565465133,0.00746200071878,0.0,0.0,0.0
5761000000,575,5761000000,,-0.0396825445888,0.0185064216075,-0.00402215964066,0.0,0.0,0.0
5772000000,576,5772000000,,0.0329193431993,0.0220072726418,0.0225946427466,0.0,0.0,0.0
5781000000,577,5781000000,,0.00450602849238,0.00490111487865,0.00913655795201,0.0,0.0,0.0
5791000000,578,5791000000,,0.0263739434622,-0.019918192851,0.00119068140605,0.0,0.0,0.0
5801000000,579,5801000000,,-0.0164605415861,0.0162757410877,0.00745755981169,0.0,0.0,0.0
5811000000,580,5811000000,,-0.0101282049532,0.0315991166171,-0.034888795447,0.0,0.0,0.0
5822000000,581,5822000000,,-0.00532077658261,-0.0086831303443,0.0132768812219,0.0,0.0,0.0
5833000000,582,5833000000,,0.00650274509836,0.00349376271231,0.00500208127352,0.0,0.0,0.0
5842000000,583,5842000000,,0.027634031076,-0.000519906724228,-0.00372348637163,0.0,0.0,0.0
5851000000,584,5851000000,,0.00822803593508,0.0212363230166,-0.0231926380176,0.0,0.0,0.0
5861000000,585,5861000000,,-0.0204926286992,0.0245797747357,0.0340934889597,0.0,0.0,0.0
5871000000,586,5871000000,,-0.0163738618383,-0.0039562804515,-0.00556406990887,0.0,0.0,0.0
5881000000,587,5881000000,,-0.0123085602165,-0.0208384691667,0.00954777058104,0.0,0.0,0.0
5891000000,588,5891000000,,-0.0271331140222,0.0145614553883,0.0199953351619,0.0,0.0,0.0
5901000000,589,5901000000,,-0.0247144114415,0.0178830900615,0.000435440769109,0.0,0.0,0.0
5911000000,590,5911000000,,-0.0191696107266,-0.0101029362121,0.0345789492504,0.0,0.0,0.0
5921000000,591,5921000000,,-0.00843554707564,0.0110074937819,-0.0237621289197,0.0,0.0,0.0
5931000000,592,5931000000,,0.0290438822551,-0.00631783220703,0.000801323774517,0.0,0.0,0.0
5941000000,593,5941000000,,-0.00358980318763,-0.0449003357651,-0.0103123235775,0.0,0.0,0.0
5951000000,594,5951000000,,0.00810334465241,-0.00906295152135,0.00596034211412,0.0,0.0,0.0
5961000000,595,5961000000,,0.0211335632713,-0.00300291361832,-0.00452930800193,0.0,0.0,0.0
5971000000,596,5971000000,,-0.0120302596239,0.0212110977145,-0.00699500617943,0.0,0.0,0.0
5982000000,597,5982000000,,0.00445377593702,-0.00599524465435,0.0332677873472,0.0,0.0,0.0
5991000000,598,5991000000,,-0.00385247971361,-0.00200222728245,0.0215392603762,0.0,0.0,0.0
6002000000,599,6002000000,,0.00902675222101,0.0175899423369,0.00786179992786,0.0,0.0,0.0
6011000000,600,6011000000,,0.00920614736734,0.000764875641649,-0.00507612005376,0.0,0.0,0.0
6021000000,601,6021000000,,-0.00695619152962,0.00500835375202,-0.00967068096592,0.0,0.0,0.0
6031000000,602,6031000000,,0.0277924354381,0.0105958629056,-0.0172699787469,0.0,0.0,0.0
6042000000,603,6042000000,,0.0119404163513,0.00451698789606,-0.0244118982829,0.0,0.0,0.0
6051000000,604,6051000000,,-0.00582771292016,0.000792794469483,0.0277556496389,0.0,0.0,0.0
6061000000,605,6061000000,,0.0280526580253,-0.0112050058246,-0.0150030913516,0.0,0.0,0.0
6072000000,606,6072000000,,0.00294700057639,-0.0251433375439,-0.0201514800705,0.0,0.0,0.0
6083000000,607,6083000000,,-0.0191700538891,-0.00712653075623,-0.0242685920615,0.0,0.0,0.0
6091000000,608,6091000000,,-0.0151559616686,-0.00694729965674,-0.0351426080694,0.0,0.0,0.0
6101000000,609,6101000000,,-0.0081789907168,-0.0149805766821,-0.00911959383436,0.0,0.0,0.0
6111000000,610,6111000000,,-0.00703085471638,-0.0584416123719,0.0148276593364,0.0,0.0,0.0
6121000000,611,6121000000,,-0.0016564859318,-0.0142253140719,-0.0219247074173,0.0,0.0,0.0
6131000000,612,6131000000,,-0.0220076769309,0.00567065991078,0.0198945659757,0.0,0.0,0.0
6142000000,613,6142000000,,-0.0109170598969,0.00399316507196,0.0061828890423,0.0,0.0,0.0
6157000000,614,6157000000,,-0.022105911042,0.0145344473061,-0.0110781678648,0.0,0.0,0.0
6163000000,615,6163000000,,-0.0068384226769,0.00434498603514,-0.0329842177147,0.0,0.0,0.0
6171000000,616,6171000000,,0.0364449610641,0.00544523686578,-0.0130727524005,0.0,0.0,0.0
6181000000,617,6181000000,,-0.00165837368016,-0.00751165802895,-0.0163795819293,0.0,0.0,0.0
6191000000,618,6191000000,,0.00579539624829,-0.0086837706517,0.0049716563739,0.0,0.0,0.0
6201000000,619,6201000000,,0.000114666289306,-0.0240768374904,-0.00925005944927,0.0,0.0,0.0
6211000000,620,6211000000,,0.0127565353291,0.0131783673509,-0.0124035586224,0.0,0.0,0.0
6222000000,621,6222000000,,-0.00426153497857,-0.000995282769148,0.0194652942834,0.0,0.0,0.0
6232000000,622,6232000000,,0.0343577602025,0.000726541683458,-0.0332685542993,0.0,0.0,0.0
6242000000,623,6242000000,,-0.0107912886448,-0.00761076322136,0.0160679929238,0.0,0.0,0.0
6251000000,624,6251000000,,0.00132604080412,0.00634956410462,-0.0134149624225,0.0,0.0,0.0
6261000000,625,6261000000,,-0.00815252110509,0.0164886371933,0.00902826437068,0.0,0.0,0.0
6271000000,626,6271000000,,-0.0189757558072,-0.00548537721643,-0.000630940761124,0.0,0.0,0.0
6281000000,627,6281000000,,0.0141587006347,0.00471547403394,0.0215651285906,0.0,0.0,0.0
6291000000,628,6291000000,,0.0144409762297,-0.0159667216959,-0.0231382113706,0.0,0.0,0.0
6301000000,629,6301000000,,-0.0158884876168,0.00828172160839,0.0193995172932,0.0,0.0,0.0
6311000000,630,6311000000,,-0.0178017814752,0.0154090958293,0.0240994586953,0.0,0.0,0.0
6321000000,631,6321000000,,0.0171861030516,-0.0196270399922,0.0113770161019,0.0,0.0,0.0
6331000000,632,6331000000,,-0.0278728277406,0.00351977492033,0.014442772875,0.0,0.0,0.0
6341000000,633,6341000000,,-0.00138552488661,0.0199109543064,0.0166532525948,0.0,0.0,0.0
6351000000,634,6351000000,,-0.00749585628888,-0.0164235380529,0.00155824687443,0.0,0.0,0.0
6361000000,635,6361000000,,-0.00936240967382,-0.018102838784,0.0147944577154,0.0,0.0,0.0
6371000000,636,6371000000,,0.000822478289425,-0.0105783965313,0.00335666903911,0.0,0.0,0.0
6381000000,637,6381000000,,-0.00753493146983,0.0217057812319,-0.00857625257926,0.0,0.0,0.0
6391000000,638,6391000000,,0.0441853641732,0.00483512631136,0.0363982963534,0.0,0.0,0.0
6401000000,639,6401000000,,-0.0159644335997,0.0178632067719,0.0172613353798,0.0,0.0,0.0
6411000000,640,6411000000,,0.00296290993725,-0.0301405824556,-0.00299935653988,0.0,0.0,0.0
6421000000,641,6421000000,,0.0223411910883,-0.0155946628195,0.0139027102165,0.0,0.0,0.0
6431000000,642,6431000000,,-0.0205074299809,-0.00290994087046,0.0568852877476,0.0,0.0,0.0
6441000000,643,6441000000,,0.00801180211251,-0.0598499486905,-0.00926945591583,0.0,0.0,0.0
6451000000,644,6451000000,,-0.0219320727015,-4.60712996e-05,0.0293380796419,0.0,0.0,0.0
6461000000,645,6461000000,,0.0137598108577,0.0271894805346,0.0139357388514,0.0,0.0,0.0
6471000000,646,6471000000,,0.0180979375073,0.0064785916326,0.0368322366405,0.0,0.0,0.0
6482000000,647,6482000000,,0.0154881600786,0.0412241747363,0.037921850012,0.0,0.0,0.0
6491000000,648,6491000000,,-0.0283885003917,0.00302212075936,0.00104268845669,0.0,0.0,0.0
6501000000,649,6501000000,,0.00691350255369,0.00858216388251,0.0168166437127,0.0,0.0,0.0
6511000000,650,6511000000,,-0.0151628412741,0.0285353663862,0.00275430748801,0.0,0.0,0.0
6521000000,651,6521000000,,0.0105112079618,-0.0352651985323,0.0361672641328,0.0,0.0,0.0
6531000000,652,6531000000,,0.0288209118238,-0.001702887403,0.0336329783797,0.0,0.0,0.0
6541000000,653,6541000000,,-0.00436287224267,-0.0213175725895,0.0189026945446,0.0,0.0,0.0
6551000000,654,6551000000,,0.0139997561276,0.000238336026765,0.00855307805397,0.0,0.0,0.0
6561000000,655,6561000000,,0.00122599963682,0.0267167754612,0.0317939903577,0.0,0.0,0.0
6571000000,656,6571000000,,0.00649527296951,-0.00974630752026,0.0386061247464,0.0,0.0,0.0
6581000000,657,6581000000,,0.0731740111834,0.00262588266029,0.00999024075596,0.0,0.0,0.0
6591000000,658,6591000000,,0.0410026109091,0.000842595563152,0.0140191507597,0.0,0.0,0.0
6601000000,659,6601000000,,0.0446732402875,-0.00583536596585,0.0294089332835,0.0,0.0,0.0
6611000000,660,6611000000,,0.00835803455739,0.0108759555702,-0.0132729922087,0.0,0.0,0.0
6621000000,661,6621000000,,0.0186544834366,0.000172697553675,0.0519607757433,0.0,0.0,0.0
6631000000,662,6631000000,,0.00535140509001,0.0110413066107,0.0423438430531,0.0,0.0,0.0
6641000000,663,6641000000,,0.103363092343,-0.000809831893044,0.0689724584603,0.0,0.0,0.0
6651000000,664,6651000000,,0.0177015856545,-0.00179839413923,0.0376702233,0.0,0.0,0.0
6661000000,665,6661000000,,0.0296714015549,-0.00873476020566,0.0795377050144,0.0,0.0,0.0
6671000000,666,6671000000,,0.0204087790634,0.0163606676137,0.0489557026635,0.0,0.0,0.0
6681000000,667,6681000000,,0.0568330726366,0.010808443683,0.0350565109725,0.0,0.0,0.0
6691000000,668,6691000000,,0.0586215181947,-0.0477565518603,0.00337234412757,0.0,0.0,0.0
6701000000,669,6701000000,,0.0544976622293,0.00843180765103,0.02841597931,0.0,0.0,0.0
6711000000,670,6711000000,,0.0368031177584,-0.0159594991967,-0.0111679178381,0.0,0.0,0.0
6721000000,671,6721000000,,0.0914364823948,-0.0376995090841,-0.0126280001897,0.0,0.0,0.0
6731000000,672,6731000000,,0.0617719477337,-0.00558877164457,0.0131110984308,0.0,0.0,0.0
6741000000,673,6741000000,,0.0630823517463,0.00326592765401,-0.00934006976968,0.0,0.0,0.0
6751000000,674,6751000000,,0.0369688204673,-0.0101541663064,0.0350644761512,0.0,0.0,0.0
6761000000,675,6761000000,,0.0460010425236,-0.022743330368,0.0160164584032,0.0,0.0,0.0
6771000000,676,6771000000,,0.0518844323921,0.0386417079681,0.0309561603548,0.0,0.0,0.0
6781000000,677,6781000000,,0.0154467389611,0.0137105876697,0.0201585492332,0.0,0.0,0.0
6791000000,678,6791000000,,0.00990945574358,-0.0274857918101,0.0311449506375,0.0,0.0,0.0
6801000000,679,6801000000,,0.0226475127911,0.00247811060273,0.0393934166442,0.0,0.0,0.0
6812000000,680,6812000000,,0.0376341036599,0.0105916253281,-0.0114869388333,0.0,0.0,0.0
6822000000,681,6822000000,,0.0459811106718,0.00268217381222,0.0306571706672,0.0,0.0,0.0
6831000000,682,6831000000,,-0.0059409001914,0.02553611572,-0.011691924556,0.0,0.0,0.0
6841000000,683,6841000000,,0.0281239897042,0.0276124737307,0.0407924084041,0.0,0.0,0.0
6851000000,684,6851000000,,0.0130903200487,-0.00272554659578,-0.012637318785,0.0,0.0,0.0
6862000000,685,6862000000,,0.0152766624919,-0.0364340920446,-0.00167015536817,0.0,0.0,0.0
6874000000,686,6874000000,,0.0164780991341,-0.0115905664563,-0.0127549457788,0.0,0.0,0.0
6881000000,687,6881000000,,0.00176461381957,0.0240630049519,0.00286082652071,0.0,0.0,0.0
6891000000,688,6891000000,,0.0349791006608,-0.00757719439144,0.00970973423608,0.0,0.0,0.0
6901000000,689,6901000000,,0.00608523727884,-0.01776435583,0.0236434943329,0.0,0.0,0.0
6912000000,690,6912000000,,-0.0410078454225,0.002930657712,0.0426657271693,0.0,0.0,0.0
6922000000,691,6922000000,,-0.00492457499362,0.0302363825993,-0.010368568581,0.0,0.0,0.0
6931000000,692,6931000000,,-0.0417169564367,0.0126629535629,-0.0165786824373,0.0,0.0,0.0
6941000000,693,6941000000,,-0.00886737476793,-0.025165953598,0.0108203895811,0.0,0.0,0.0
6951000000,694,6951000000,,-0.0142690672974,0.00132639668812,0.00155007358747,0.0,0.0,0.0
6961000000,695,6961000000,,-0.0263082804527,-0.0126360940053,-0.0129391736638,0.0,0.0,0.0
6971000000,696,6971000000,,-0.0262293287244,-0.00847778856984,-0.000576177315916,0.0,0.0,0.0
6981000000,697,6981000000,,-0.0718074104181,0.0436366979206,0.0305833639197,0.0,0.0,0.0
6991000000,698,6991000000,,-0.0345831087099,0.0246976050854,-0.015130750651,0.0,0.0,0.0
7003000000,699,7003000000,,-0.0520688457954,-0.00122098700544,0.0241449266752,0.0,0.0,0.0
7013000000,700,7013000000,,-0.0244122080515,1.12186927949e-05,-0.0158214796685,0.0,0.0,0.0
7021000000,701,7021000000,,-0.0409459055803,-0.0169548787318,-0.0221087506173,0.0,0.0,0.0
7031000000,702,7031000000,,-0.0619097172907,0.00563213641934,-0.0050253089556,0.0,0.0,0.0
7040000000,703,7040000000,,-0.055303312631,-0.00564074734341,-0.000110545893566,0.0,0.0,0.0
7051000000,704,7051000000,,-0.0260775882553,0.0387632771471,-0.00696393375868,0.0,0.0,0.0
7061000000,705,7061000000,,-0.0456226972487,-0.00680207782612,0.0152372427255,0.0,0.0,0.0
7071000000,706,7071000000,,-0.0271621604408,-0.0164128428505,-0.0287045355807,0.0,0.0,0.0
7081000000,707,7081000000,,-0.075027366679,-0.00533907622057,-0.0162195424635,0.0,0.0,0.0
7091000000,708,7091000000,,-0.0507019656899,0.0164354118607,-0.0523649713961,0.0,0.0,0.0
7101000000,709,7101000000,,-0.0834529981248,-0.0158370766582,-0.0380001115703,0.0,0.0,0.0
