%time,field.header.seq,field.header.stamp,field.header.frame_id,field.angular_velocities0,field.angular_velocities1,field.angular_velocities2,field.angular_velocities3
43000000,0,43000000,,-1.17006865993e-15,-1.1732251773e-15,-1.17322547804e-15,-1.17006893005e-15
45000000,1,45000000,,-2.35969740131e-15,-2.36165361901e-15,-2.36165392718e-15,-2.35969767886e-15
86000000,2,86000000,,-3.55466020603e-15,-3.55643553725e-15,-3.55649970568e-15,-3.55472436779e-15
127000000,3,127000000,,-4.74903985614e-15,-4.75161397509e-15,-4.75165570233e-15,-4.74908149405e-15
162000000,4,162000000,,0.000210298798506,0.000210300976338,-0.000210298798518,-0.00021030097635
206000000,5,206000000,,0.000256773647981,0.000170166425178,-0.000256773647995,-0.000170166425192
255000000,6,255000000,,0.000189159716824,0.000132650106722,-0.00018915971684,-0.000132650106737
297000000,7,297000000,,0.000135591091691,0.000210712088875,-0.000135591091708,-0.000210712088891
340000000,8,340000000,,0.00014178636541,0.000179959701627,-0.000141786365427,-0.000179959701644
378000000,9,378000000,,0.000128374009958,0.00014001662087,-0.000128374009976,-0.000140016620887
414000000,10,414000000,,0.00013512308183,0.00013377006979,-0.000135123081848,-0.000133770069808
452000000,11,452000000,,0.000131724753916,0.000133715904068,-0.000131724753934,-0.000133715904086
492000000,12,492000000,,0.000121251455157,0.000126173870808,-0.000121251455175,-0.000126173870826
535000000,13,535000000,,0.000108813822582,0.000115178690702,-0.0001088138226,-0.000115178690719
577000000,14,577000000,,9.77693070348e-05,0.000104196217359,-9.77693070523e-05,-0.000104196217376
614000000,15,614000000,,8.82895023406e-05,9.41705425646e-05,-8.82895023575e-05,-9.41705425815e-05
654000000,16,654000000,,8.00347712252e-05,8.52398528841e-05,-8.00347712416e-05,-8.52398529004e-05
692000000,17,692000000,,7.2924486933e-05,7.75020953302e-05,-7.29244869487e-05,-7.75020953459e-05
731000000,18,731000000,,6.64450125647e-05,7.04205073441e-05,-6.64450125797e-05,-7.04205073591e-05
772000000,19,772000000,,6.04965987166e-05,6.38126612041e-05,-6.04965987309e-05,-6.38126612184e-05
809000000,20,809000000,,5.50198609256e-05,5.75616821685e-05,-5.50198609393e-05,-5.75616821822e-05
860000000,21,860000000,,5.00163002562e-05,5.16151151324e-05,-5.00163002694e-05,-5.16151151455e-05
899000000,22,899000000,,4.53606017749e-05,4.58107487004e-05,-4.53606017877e-05,-4.58107487131e-05
934000000,23,934000000,,4.12102841556e-05,4.03326572849e-05,-4.12102841682e-05,-4.03326572974e-05
973000000,24,973000000,,3.75994789876e-05,3.51894063666e-05,-3.75994790001e-05,-3.5189406379e-05
1011000000,25,1011000000,,3.44413877945e-05,3.03423190153e-05,-3.4441387807e-05,-3.03423190278e-05
1055000000,26,1055000000,,3.16520220135e-05,2.56940768004e-05,-3.16520220262e-05,-2.5694076813e-05
1096000000,27,1096000000,,2.92074494713e-05,2.12363208065e-05,-2.92074494842e-05,-2.12363208193e-05
1137000000,28,1137000000,,2.68716380993e-05,1.67355453102e-05,-2.68716381125e-05,-1.67355453234e-05
1174000000,29,1174000000,,2.51133993579e-05,-7.25932216757e-06,-2.51133993714e-05,7.25932215414e-06
1213000000,30,1213000000,,2.37987075499e-05,-1.63925041241e-05,-2.37987075636e-05,1.63925041104e-05
1253000000,31,1253000000,,2.28852618347e-05,-2.09005997813e-05,-2.28852618487e-05,2.09005997673e-05
1293000000,32,1293000000,,1.00984141191e-05,-2.49733587059e-05,-1.00984141333e-05,2.49733586917e-05
1332000000,33,1332000000,,6.6578600316e-06,-2.95161668168e-05,-6.65786004592e-06,2.95161668025e-05
1378000000,34,1378000000,,6.19967486999e-06,-3.43745235575e-05,-6.19967488442e-06,3.43745235431e-05
1417000000,35,1417000000,,6.12885411703e-06,-3.94467626277e-05,-6.12885413153e-06,3.94467626132e-05
1457000000,36,1457000000,,5.98130818445e-06,-4.43169514205e-05,-5.98130819901e-06,4.43169514059e-05
1484000000,37,1484000000,,5.80830834047e-06,-4.87831269772e-05,-5.80830835506e-06,4.87831269627e-05
1541000000,38,1541000000,,5.66462773617e-06,-5.27730334614e-05,-5.66462775078e-06,5.27730334468e-05
1563000000,39,1563000000,,5.7847168622e-06,-5.59451245622e-05,-5.78471687684e-06,5.59451245475e-05
1626000000,40,1626000000,,6.12581870114e-06,-5.82019835322e-05,-6.12581871583e-06,5.82019835176e-05
1658000000,41,1658000000,,6.68417951408e-06,-5.94426894109e-05,-6.68417952883e-06,5.94426893962e-05
1697000000,42,1697000000,,7.51777809181e-06,-5.9413775601e-05,-7.51777810666e-06,5.94137755862e-05
1742000000,43,1742000000,,1.50558006384e-05,-2.79381164551e-05,-1.50558006534e-05,2.79381164402e-05
1774000000,44,1774000000,,2.03426762562e-05,-3.70287384272e-06,-2.03426762713e-05,3.70287382762e-06
1812000000,45,1812000000,,2.51579262116e-05,1.32859021088e-05,-2.51579262269e-05,-1.32859021241e-05
1859000000,46,1859000000,,2.82066850752e-05,2.75025139532e-05,-2.82066850907e-05,-2.75025139687e-05
1908000000,47,1908000000,,3.11036739769e-05,3.76898209862e-05,-3.11036739926e-05,-3.76898210019e-05
1928000000,48,1928000000,,3.3080918234e-05,4.7418756856e-05,-3.30809182499e-05,-4.74187568718e-05
1971000000,49,1971000000,,3.50380166354e-05,5.43059335983e-05,-3.50380166515e-05,-5.43059336143e-05
2019000000,50,2019000000,,3.62849420505e-05,6.05557957156e-05,-3.62849420667e-05,-6.05557957319e-05
2069000000,51,2069000000,,3.40821149682e-05,4.41870545744e-05,-3.40821149847e-05,-4.41870545908e-05
2096000000,52,2096000000,,3.49036085447e-05,4.52344924887e-05,-3.49036085613e-05,-4.52344925052e-05
2137000000,53,2137000000,,3.6773939579e-05,5.2588159878e-05,-3.67739395957e-05,-5.25881598947e-05
2181000000,54,2181000000,,3.88047619982e-05,6.11388272644e-05,-3.8804762015e-05,-6.11388272812e-05
2208000000,55,2208000000,,4.07437541698e-05,6.93569571419e-05,-4.07437541868e-05,-6.93569571588e-05
2262000000,56,2262000000,,4.25706616704e-05,7.71286962964e-05,-4.25706616874e-05,-7.71286963134e-05
2291000000,57,2291000000,,4.43140409479e-05,8.46237844296e-05,-4.4314040965e-05,-8.46237844467e-05
2325000000,58,2325000000,,4.594002852e-05,9.16760886228e-05,-4.59400285372e-05,-9.167608864e-05
2398000000,59,2398000000,,4.74004144412e-05,9.80672470467e-05,-4.74004144585e-05,-9.8067247064e-05
2408000000,60,2408000000,,4.8808369225e-05,0.0001041959983,-4.88083692425e-05,-0.000104195998317
2452000000,61,2452000000,,4.98116748834e-05,0.000108433541773,-4.9811674901e-05,-0.000108433541791
2485000000,62,2485000000,,4.46592480439e-05,8.4117229862e-05,-4.46592480617e-05,-8.41172298797e-05
2528000000,63,2528000000,,4.16876879096e-05,6.67224976857e-05,-4.16876879274e-05,-6.67224977035e-05
2562000000,64,2562000000,,3.95267454524e-05,5.51579178205e-05,-3.95267454703e-05,-5.51579178384e-05
2623000000,65,2623000000,,3.84240159658e-05,4.51678943341e-05,-3.84240159839e-05,-4.51678943522e-05
2647000000,66,2647000000,,3.74399408418e-05,3.66272168011e-05,-3.743994086e-05,-3.66272168193e-05
2692000000,67,2692000000,,3.70231450914e-05,3.05681807699e-05,-3.70231451097e-05,-3.05681807882e-05
2725000000,68,2725000000,,3.65874917355e-05,2.62857753749e-05,-3.6587491754e-05,-2.62857753933e-05
2767000000,69,2767000000,,3.6434905968e-05,2.20004863496e-05,-3.64349059865e-05,-2.20004863681e-05
2815000000,70,2815000000,,3.6293914529e-05,1.82833177742e-05,-3.62939145476e-05,-1.82833177928e-05
2855000000,71,2855000000,,3.99254520616e-05,3.86390547206e-05,-3.99254520803e-05,-3.86390547393e-05
2899000000,72,2899000000,,4.06042588571e-05,4.09467063651e-05,-4.06042588759e-05,-4.09467063838e-05
2925000000,73,2925000000,,4.02688832792e-05,3.70014749881e-05,-4.0268883298e-05,-3.70014750069e-05
2975000000,74,2975000000,,3.96675390977e-05,3.15069527164e-05,-3.96675391166e-05,-3.15069527353e-05
3033000000,75,3033000000,,3.89823010376e-05,2.56234226732e-05,-3.89823010565e-05,-2.56234226921e-05
3052000000,76,3052000000,,3.81376264151e-05,1.88199014905e-05,-3.81376264341e-05,-1.88199015095e-05
3103000000,77,3103000000,,3.73823051756e-05,1.29686867445e-05,-3.73823051947e-05,-1.29686867635e-05
3130000000,78,3130000000,,3.64720524918e-05,6.40749299095e-06,-3.6472052511e-05,-6.40749301009e-06
3186000000,79,3186000000,,3.55009139499e-05,-3.42714137933e-07,-3.55009139691e-05,3.42714118728e-07
3211000000,80,3211000000,,3.44681502401e-05,-7.17194984563e-06,-3.44681502594e-05,7.17194982636e-06
3253000000,81,3253000000,,3.34267569333e-05,-1.37446086698e-05,-3.34267569526e-05,1.37446086505e-05
3300000000,82,3300000000,,3.23917000023e-05,-1.98841299407e-05,-3.23917000217e-05,1.98841299213e-05
3340000000,83,3340000000,,3.14022021902e-05,-2.51221116533e-05,-3.14022022097e-05,2.51221116339e-05
3365000000,84,3365000000,,3.04629543064e-05,-2.98401756932e-05,-3.04629543259e-05,2.98401756737e-05
3411000000,85,3411000000,,2.96338687113e-05,-3.34089870969e-05,-2.96338687309e-05,3.34089870773e-05
3469000000,86,3469000000,,2.89010966049e-05,-3.58357352736e-05,-2.89010966245e-05,3.5835735254e-05
3490000000,87,3490000000,,3.10914856501e-05,-6.56070381747e-06,-3.10914856698e-05,6.56070379779e-06
3536000000,88,3536000000,,3.29857533802e-05,1.35793631286e-05,-3.29857533999e-05,-1.35793631483e-05
3583000000,89,3583000000,,4.44786021423e-05,2.89538516125e-05,-4.44786021621e-05,-2.89538516323e-05
3623000000,90,3623000000,,5.24575515003e-05,3.95574994137e-05,-5.24575515202e-05,-3.95574994335e-05
3652000000,91,3652000000,,5.70044467631e-05,4.87145204257e-05,-5.70044467831e-05,-4.87145204456e-05
3688000000,92,3688000000,,6.01031845093e-05,5.51456757806e-05,-6.01031845292e-05,-5.51456758006e-05
3742000000,93,3742000000,,6.13198625772e-05,6.019954674e-05,-6.13198625972e-05,-6.01995467601e-05
3771000000,94,3771000000,,6.18214412576e-05,6.40126298346e-05,-6.18214412777e-05,-6.40126298547e-05
3812000000,95,3812000000,,5.50427713902e-05,4.56028822402e-05,-5.50427714103e-05,-4.56028822603e-05
3850000000,96,3850000000,,5.40753396756e-05,4.47730722357e-05,-5.40753396958e-05,-4.47730722559e-05
3894000000,97,3894000000,,5.49782425829e-05,4.98026747478e-05,-5.49782426031e-05,-4.9802674768e-05
3934000000,98,3934000000,,5.62338600296e-05,5.60356232472e-05,-5.62338600498e-05,-5.60356232675e-05
3975000000,99,3975000000,,5.74468162693e-05,6.23814632473e-05,-5.74468162896e-05,-6.23814632676e-05
4022000000,100,4022000000,,5.8599760809e-05,6.86940036752e-05,-5.85997608293e-05,-6.86940036955e-05
4055000000,101,4055000000,,5.97307769884e-05,7.49988388713e-05,-5.97307770087e-05,-7.49988388917e-05
4101000000,102,4101000000,,6.08170682233e-05,8.1235802689e-05,-6.08170682437e-05,-8.12358027094e-05
4121000000,103,4121000000,,6.18376293109e-05,8.72967781123e-05,-6.18376293314e-05,-8.72967781328e-05
4173000000,104,4173000000,,6.27254691329e-05,9.29116437755e-05,-6.27254691534e-05,-9.2911643796e-05
4214000000,105,4214000000,,6.33902612515e-05,9.78812903083e-05,-6.3390261272e-05,-9.78812903289e-05
4243000000,106,4243000000,,6.38316838965e-05,0.000102011279954,-6.38316839171e-05,-0.000102011279974
4285000000,107,4285000000,,6.39417548092e-05,0.000105004959843,-6.39417548298e-05,-0.000105004959864
4329000000,108,4329000000,,5.56657805351e-05,8.10218659599e-05,-5.56657805558e-05,-8.10218659806e-05
4366000000,109,4366000000,,4.95300285515e-05,6.23437245585e-05,-4.95300285722e-05,-6.23437245792e-05
4406000000,110,4406000000,,4.52747752306e-05,5.02200394828e-05,-4.52747752513e-05,-5.02200395035e-05
4461000000,111,4461000000,,4.29673244325e-05,4.04570299023e-05,-4.29673244532e-05,-4.04570299231e-05
4491000000,112,4491000000,,4.12387432186e-05,3.37861111516e-05,-4.12387432393e-05,-3.37861111724e-05
4536000000,113,4536000000,,4.04127644468e-05,2.80518530627e-05,-4.04127644675e-05,-2.80518530835e-05
4565000000,114,4565000000,,4.45196044825e-05,2.87086320759e-05,-4.45196045033e-05,-2.87086320967e-05
4610000000,115,4610000000,,4.9154875896e-05,5.09105689875e-05,-4.91548759169e-05,-5.09105690083e-05
4654000000,116,4654000000,,5.08617448849e-05,6.01610541001e-05,-5.08617449058e-05,-6.0161054121e-05
4681000000,117,4681000000,,4.91950661145e-05,5.27480748153e-05,-4.91950661354e-05,-5.27480748362e-05
4750000000,118,4750000000,,4.79464640193e-05,4.61147703982e-05,-4.79464640402e-05,-4.61147704191e-05
4777000000,119,4777000000,,4.71801134369e-05,3.33132841676e-05,-4.71801134579e-05,-3.33132841886e-05
4816000000,120,4816000000,,4.66678060261e-05,2.62123253426e-05,-4.66678060471e-05,-2.62123253637e-05
4846000000,121,4846000000,,4.62573594008e-05,2.03396504314e-05,-4.62573594218e-05,-2.03396504524e-05
4899000000,122,4899000000,,4.59138951569e-05,1.40748383591e-05,-4.59138951779e-05,-1.40748383801e-05
4923000000,123,4923000000,,4.56515599664e-05,7.16659580442e-06,-4.56515599874e-05,-7.16659582545e-06
4962000000,124,4962000000,,4.55139155583e-05,-1.89125645474e-07,-4.55139155793e-05,1.89125624433e-07
5003000000,125,5003000000,,4.5537385788e-05,-7.67766717507e-06,-4.5537385809e-05,7.677667154e-06
5051000000,126,5051000000,,4.57334265391e-05,-1.50839308841e-05,-4.57334265602e-05,1.5083930863e-05
5099000000,127,5099000000,,4.6121266422e-05,-2.21531471602e-05,-4.61212664431e-05,2.21531471391e-05
5139000000,128,5139000000,,4.66684115022e-05,-2.86965052573e-05,-4.66684115234e-05,2.86965052362e-05
5179000000,129,5179000000,,4.74174965381e-05,-3.446544049e-05,-4.74174965592e-05,3.44654404689e-05
5221000000,130,5221000000,,4.83379138874e-05,-3.92559205603e-05,-4.83379139086e-05,3.92559205391e-05
5264000000,131,5264000000,,4.94511822538e-05,-4.27825563601e-05,-4.9451182275e-05,4.27825563389e-05
5296000000,132,5296000000,,5.5664351025e-05,-1.78540027172e-05,-5.56643510462e-05,1.7854002696e-05
5330000000,133,5330000000,,5.90942134806e-05,1.27599069422e-06,-5.90942135019e-05,-1.27599071549e-06
5374000000,134,5374000000,,6.11226175029e-05,1.55977825992e-05,-6.11226175242e-05,-1.55977826205e-05
5415000000,135,5415000000,,6.18303226925e-05,2.72156940508e-05,-6.18303227138e-05,-2.72156940721e-05
5455000000,136,5455000000,,6.20572496722e-05,3.67801013367e-05,-6.20572496935e-05,-3.6780101358e-05
5511000000,137,5511000000,,6.16397619859e-05,4.4329993873e-05,-6.16397620072e-05,-4.43299938943e-05
5534000000,138,5534000000,,6.06223828518e-05,5.31409073213e-05,-6.06223828731e-05,-5.31409073426e-05
5579000000,139,5579000000,,5.99138693241e-05,5.73099183383e-05,-5.99138693454e-05,-5.73099183596e-05
5605000000,140,5605000000,,5.90915989039e-05,6.16254721988e-05,-5.90915989252e-05,-6.16254722201e-05
5661000000,141,5661000000,,6.22570072952e-05,4.24369375631e-05,-6.22570073165e-05,-4.24369375844e-05
5697000000,142,5697000000,,6.34719207117e-05,4.48827934545e-05,-6.3471920733e-05,-4.48827934758e-05
5730000000,143,5730000000,,6.37942734795e-05,5.12652852319e-05,-6.37942735008e-05,-5.12652852532e-05
5782000000,144,5782000000,,6.37803522923e-05,5.69339950225e-05,-6.37803523136e-05,-5.69339950438e-05
5826000000,145,5826000000,,6.35161589018e-05,6.36768872041e-05,-6.35161589231e-05,-6.36768872254e-05
5864000000,146,5864000000,,6.30341711794e-05,7.08523432402e-05,-6.30341712007e-05,-7.08523432615e-05
5902000000,147,5902000000,,6.22831424185e-05,7.8261210909e-05,-6.22831424398e-05,-7.82612109303e-05
5942000000,148,5942000000,,6.12619583452e-05,8.57960122657e-05,-6.12619583666e-05,-8.57960122871e-05
5970000000,149,5970000000,,5.98873869471e-05,9.33294856862e-05,-5.98873869685e-05,-9.33294857076e-05
6014000000,150,6014000000,,5.82108375011e-05,0.000100612334133,-5.82108375225e-05,-0.000100612334155
6052000000,151,6052000000,,5.62216526219e-05,0.000107462717531,-5.62216526433e-05,-0.000107462717552
6094000000,152,6094000000,,5.3940179941e-05,0.000113611693284,-5.39401799625e-05,-0.000113611693306
6139000000,153,6139000000,,5.13752762593e-05,0.00011873434125,-5.13752762808e-05,-0.000118734341271
6166000000,154,6166000000,,4.86018225749e-05,0.000122777551173,-4.86018225964e-05,-0.000122777551194
6213000000,155,6213000000,,3.88089996373e-05,9.66530306719e-05,-3.88089996587e-05,-9.66530306933e-05
6251000000,156,6251000000,,3.31892398896e-05,7.80786384062e-05,-3.3189239911e-05,-7.80786384277e-05
6302000000,157,6302000000,,3.03387553054e-05,6.4913602865e-05,-3.03387553268e-05,-6.49136028864e-05
6335000000,158,6335000000,,2.93854430159e-05,5.34133218589e-05,-2.93854430373e-05,-5.34133218803e-05
6375000000,159,6375000000,,2.96680742601e-05,4.57291928448e-05,-2.96680742815e-05,-4.57291928663e-05
6420000000,160,6420000000,,3.03459733029e-05,3.83492744197e-05,-3.03459733244e-05,-3.83492744412e-05
6455000000,161,6455000000,,3.18642249237e-05,3.37267749111e-05,-3.18642249452e-05,-3.37267749326e-05
6492000000,162,6492000000,,3.33461383447e-05,2.93046416355e-05,-3.33461383662e-05,-2.9304641657e-05
6537000000,163,6537000000,,2.67223915431e-05,5.17867794858e-05,-2.67223915646e-05,-5.17867795073e-05
6571000000,164,6571000000,,2.41223061284e-05,5.43189570491e-05,-2.41223061499e-05,-5.43189570707e-05
6604000000,165,6604000000,,2.31482410097e-05,-0.000306513599683,-2.31482410313e-05,0.000306513599661
6651000000,166,6651000000,,3.40677300379e-05,-0.000855082028104,-3.40677300595e-05,0.000855082028082
6692000000,167,6692000000,,4.21764732399e-05,-0.00144325955384,-4.21764732614e-05,0.00144325955382
6729000000,168,6729000000,,4.79855558407e-05,-0.00201831508849,-4.79855558623e-05,0.00201831508847
6766000000,169,6766000000,,5.15163655073e-05,-0.00253839945854,-5.15163655288e-05,0.00253839945851
6830000000,170,6830000000,,5.44816467063e-05,-0.00294341652958,-5.44816467278e-05,0.00294341652956
6855000000,171,6855000000,,5.60758944818e-05,-0.00320910795818,-5.60758945033e-05,0.00320910795816
6895000000,172,6895000000,,5.77424752034e-05,-0.00338812631931,-5.77424752249e-05,0.00338812631928
6933000000,173,6933000000,,5.84361383807e-05,-0.00342078185477,-5.84361384022e-05,0.00342078185475
6972000000,174,6972000000,,5.91897288437e-05,-0.00333951641593,-5.91897288651e-05,0.00333951641591
7026000000,175,7026000000,,5.9445876435e-05,-0.00312196123058,-5.94458764565e-05,0.00312196123056
7057000000,176,7057000000,,5.94770886539e-05,-0.00278364642469,-5.94770886754e-05,0.00278364642467
7104000000,177,7104000000,,5.95170714663e-05,-0.00236505205923,-5.95170714878e-05,0.00236505205921
7129000000,178,7129000000,,5.86317254253e-05,-0.00176469598251,-5.86317254468e-05,0.00176469598249
7167000000,179,7167000000,,5.88432046259e-05,-0.00121039802745,-5.88432046474e-05,0.00121039802743
7213000000,180,7213000000,,5.8109000812e-05,-0.000469610569981,-5.81090008335e-05,0.00046961056996
7260000000,181,7260000000,,5.81344083258e-05,0.000227382751085,-5.81344083473e-05,-0.000227382751106
7283000000,182,7283000000,,5.76255546687e-05,0.00108609786987,-5.76255546902e-05,-0.0010860978699
7331000000,183,7331000000,,5.71983336051e-05,0.00188600134402,-5.71983336267e-05,-0.00188600134404
7374000000,184,7374000000,,5.53459916689e-05,0.00276218693514,-5.53459916905e-05,-0.00276218693516
7421000000,185,7421000000,,5.37053412319e-05,0.0036486294356,-5.37053412534e-05,-0.00364862943563
7468000000,186,7468000000,,5.24887002456e-05,0.00450209443035,-5.24887002671e-05,-0.00450209443037
7503000000,187,7503000000,,4.89878094683e-05,0.00547840813623,-4.89878094898e-05,-0.00547840813625
7542000000,188,7542000000,,4.68624257725e-05,0.00630048375294,-4.68624257939e-05,-0.00630048375297
7582000000,189,7582000000,,4.44383912825e-05,0.00721969370336,-4.44383913039e-05,-0.00721969370339
7618000000,190,7618000000,,4.30016823425e-05,0.00802607592383,-4.30016823639e-05,-0.00802607592385
7656000000,191,7656000000,,4.15236515842e-05,0.00888701024093,-4.15236516056e-05,-0.00888701024096
7689000000,192,7689000000,,4.01471651273e-05,0.00967286359382,-4.01471651487e-05,-0.00967286359384
7722000000,193,7722000000,,3.87691082092e-05,0.01083188169,-3.87691082306e-05,-0.01083188169
7768000000,194,7768000000,,3.74766163046e-05,0.0121119025956,-3.7476616326e-05,-0.0121119025956
7807000000,195,7807000000,,3.60134555196e-05,0.0134153173949,-3.6013455541e-05,-0.0134153173949
7866000000,196,7866000000,,3.43612614235e-05,0.0146713056964,-3.43612614449e-05,-0.0146713056965
7882000000,197,7882000000,,3.25027438775e-05,0.0158406541559,-3.25027438989e-05,-0.0158406541559
7924000000,198,7924000000,,3.06186087165e-05,0.0168718075611,-3.06186087379e-05,-0.0168718075612
7970000000,199,7970000000,,2.85205261811e-05,0.0177885626236,-2.85205262024e-05,-0.0177885626236
8002000000,200,8002000000,,2.66239003208e-05,0.0185321576403,-2.66239003421e-05,-0.0185321576403
8048000000,201,8048000000,,2.43746718028e-05,0.0191415371374,-2.43746718241e-05,-0.0191415371374
8084000000,202,8084000000,,2.23287067165e-05,0.0196233664675,-2.23287067378e-05,-0.0196233664675
8135000000,203,8135000000,,2.01160566991e-05,0.0199356077377,-2.01160567203e-05,-0.0199356077377
8173000000,204,8173000000,,1.79780685242e-05,0.0200948421206,-1.79780685454e-05,-0.0200948421206
8212000000,205,8212000000,,1.59793148338e-05,0.0201000631936,-1.5979314855e-05,-0.0201000631936
8253000000,206,8253000000,,1.37444594264e-05,0.0200429918649,-1.37444594475e-05,-0.0200429918649
8292000000,207,8292000000,,1.28994723916e-05,0.0197442355334,-1.28994724128e-05,-0.0197442355334
8328000000,208,8328000000,,9.99601577834e-06,0.0195947517577,-9.99601579947e-06,-0.0195947517577
8366000000,209,8366000000,,8.40398003106e-06,0.0192052284057,-8.40398005217e-06,-0.0192052284057
8438000000,210,8438000000,,5.80693041673e-06,0.0189377849273,-5.8069304378e-06,-0.0189377849273
8446000000,211,8446000000,,3.5059220854e-06,0.0183719068474,-3.50592210644e-06,-0.0183719068474
8503000000,212,8503000000,,1.47990269368e-06,0.0181285528425,-1.4799027147e-06,-0.0181285528425
8534000000,213,8534000000,,-2.68742540626e-07,0.0177853518377,2.68742519631e-07,-0.0177853518377
8579000000,214,8579000000,,-1.96878861422e-06,0.017447106135,1.96878859325e-06,-0.0174471061351
8610000000,215,8610000000,,-3.6479188107e-06,0.017110268236,3.64791878975e-06,-0.017110268236
8644000000,216,8644000000,,-4.5427175513e-06,0.0166255473291,4.54271753038e-06,-0.0166255473291
8681000000,217,8681000000,,-6.31403829636e-06,0.0163720597755,6.31403827546e-06,-0.0163720597755
8740000000,218,8740000000,,-7.26665553761e-06,0.0160149121566,7.26665551675e-06,-0.0160149121566
8773000000,219,8773000000,,-8.7880953467e-06,0.0157747049062,8.78809532585e-06,-0.0157747049062
8822000000,220,8822000000,,-1.00946011089e-05,0.0154861242578,1.00946010881e-05,-0.0154861242578
8840000000,221,8840000000,,-1.12948893269e-05,0.0152452865812,1.1294889306e-05,-0.0152452865812
8885000000,222,8885000000,,-1.23027862567e-05,0.0150597530979,1.23027862358e-05,-0.0150597530979
8934000000,223,8934000000,,-1.30808622322e-05,0.0148697069886,1.30808622114e-05,-0.0148697069887
8966000000,224,8966000000,,-1.39192055884e-05,0.0147219296531,1.39192055676e-05,-0.0147219296531
9020000000,225,9020000000,,-1.45197955986e-05,0.0146073273613,1.45197955778e-05,-0.0146073273613
9053000000,226,9053000000,,-1.78180204974e-05,0.0145407819133,1.78180204766e-05,-0.0145407819133
9100000000,227,9100000000,,-2.02081250805e-05,0.0145287687655,2.02081250597e-05,-0.0145287687655
9132000000,228,9132000000,,-2.1411439553e-05,0.0145292092014,2.14114395322e-05,-0.0145292092014
9170000000,229,9170000000,,-1.66347822769e-05,0.0145784298726,1.66347822562e-05,-0.0145784298726
9211000000,230,9211000000,,-1.31682274724e-05,0.0146447812694,1.31682274517e-05,-0.0146447812694
9255000000,231,9255000000,,-1.13699230945e-05,0.0151190935785,1.13699230738e-05,-0.0151190935785
9291000000,232,9291000000,,-1.00352437802e-05,0.0157734599547,1.00352437595e-05,-0.0157734599548
9343000000,233,9343000000,,-9.69850638152e-06,0.0165021113783,9.69850636082e-06,-0.0165021113783
9362000000,234,9362000000,,-9.71012522531e-06,0.017270324765,9.71012520463e-06,-0.017270324765
9411000000,235,9411000000,,-9.87211347273e-06,0.0179088407558,9.87211345207e-06,-0.0179088407558
9449000000,236,9449000000,,-1.09030514288e-05,0.0184930580966,1.09030514082e-05,-0.0184930580966
9498000000,237,9498000000,,-1.08341048357e-05,0.0189082807452,1.08341048151e-05,-0.0189082807452
9532000000,238,9532000000,,-1.1470885319e-05,0.0192361026794,1.14708852984e-05,-0.0192361026795
9573000000,239,9573000000,,-1.14774999449e-05,0.019453363784,1.14774999243e-05,-0.019453363784
9614000000,240,9614000000,,-1.33216350749e-05,0.019528619423,1.33216350543e-05,-0.019528619423
9662000000,241,9662000000,,-1.26451472315e-05,0.0194384459863,1.26451472109e-05,-0.0194384459864
9691000000,242,9691000000,,-1.2279344172e-05,0.019220578897,1.22793441513e-05,-0.019220578897
9730000000,243,9730000000,,-1.18929355391e-05,0.0189108053604,1.18929355185e-05,-0.0189108053604
9772000000,244,9772000000,,-1.54989005687e-05,0.0185162611186,1.54989005481e-05,-0.0185162611186
9808000000,245,9808000000,,-1.74112959187e-05,0.0179687829737,1.74112958981e-05,-0.0179687829737
9847000000,246,9847000000,,-1.87542602594e-05,0.017386835639,1.87542602389e-05,-0.017386835639
9887000000,247,9887000000,,-1.80584614176e-05,0.0166718010067,1.80584613971e-05,-0.0166718010067
9926000000,248,9926000000,,-1.87813148471e-05,0.0159336832438,1.87813148267e-05,-0.0159336832438
9968000000,249,9968000000,,-1.81702725809e-05,0.0150465336213,1.81702725604e-05,-0.0150465336213
10013000000,250,10013000000,,-1.80100987224e-05,0.0142098754326,1.8010098702e-05,-0.0142098754327
10056000000,251,10056000000,,-1.72044407664e-05,0.0132771104935,1.72044407459e-05,-0.0132771104935
10094000000,252,10094000000,,-1.63684470856e-05,0.0123465726278,1.63684470652e-05,-0.0123465726278
10141000000,253,10141000000,,-1.53860590029e-05,0.0114115155672,1.53860589825e-05,-0.0114115155672
10166000000,254,10166000000,,-1.13315924483e-05,0.0104412318022,1.13315924279e-05,-0.0104412318022
10211000000,255,10211000000,,-8.72400170892e-06,0.00955175846908,8.72400168853e-06,-0.0095517584691
10246000000,256,10246000000,,-5.59359869228e-06,0.00857292673953,5.5935986719e-06,-0.00857292673955
10294000000,257,10294000000,,-4.64561397236e-06,0.00772423335951,4.64561395201e-06,-0.00772423335953
10351000000,258,10351000000,,-2.93095532295e-06,0.0067895534239,2.93095530262e-06,-0.00678955342392
10372000000,259,10372000000,,-2.03596305545e-06,0.00593684517295,2.03596303513e-06,-0.00593684517297
10411000000,260,10411000000,,-1.04435219735e-06,0.00507118255724,1.04435217705e-06,-0.00507118255726
10448000000,261,10448000000,,2.11006480665e-07,0.00391599465037,-2.11006500937e-07,-0.00391599465039
10486000000,262,10486000000,,1.42966777428e-06,0.00258975008877,-1.42966779453e-06,-0.00258975008879
10522000000,263,10522000000,,2.76390721451e-06,0.00126073824524,-2.76390723473e-06,-0.00126073824526
10611000000,264,10611000000,,4.07299283612e-06,-1.53394326788e-05,-4.07299285631e-06,1.53394326588e-05
10622000000,265,10622000000,,5.60078995923e-06,-0.00115167463002,-5.60078997938e-06,0.00115167463
10672000000,266,10672000000,,7.11452142168e-06,-0.00233403436232,-7.11452144178e-06,0.0023340343623
10693000000,267,10693000000,,8.5270824136e-06,-0.00349098549321,-8.52708243366e-06,0.00349098549319
10723000000,268,10723000000,,1.02975202695e-05,-0.00459648396032,-1.02975202895e-05,0.00459648396031
10762000000,269,10762000000,,1.19055933623e-05,-0.00540584960242,-1.19055933823e-05,0.0054058496024
10857000000,270,10857000000,,1.37922433711e-05,-0.00604313064811,-1.37922433911e-05,0.00604313064809
10872000000,271,10872000000,,1.58095868737e-05,-0.00600901844454,-1.58095868936e-05,0.00600901844452
10893000000,272,10893000000,,1.77896893429e-05,-0.00612060002007,-1.77896893628e-05,0.00612060002005
10932000000,273,10932000000,,1.92375354396e-05,-0.00639555387036,-1.92375354595e-05,0.00639555387034
10970000000,274,10970000000,,2.02846178924e-05,-0.00638144612183,-2.02846179122e-05,0.00638144612181
11004000000,275,11004000000,,2.2235121339e-05,-0.00633015860829,-2.22351213587e-05,0.00633015860827
11048000000,276,11048000000,,2.16387777461e-05,-0.00612521528215,-2.16387777658e-05,0.00612521528213
11088000000,277,11088000000,,2.43944355717e-05,-0.00588378788629,-2.43944355913e-05,0.00588378788627
11154000000,278,11154000000,,2.51974438804e-05,-0.00551203751209,-2.51974439e-05,0.00551203751207
11175000000,279,11175000000,,2.76214924764e-05,-0.00495065334032,-2.7621492496e-05,0.0049506533403
11245000000,280,11245000000,,2.96033950738e-05,-0.00445094590498,-2.96033950933e-05,0.00445094590496
11267000000,281,11267000000,,3.1336272043e-05,-0.00388872824048,-3.13362720625e-05,0.00388872824046
11298000000,282,11298000000,,3.27421305977e-05,-0.00356295600433,-3.27421306172e-05,0.00356295600431
11339000000,283,11339000000,,3.33166275368e-05,-0.00313207337763,-3.33166275562e-05,0.00313207337761
11375000000,284,11375000000,,3.49707010053e-05,-0.00284373355376,-3.49707010247e-05,0.00284373355374
11413000000,285,11413000000,,3.47067614716e-05,-0.00242987018626,-3.4706761491e-05,0.00242987018624
11448000000,286,11448000000,,3.66776349552e-05,-0.00216419329058,-3.66776349746e-05,0.00216419329056
11493000000,287,11493000000,,3.33024705535e-05,-0.00183097686979,-3.33024705729e-05,0.00183097686977
11531000000,288,11531000000,,3.21758704854e-05,-0.00159055128471,-3.21758705048e-05,0.00159055128469
11571000000,289,11571000000,,3.16273812378e-05,-0.00134429615682,-3.16273812571e-05,0.0013442961568
11614000000,290,11614000000,,3.18000844673e-05,-0.00117312718411,-3.18000844866e-05,0.00117312718409
11655000000,291,11655000000,,3.21902660107e-05,-0.0010489585159,-3.219026603e-05,0.00104895851588
11686000000,292,11686000000,,3.29562313376e-05,-0.000940943406117,-3.29562313568e-05,0.000940943406098
11732000000,293,11732000000,,3.36920419231e-05,-0.000875418093568,-3.36920419423e-05,0.000875418093548
11779000000,294,11779000000,,3.45189351725e-05,-0.000833416965871,-3.45189351917e-05,0.000833416965852
11803000000,295,11803000000,,3.50901815913e-05,-0.0008466051416,-3.50901816106e-05,0.000846605141581
11846000000,296,11846000000,,3.59292822945e-05,-0.00089181488146,-3.59292823138e-05,0.000891814881441
11893000000,297,11893000000,,3.62190542089e-05,-0.00092389971669,-3.62190542281e-05,0.000923899716671
11936000000,298,11936000000,,3.67865082644e-05,-0.00105032394853,-3.67865082836e-05,0.00105032394851
11971000000,299,11971000000,,3.70153378505e-05,-0.00118041150351,-3.70153378697e-05,0.00118041150349
12042000000,300,12042000000,,3.73607436028e-05,-0.00136259754991,-3.7360743622e-05,0.00136259754989
12054000000,301,12054000000,,3.75495951518e-05,-0.00163018927149,-3.7549595171e-05,0.00163018927147
12110000000,302,12110000000,,3.77323833834e-05,-0.00179593925445,-3.77323834025e-05,0.00179593925443
12135000000,303,12135000000,,3.78786559039e-05,-0.0020208669363,-3.7878655923e-05,0.00202086693628
12186000000,304,12186000000,,3.6976020531e-05,-0.00218591046512,-3.69760205501e-05,0.0021859104651
12222000000,305,12222000000,,3.71730605868e-05,-0.00242326962347,-3.71730606058e-05,0.00242326962345
12249000000,306,12249000000,,3.63332075016e-05,-0.00258686101453,-3.63332075206e-05,0.00258686101452
12292000000,307,12292000000,,3.61946482789e-05,-0.00279171467567,-3.61946482978e-05,0.00279171467565
12322000000,308,12322000000,,3.57742725689e-05,-0.00293918460802,-3.57742725879e-05,0.002939184608
12384000000,309,12384000000,,3.56945209288e-05,-0.00310026875884,-3.56945209478e-05,0.00310026875882
12408000000,310,12408000000,,3.55293565669e-05,-0.00324175930503,-3.55293565858e-05,0.00324175930501
12441000000,311,12441000000,,3.55189091472e-05,-0.0033742698631,-3.55189091661e-05,0.00337426986308
12506000000,312,12506000000,,3.55258147317e-05,-0.00348297688129,-3.55258147506e-05,0.00348297688127
12524000000,313,12524000000,,3.56065716659e-05,-0.00355759537398,-3.56065716848e-05,0.00355759537396
12573000000,314,12573000000,,3.5960952115e-05,-0.00363121371032,-3.59609521338e-05,0.0036312137103
12622000000,315,12622000000,,3.5952745041e-05,-0.0036727709988,-3.59527450598e-05,0.00367277099878
12642000000,316,12642000000,,3.60279456387e-05,-0.00370570624081,-3.60279456575e-05,0.00370570624079
12696000000,317,12696000000,,3.61532688236e-05,-0.00372280863361,-3.61532688424e-05,0.0037228086336
12735000000,318,12735000000,,3.62047986805e-05,-0.00372394995147,-3.62047986992e-05,0.00372394995146
12782000000,319,12782000000,,3.64837056687e-05,-0.00370915363802,-3.64837056874e-05,0.003709153638
12817000000,320,12817000000,,3.66735901716e-05,-0.00366884560221,-3.66735901903e-05,0.00366884560219
12852000000,321,12852000000,,3.70152492123e-05,-0.00362104745308,-3.7015249231e-05,0.00362104745307
12884000000,322,12884000000,,3.71058873485e-05,-0.00359053492208,-3.71058873671e-05,0.00359053492206
12923000000,323,12923000000,,3.75005516231e-05,-0.00351782645671,-3.75005516418e-05,0.00351782645669
12960000000,324,12960000000,,3.78132186171e-05,-0.00345926283651,-3.78132186357e-05,0.00345926283649
13000000000,325,13000000000,,3.78089062263e-05,-0.00337496399104,-3.78089062448e-05,0.00337496399103
13046000000,326,13046000000,,3.83890093101e-05,-0.00330238673783,-3.83890093286e-05,0.00330238673781
13097000000,327,13097000000,,3.86574564636e-05,-0.00321371167212,-3.86574564821e-05,0.00321371167211
13131000000,328,13131000000,,3.92757924507e-05,-0.00314218375764,-3.92757924691e-05,0.00314218375762
13163000000,329,13163000000,,3.96864278362e-05,-0.00306450413542,-3.96864278546e-05,0.0030645041354
13218000000,330,13218000000,,4.02813238026e-05,-0.00299600362556,-4.0281323821e-05,0.00299600362554
13256000000,331,13256000000,,4.07097386228e-05,-0.00293021953018,-4.07097386412e-05,0.00293021953017
13311000000,332,13311000000,,4.12852903411e-05,-0.00286025478668,-4.12852903594e-05,0.00286025478667
13338000000,333,13338000000,,4.18136060306e-05,-0.00279474445094,-4.1813606049e-05,0.00279474445092
13371000000,334,13371000000,,4.22291123379e-05,-0.00273494201361,-4.22291123563e-05,0.00273494201359
13414000000,335,13414000000,,4.2702625797e-05,-0.00269629361534,-4.27026258154e-05,0.00269629361532
13461000000,336,13461000000,,4.28945574317e-05,-0.00264881617482,-4.28945574501e-05,0.0026488161748
13501000000,337,13501000000,,4.34618141538e-05,-0.00261863492408,-4.34618141722e-05,0.00261863492406
13536000000,338,13536000000,,4.38397159721e-05,-0.00258879792746,-4.38397159904e-05,0.00258879792744
13574000000,339,13574000000,,4.43689530986e-05,-0.00257083117028,-4.43689531169e-05,0.00257083117026
13626000000,340,13626000000,,4.47442688758e-05,-0.0025569057186,-4.47442688941e-05,0.00255690571858
13666000000,341,13666000000,,4.48458007444e-05,-0.00256015867327,-4.48458007626e-05,0.00256015867325
13685000000,342,13685000000,,4.53272687191e-05,-0.0025595981078,-4.53272687373e-05,0.00255959810778
13729000000,343,13729000000,,4.5808246633e-05,-0.00256353121532,-4.58082466511e-05,0.0025635312153
13767000000,344,13767000000,,4.61291029503e-05,-0.0025742432902,-4.61291029684e-05,0.00257424329018
13814000000,345,13814000000,,4.64613249674e-05,-0.00258865753329,-4.64613249855e-05,0.00258865753327
13854000000,346,13854000000,,4.67101577815e-05,-0.00260240729814,-4.67101577995e-05,0.00260240729812
13901000000,347,13901000000,,4.69226543278e-05,-0.00262694056826,-4.69226543458e-05,0.00262694056824
13924000000,348,13924000000,,4.7176111381e-05,-0.00264764373962,-4.7176111399e-05,0.00264764373961
13969000000,349,13969000000,,4.73913098906e-05,-0.00267335983907,-4.73913099086e-05,0.00267335983905
14006000000,350,14006000000,,4.76550881411e-05,-0.00269487813465,-4.7655088159e-05,0.00269487813463
14047000000,351,14047000000,,4.78686070086e-05,-0.00271884867786,-4.78686070265e-05,0.00271884867784
14095000000,352,14095000000,,4.81314443755e-05,-0.0027437047403,-4.81314443935e-05,0.00274370474028
14130000000,353,14130000000,,4.83140979715e-05,-0.00276848721577,-4.83140979895e-05,0.00276848721576
14165000000,354,14165000000,,4.86203974765e-05,-0.00279671322107,-4.86203974945e-05,0.00279671322106
14211000000,355,14211000000,,4.87381876345e-05,-0.00281492838346,-4.87381876525e-05,0.00281492838344
14262000000,356,14262000000,,4.88547661303e-05,-0.00284078774762,-4.88547661483e-05,0.0028407877476
14284000000,357,14284000000,,4.89776806631e-05,-0.00285984016544,-4.8977680681e-05,0.00285984016542
14323000000,358,14323000000,,4.90483310502e-05,-0.00288251724509,-4.90483310681e-05,0.00288251724507
14365000000,359,14365000000,,4.91790246075e-05,-0.00289894355952,-4.91790246253e-05,0.00289894355951
14402000000,360,14402000000,,4.92807363287e-05,-0.0029098216072,-4.92807363465e-05,0.00290982160718
14457000000,361,14457000000,,4.94350524149e-05,-0.00291700771334,-4.94350524326e-05,0.00291700771332
14508000000,362,14508000000,,4.95342449471e-05,-0.00292000697379,-4.95342449647e-05,0.00292000697377
14534000000,363,14534000000,,5.51450222595e-05,-0.00292215026458,-5.51450222771e-05,0.00292215026456
14573000000,364,14573000000,,5.46255579848e-05,-0.00290799332758,-5.46255580024e-05,0.00290799332756
14616000000,365,14616000000,,5.44900413749e-05,-0.00292345419878,-5.44900413925e-05,0.00292345419876
14654000000,366,14654000000,,5.4707635714e-05,-0.00294694647844,-5.47076357315e-05,0.00294694647843
14708000000,367,14708000000,,5.66725218776e-05,-0.00293823971601,-5.66725218951e-05,0.002938239716
14740000000,368,14740000000,,5.8028094829e-05,-0.00292947233005,-5.80280948465e-05,0.00292947233003
14762000000,369,14762000000,,5.81314578184e-05,-0.00292044856638,-5.81314578359e-05,0.00292044856636
14816000000,370,14816000000,,5.81887925717e-05,-0.00291111156613,-5.81887925892e-05,0.00291111156611
14844000000,371,14844000000,,5.8038878772e-05,-0.00290088141249,-5.80388787895e-05,0.00290088141247
14880000000,372,14880000000,,5.79459409983e-05,-0.00288954893196,-5.79459410158e-05,0.00288954893195
14926000000,373,14926000000,,5.77537569901e-05,-0.00287994134919,-5.77537570076e-05,0.00287994134917
14979000000,374,14979000000,,5.76710784415e-05,-0.00286852321351,-5.7671078459e-05,0.00286852321349
15007000000,375,15007000000,,5.74181682979e-05,-0.00285754718735,-5.74181683154e-05,0.00285754718733
15048000000,376,15048000000,,5.71860899217e-05,-0.00284312077141,-5.71860899392e-05,0.00284312077139
15083000000,377,15083000000,,5.69926982983e-05,-0.00283206911164,-5.69926983158e-05,0.00283206911162
15151000000,378,15151000000,,5.68290439569e-05,-0.0028193013228,-5.68290439743e-05,0.00281930132279
15185000000,379,15185000000,,5.67247871159e-05,-0.00280763573636,-5.67247871332e-05,0.00280763573634
15208000000,380,15208000000,,5.66234452291e-05,-0.0027964672012,-5.66234452464e-05,0.00279646720119
15269000000,381,15269000000,,5.66267227313e-05,-0.00278619599905,-5.66267227486e-05,0.00278619599903
15303000000,382,15303000000,,5.65827862197e-05,-0.00277725385576,-5.65827862369e-05,0.00277725385575
15325000000,383,15325000000,,5.66486974867e-05,-0.00276788999172,-5.66486975039e-05,0.0027678899917
15377000000,384,15377000000,,5.66317209234e-05,-0.00276034982043,-5.66317209407e-05,0.00276034982041
15426000000,385,15426000000,,5.66181603461e-05,-0.00275372532237,-5.66181603633e-05,0.00275372532235
15455000000,386,15455000000,,5.67058639658e-05,-0.00274883288829,-5.6705863983e-05,0.00274883288827
15482000000,387,15482000000,,5.74753487025e-05,-0.0027643477373,-5.74753487197e-05,0.00276434773728
15524000000,388,15524000000,,5.76801007437e-05,-0.00275908980352,-5.76801007608e-05,0.0027590898035
15563000000,389,15563000000,,5.77006680867e-05,-0.00274753964766,-5.77006681039e-05,0.00274753964764
15603000000,390,15603000000,,5.76740301545e-05,-0.00273485357437,-5.76740301716e-05,0.00273485357435
15654000000,391,15654000000,,5.76353969896e-05,-0.00272240821566,-5.76353970067e-05,0.00272240821564
15693000000,392,15693000000,,5.75948290372e-05,-0.00271047408705,-5.75948290543e-05,0.00271047408703
15725000000,393,15725000000,,5.75494774443e-05,-0.00269921279177,-5.75494774613e-05,0.00269921279176
15761000000,394,15761000000,,5.75107681087e-05,-0.00268895231878,-5.75107681257e-05,0.00268895231876
15802000000,395,15802000000,,5.76185594063e-05,-0.00270980576553,-5.76185594233e-05,0.00270980576551
15862000000,396,15862000000,,5.76966070133e-05,-0.00272514730289,-5.76966070303e-05,0.00272514730288
15897000000,397,15897000000,,5.79542581906e-05,-0.00273559882311,-5.79542582075e-05,0.00273559882309
15935000000,398,15935000000,,5.81484824299e-05,-0.00274497912818,-5.81484824468e-05,0.00274497912816
15985000000,399,15985000000,,5.84939719163e-05,-0.00275150740257,-5.84939719331e-05,0.00275150740256
16025000000,400,16025000000,,5.87889462894e-05,-0.00275978219606,-5.87889463062e-05,0.00275978219604
16057000000,401,16057000000,,5.91255467708e-05,-0.00276335851005,-5.91255467876e-05,0.00276335851004
16097000000,402,16097000000,,5.93819119069e-05,-0.00276606165093,-5.93819119236e-05,0.00276606165092
16133000000,403,16133000000,,5.97399872525e-05,-0.00276924446645,-5.97399872692e-05,0.00276924446643
16164000000,404,16164000000,,6.00156808331e-05,-0.00277042279223,-6.00156808498e-05,0.00277042279221
16204000000,405,16204000000,,6.02103106349e-05,-0.00277242402284,-6.02103106516e-05,0.00277242402283
16255000000,406,16255000000,,6.05675646402e-05,-0.00277269449695,-6.05675646569e-05,0.00277269449693
16292000000,407,16292000000,,6.00593284009e-05,-0.00275096166309,-6.00593284176e-05,0.00275096166307
16329000000,408,16329000000,,6.01020288297e-05,-0.00274755328112,-6.01020288463e-05,0.0027475532811
16365000000,409,16365000000,,6.0346176588e-05,-0.00275015184626,-6.03461766046e-05,0.00275015184624
16417000000,410,16417000000,,6.06615379038e-05,-0.00275424251325,-6.06615379203e-05,0.00275424251324
16443000000,411,16443000000,,6.10099556295e-05,-0.00275865527882,-6.1009955646e-05,0.00275865527881
16500000000,412,16500000000,,6.13997396062e-05,-0.00276324709378,-6.13997396228e-05,0.00276324709377
16536000000,413,16536000000,,6.18359143731e-05,-0.00276875017383,-6.18359143896e-05,0.00276875017381
16563000000,414,16563000000,,6.23078730743e-05,-0.00277348288653,-6.23078730908e-05,0.00277348288651
16603000000,415,16603000000,,6.28143954262e-05,-0.00277841603175,-6.28143954427e-05,0.00277841603173
16647000000,416,16647000000,,6.33730074661e-05,-0.00278334076614,-6.33730074825e-05,0.00278334076612
16690000000,417,16690000000,,6.39729721306e-05,-0.00278794975136,-6.3972972147e-05,0.00278794975135
16727000000,418,16727000000,,6.45993035743e-05,-0.0027920166955,-6.45993035906e-05,0.00279201669549
16774000000,419,16774000000,,6.5262586786e-05,-0.00279518122108,-6.52625868023e-05,0.00279518122106
16811000000,420,16811000000,,6.59428864771e-05,-0.00279731655135,-6.59428864934e-05,0.00279731655133
16852000000,421,16852000000,,6.66351234321e-05,-0.00279832133912,-6.66351234484e-05,0.0027983213391
16893000000,422,16893000000,,6.78661984234e-05,-0.00276888550962,-6.78661984397e-05,0.0027688855096
16938000000,423,16938000000,,6.87238750474e-05,-0.00274709375067,-6.87238750637e-05,0.00274709375065
16966000000,424,16966000000,,6.91996752552e-05,-0.00273138026148,-6.91996752714e-05,0.00273138026146
17015000000,425,17015000000,,6.95122987899e-05,-0.00271800493389,-6.95122988061e-05,0.00271800493388
17048000000,426,17048000000,,6.96605740756e-05,-0.00270881249917,-6.96605740918e-05,0.00270881249916
17105000000,427,17105000000,,6.96857947333e-05,-0.0027007722128,-6.96857947495e-05,0.00270077221278
17136000000,428,17136000000,,6.9741488093e-05,-0.00269502723642,-6.97414881091e-05,0.0026950272364
17178000000,429,17178000000,,7.10362427439e-05,-0.00271591670851,-7.10362427601e-05,0.00271591670849
17217000000,430,17217000000,,7.1724561298e-05,-0.00271700362726,-7.17245613141e-05,0.00271700362724
17262000000,431,17262000000,,7.20948121189e-05,-0.00271081738729,-7.2094812135e-05,0.00271081738727
17289000000,432,17289000000,,7.23477071076e-05,-0.0027030472955,-7.23477071236e-05,0.00270304729548
17333000000,433,17333000000,,7.25298087073e-05,-0.00269522871269,-7.25298087232e-05,0.00269522871267
17392000000,434,17392000000,,7.26019384217e-05,-0.00268722713203,-7.26019384376e-05,0.00268722713201
17420000000,435,17420000000,,7.25260757332e-05,-0.00267835506892,-7.25260757491e-05,0.00267835506891
17446000000,436,17446000000,,7.24531038906e-05,-0.00267055085858,-7.24531039065e-05,0.00267055085856
17492000000,437,17492000000,,7.22378076424e-05,-0.00266243442959,-7.22378076582e-05,0.00266243442957
17528000000,438,17528000000,,7.19226969596e-05,-0.0026543244366,-7.19226969755e-05,0.00265432443659
17575000000,439,17575000000,,7.14801404966e-05,-0.00264655184306,-7.14801405125e-05,0.00264655184305
17613000000,440,17613000000,,7.09356877049e-05,-0.00263943426076,-7.09356877208e-05,0.00263943426074
17647000000,441,17647000000,,7.03926608888e-05,-0.00263175431254,-7.03926609046e-05,0.00263175431252
17731000000,442,17731000000,,6.96519788653e-05,-0.00262740819765,-6.96519788811e-05,0.00262740819764
17738000000,443,17738000000,,6.86291961834e-05,-0.00262475016828,-6.86291961992e-05,0.00262475016826
17778000000,444,17778000000,,6.56801327968e-05,-0.00265142715773,-6.56801328125e-05,0.00265142715772
17809000000,445,17809000000,,6.41514747126e-05,-0.0026713154175,-6.41514747283e-05,0.00267131541748
17859000000,446,17859000000,,6.30953064197e-05,-0.00268550305768,-6.30953064354e-05,0.00268550305767
17885000000,447,17885000000,,6.30663306943e-05,-0.00269646797607,-6.306633071e-05,0.00269646797606
17930000000,448,17930000000,,6.34730644412e-05,-0.00270299729942,-6.34730644568e-05,0.0027029972994
17965000000,449,17965000000,,6.40810907508e-05,-0.00270855945777,-6.40810907664e-05,0.00270855945775
18002000000,450,18002000000,,6.49970044708e-05,-0.00271182848702,-6.49970044864e-05,0.002711828487
18073000000,451,18073000000,,6.57942613707e-05,-0.0027138100038,-6.57942613862e-05,0.00271381000379
18120000000,452,18120000000,,6.38133488434e-05,-0.00269353591463,-6.38133488589e-05,0.00269353591462
18142000000,453,18142000000,,6.24828348367e-05,-0.00268552456168,-6.24828348521e-05,0.00268552456166
18191000000,454,18191000000,,6.26919198447e-05,-0.00269272948614,-6.26919198602e-05,0.00269272948613
18215000000,455,18215000000,,6.31782825675e-05,-0.00270053582617,-6.31782825829e-05,0.00270053582615
18243000000,456,18243000000,,6.36117331329e-05,-0.00270474726428,-6.36117331483e-05,0.00270474726426
18285000000,457,18285000000,,6.42371614121e-05,-0.00270894399079,-6.42371614275e-05,0.00270894399078
18321000000,458,18321000000,,6.51258641629e-05,-0.00271325689839,-6.51258641782e-05,0.00271325689838
18373000000,459,18373000000,,6.6254819494e-05,-0.00271757855053,-6.62548195093e-05,0.00271757855052
18422000000,460,18422000000,,6.76724855031e-05,-0.00272167642749,-6.76724855184e-05,0.00272167642747
18451000000,461,18451000000,,6.93613989698e-05,-0.00272530788251,-6.93613989851e-05,0.00272530788249
18510000000,462,18510000000,,7.13330189971e-05,-0.0027280745454,-7.13330190123e-05,0.00272807454538
18533000000,463,18533000000,,7.35088080217e-05,-0.00273005025743,-7.35088080369e-05,0.00273005025742
18575000000,464,18575000000,,7.57540788391e-05,-0.00273128709952,-7.57540788544e-05,0.00273128709951
18632000000,465,18632000000,,8.46751258726e-05,-0.0027028448063,-8.46751258878e-05,0.00270284480628
18658000000,466,18658000000,,9.25736962667e-05,-0.00267483737914,-9.25736962819e-05,0.00267483737912
18704000000,467,18704000000,,9.46877751164e-05,-0.0026624631766,-9.46877751315e-05,0.00266246317659
18725000000,468,18725000000,,9.58581064577e-05,-0.00265343322296,-9.58581064729e-05,0.00265343322294
18780000000,469,18780000000,,8.75239555163e-05,-0.00265445692229,-8.75239555314e-05,0.00265445692228
18814000000,470,18814000000,,8.17302762998e-05,-0.0026540963189,-8.17302763148e-05,0.00265409631889
18861000000,471,18861000000,,8.6593498354e-05,-0.00267440428592,-8.6593498369e-05,0.0026744042859
18886000000,472,18886000000,,8.9316803869e-05,-0.00267597576159,-8.9316803884e-05,0.00267597576158
18926000000,473,18926000000,,9.043833954e-05,-0.00267089256178,-9.0438339555e-05,0.00267089256176
18981000000,474,18981000000,,9.06401485306e-05,-0.0026646719891,-9.06401485455e-05,0.00266467198908
19010000000,475,19010000000,,9.02861920188e-05,-0.0026585528362,-9.02861920337e-05,0.00265855283618
19080000000,476,19080000000,,8.93613046354e-05,-0.00265244151673,-8.93613046503e-05,0.00265244151671
19113000000,477,19113000000,,8.754073405e-05,-0.00264548001753,-8.75407340648e-05,0.00264548001752
19139000000,478,19139000000,,8.57074351748e-05,-0.0026392429212,-8.57074351896e-05,0.00263924292119
19181000000,479,19181000000,,8.33667172536e-05,-0.0026326696594,-8.33667172684e-05,0.00263266965939
19206000000,480,19206000000,,8.02630383916e-05,-0.00262583081468,-8.02630384064e-05,0.00262583081466
19246000000,481,19246000000,,7.65353468049e-05,-0.00261905965571,-7.65353468196e-05,0.00261905965569
19293000000,482,19293000000,,7.15018060613e-05,-0.00261188703995,-7.1501806076e-05,0.00261188703993
19331000000,483,19331000000,,6.72252632963e-05,-0.002606186894,-6.72252633109e-05,0.00260618689399
19377000000,484,19377000000,,6.23307181736e-05,-0.0026008268295,-6.23307181882e-05,0.00260082682948
19410000000,485,19410000000,,5.69962602141e-05,-0.00259610845165,-5.69962602287e-05,0.00259610845164
19449000000,486,19449000000,,5.14762292699e-05,-0.00259225937515,-5.14762292845e-05,0.00259225937514
19502000000,487,19502000000,,4.5721542049e-05,-0.00258989883182,-4.57215420635e-05,0.00258989883181
19528000000,488,19528000000,,4.02427069351e-05,-0.00258812154277,-4.02427069496e-05,0.00258812154275
19580000000,489,19580000000,,3.33735071324e-05,-0.00261552973872,-3.33735071469e-05,0.0026155297387
19606000000,490,19606000000,,3.09874845738e-05,-0.00263484480796,-3.09874845883e-05,0.00263484480795
19650000000,491,19650000000,,3.27653244983e-05,-0.00264555940539,-3.27653245128e-05,0.00264555940537
19688000000,492,19688000000,,3.58216087604e-05,-0.0026531339087,-3.58216087749e-05,0.00265313390869
19723000000,493,19723000000,,3.93743775036e-05,-0.00265752609544,-3.93743775181e-05,0.00265752609543
19772000000,494,19772000000,,4.28540875819e-05,-0.00266108017562,-4.28540875963e-05,0.0026610801756
19804000000,495,19804000000,,4.66659222303e-05,-0.00266255448206,-4.66659222447e-05,0.00266255448204
19844000000,496,19844000000,,0.000386612226865,-0.00264689481762,-0.00038661222688,0.00264689481761
19901000000,497,19901000000,,0.000935311109634,-0.00264808539319,-0.000935311109648,0.00264808539317
19937000000,498,19937000000,,0.00154412478056,-0.00264837147915,-0.00154412478057,0.00264837147913
19975000000,499,19975000000,,0.00213769301025,-0.00264732908429,-0.00213769301026,0.00264732908428
20016000000,500,20016000000,,0.00264730589155,-0.00264545138846,-0.00264730589156,0.00264545138845
20059000000,501,20059000000,,0.00306197802574,-0.00264289547594,-0.00306197802576,0.00264289547593
20102000000,502,20102000000,,0.00337022009589,-0.00264039463161,-0.0033702200959,0.0026403946316
20146000000,503,20146000000,,0.00359356186789,-0.00263680845481,-0.0035935618679,0.0026368084548
20187000000,504,20187000000,,0.00367772899274,-0.00263381835843,-0.00367772899276,0.00263381835842
20225000000,505,20225000000,,0.00369539546067,-0.00263030858462,-0.00369539546069,0.00263030858461
20255000000,506,20255000000,,0.00354991098416,-0.00262685291742,-0.00354991098418,0.00262685291741
20309000000,507,20309000000,,0.00336138693753,-0.00262391719384,-0.00336138693754,0.00262391719383
20338000000,508,20338000000,,0.00298020645037,-0.00262036459896,-0.00298020645039,0.00262036459895
20382000000,509,20382000000,,0.00271738665841,-0.00261807803875,-0.00271738665843,0.00261807803874
20413000000,510,20413000000,,0.00219126135405,-0.00261533981587,-0.00219126135406,0.00261533981585
20453000000,511,20453000000,,0.0016898334017,-0.00261423159491,-0.00168983340171,0.0026142315949
20482000000,512,20482000000,,0.00114698088474,-0.00261120143571,-0.00114698088475,0.0026112014357
20535000000,513,20535000000,,0.000492951578496,-0.00260975623186,-0.00049295157851,0.00260975623185
20570000000,514,20570000000,,-7.92115299642e-05,-0.0026067851373,7.92115299505e-05,0.00260678513728
20612000000,515,20612000000,,-0.000815067802641,-0.00260527531346,0.000815067802627,0.00260527531344
20650000000,516,20650000000,,-0.0014361845428,-0.0026043541302,0.00143618454279,0.00260435413019
20682000000,517,20682000000,,-0.00224520447655,-0.00260306284194,0.00224520447653,0.00260306284193
20750000000,518,20750000000,,-0.00293380976661,-0.00260301103365,0.0029338097666,0.00260301103364
20784000000,519,20784000000,,-0.00379845271302,-0.00260320722663,0.00379845271301,0.00260320722662
20816000000,520,20816000000,,-0.00459580666802,-0.0026040523573,0.00459580666801,0.00260405235728
20858000000,521,20858000000,,-0.00536914832254,-0.00260391138511,0.00536914832252,0.00260391138509
20884000000,522,20884000000,,-0.00614013350525,-0.00262621522689,0.00614013350524,0.00262621522687
20922000000,523,20922000000,,-0.0068773782033,-0.0026381844593,0.00687737820329,0.00263818445929
20973000000,524,20973000000,,-0.00769131053943,-0.00264594100281,0.00769131053942,0.0026459410028
21013000000,525,21013000000,,-0.00843014254311,-0.00265168037364,0.00843014254309,0.00265168037363
21061000000,526,21061000000,,-0.00924691010471,-0.00265427016988,0.00924691010469,0.00265427016987
21096000000,527,21096000000,,-0.00999935593222,-0.00265680693124,0.00999935593221,0.00265680693123
21135000000,528,21135000000,,-0.010788721971,-0.0026578028221,0.010788721971,0.00265780282209
21172000000,529,21172000000,,-0.0115318366565,-0.00265818855151,0.0115318366565,0.0026581885515
21203000000,530,21203000000,,-0.0122962040225,-0.00265779973725,0.0122962040225,0.00265779973723
21240000000,531,21240000000,,-0.0130031310882,-0.0026565161922,0.0130031310882,0.00265651619218
21293000000,532,21293000000,,-0.0137389800394,-0.00265581112411,0.0137389800393,0.0026558111241
21359000000,533,21359000000,,-0.0144345178522,-0.00265256362014,0.0144345178522,0.00265256362012
21380000000,534,21380000000,,-0.0151357111469,-0.00265214233323,0.0151357111469,0.00265214233322
21401000000,535,21401000000,,-0.0158295987168,-0.00265200341442,0.0158295987168,0.00265200341441
21443000000,536,21443000000,,-0.0165252107661,-0.00265165147628,0.016525210766,0.00265165147627
21483000000,537,21483000000,,-0.0171881181857,-0.00265124983543,0.0171881181857,0.00265124983542
21526000000,538,21526000000,,-0.0178524149239,-0.00265086107713,0.0178524149239,0.00265086107712
21574000000,539,21574000000,,-0.0184893873354,-0.00265658077645,0.0184893873354,0.00265658077644
21612000000,540,21612000000,,-0.0191231461992,-0.00265999824153,0.0191231461992,0.00265999824151
21642000000,541,21642000000,,-0.0197424410148,-0.00266274940395,0.0197424410148,0.00266274940394
21696000000,542,21696000000,,-0.0203252778981,-0.00266407542779,0.0203252778981,0.00266407542778
21733000000,543,21733000000,,-0.0209425443491,-0.00266521084096,0.0209425443491,0.00266521084095
21766000000,544,21766000000,,-0.0218605846657,-0.00266580216064,0.0218605846657,0.00266580216063
21804000000,545,21804000000,,-0.0229871110497,-0.00266601464199,0.0229871110497,0.00266601464198
21847000000,546,21847000000,,-0.0241077309209,-0.00266622260382,0.0241077309209,0.00266622260381
21891000000,547,21891000000,,-0.0252273825841,-0.00266646309664,0.0252273825841,0.00266646309663
21937000000,548,21937000000,,-0.026251892978,-0.00266684442487,0.026251892978,0.00266684442486
21969000000,549,21969000000,,-0.0272035444495,-0.00266696416856,0.0272035444495,0.00266696416855
22005000000,550,22005000000,,-0.028038725681,-0.00266824577593,0.028038725681,0.00266824577592
22074000000,551,22074000000,,-0.0287465408919,-0.00266834326484,0.0287465408919,0.00266834326483
22094000000,552,22094000000,,-0.0294079417627,-0.00266974183416,0.0294079417627,0.00266974183415
22123000000,553,22123000000,,-0.0298724998524,-0.00267081489261,0.0298724998524,0.0026708148926
22163000000,554,22163000000,,-0.030319844721,-0.00267140835263,0.030319844721,0.00267140835262
22210000000,555,22210000000,,-0.0305755092364,-0.00267247608047,0.0305755092364,0.00267247608046
22254000000,556,22254000000,,-0.0308168639086,-0.00267291938933,0.0308168639086,0.00267291938932
22284000000,557,22284000000,,-0.0309140298328,-0.00267392877314,0.0309140298328,0.00267392877313
22331000000,558,22331000000,,-0.0310767636196,-0.00267449688274,0.0310767636196,0.00267449688273
22369000000,559,22369000000,,-0.0310714138512,-0.002677008453,0.0310714138512,0.00267700845299
22405000000,560,22405000000,,-0.0309951977436,-0.00267620734009,0.0309951977436,0.00267620734008
22452000000,561,22452000000,,-0.0309919746399,-0.00267970405703,0.0309919746399,0.00267970405702
22487000000,562,22487000000,,-0.0308140898378,-0.00268116758076,0.0308140898378,0.00268116758074
22535000000,563,22535000000,,-0.0307693807011,-0.00268198837114,0.0307693807011,0.00268198837113
22569000000,564,22569000000,,-0.0305631379106,-0.0026837919704,0.0305631379106,0.00268379197038
22607000000,565,22607000000,,-0.0304318298434,-0.00268418676968,0.0304318298433,0.00268418676966
22654000000,566,22654000000,,-0.0301742570591,-0.0026850422937,0.0301742570591,0.00268504229369
22693000000,567,22693000000,,-0.0299832589439,-0.0026853269994,0.0299832589439,0.00268532699939
22730000000,568,22730000000,,-0.0297417064216,-0.00268677042096,0.0297417064216,0.00268677042095
22782000000,569,22782000000,,-0.0295067945186,-0.00268287712917,0.0295067945186,0.00268287712916
22813000000,570,22813000000,,-0.0293037579199,-0.00268423813452,0.0293037579199,0.0026842381345
22865000000,571,22865000000,,-0.0290367821388,-0.00268394170531,0.0290367821388,0.00268394170529
22889000000,572,22889000000,,-0.0288362498506,-0.00268448932828,0.0288362498506,0.00268448932826
22923000000,573,22923000000,,-0.0285616917043,-0.002685297603,0.0285616917043,0.00268529760299
22969000000,574,22969000000,,-0.0283521726172,-0.00268595474098,0.0283521726172,0.00268595474097
23013000000,575,23013000000,,-0.0281190812493,-0.00268655464093,0.0281190812493,0.00268655464092
23057000000,576,23057000000,,-0.0279229562913,-0.00268720407692,0.0279229562913,0.00268720407691
23099000000,577,23099000000,,-0.0277223259609,-0.00268799191796,0.0277223259609,0.00268799191794
23143000000,578,23143000000,,-0.0275427109615,-0.0026886497071,0.0275427109615,0.00268864970709
23168000000,579,23168000000,,-0.0273712710226,-0.00268960070215,0.0273712710226,0.00268960070213
23204000000,580,23204000000,,-0.0275542018871,-0.00269129744941,0.0275542018871,0.0026912974494
23242000000,581,23242000000,,-0.0279351174453,-0.00269148443753,0.0279351174453,0.00269148443752
23302000000,582,23302000000,,-0.0283831394144,-0.00269190677411,0.0283831394144,0.0026919067741
23336000000,583,23336000000,,-0.028831002873,-0.00269252855938,0.028831002873,0.00269252855936
23381000000,584,23381000000,,-0.0292532191084,-0.00269287854146,0.0292532191084,0.00269287854145
23417000000,585,23417000000,,-0.0295877573808,-0.00269348797115,0.0295877573808,0.00269348797114
23457000000,586,23457000000,,-0.0298417041107,-0.00269390037763,0.0298417041107,0.00269390037762
23484000000,587,23484000000,,-0.0300043213013,-0.00268482646046,0.0300043213013,0.00268482646045
23521000000,588,23521000000,,-0.0300527421091,-0.00267908714038,0.0300527421091,0.00267908714037
23577000000,589,23577000000,,-0.0299995016727,-0.00267555592573,0.0299995016727,0.00267555592572
23606000000,590,23606000000,,-0.029894952059,-0.00267377041575,0.0298949520589,0.00267377041574
23662000000,591,23662000000,,-0.0296457989789,-0.00267243308014,0.0296457989789,0.00267243308013
23695000000,592,23695000000,,-0.029350885641,-0.00267251953135,0.029350885641,0.00267251953134
23727000000,593,23727000000,,-0.0289193955465,-0.00267309377735,0.0289193955465,0.00267309377734
23766000000,594,23766000000,,-0.0284971032026,-0.00267293588954,0.0284971032026,0.00267293588953
23811000000,595,23811000000,,-0.0279544777694,-0.00267335789767,0.0279544777694,0.00267335789766
23856000000,596,23856000000,,-0.0274276606879,-0.00267330180588,0.0274276606879,0.00267330180587
23899000000,597,23899000000,,-0.0268158412469,-0.00267402545083,0.0268158412469,0.00267402545082
23932000000,598,23932000000,,-0.0262122789676,-0.00267335740436,0.0262122789676,0.00267335740435
23978000000,599,23978000000,,-0.0255666111463,-0.00267631182511,0.0255666111463,0.0026763118251
24020000000,600,24020000000,,-0.0248563576571,-0.00267552306087,0.0248563576571,0.00267552306086
24058000000,601,24058000000,,-0.0238467522691,-0.00267776287559,0.0238467522691,0.00267776287558
