%time,field.header.seq,field.header.stamp,field.header.frame_id,field.angular_velocities0,field.angular_velocities1,field.angular_velocities2,field.angular_velocities3
121000000,0,121000000,,427.0,427.0,427.0,427.0
242000000,1,242000000,,777.001596237,777.001728247,776.996736394,776.997041579
320000000,2,320000000,,479.334231935,479.334782466,479.325153561,479.323729641
440000000,3,440000000,,645.121602783,645.122909842,645.108756012,645.107357854
520000000,4,520000000,,654.890560056,654.892007808,654.874383535,654.872894065
640000000,5,640000000,,609.902913616,609.904458084,609.884155092,609.882558183
720000000,6,720000000,,458.27440672,458.27603968,458.253893684,458.252224964
840000000,7,840000000,,324.561834164,324.56352823,324.540118697,324.538398843
920000000,8,920000000,,286.963828907,286.965555326,286.941380865,286.939647383
1000000000,9,1000000000,,327.39868358,327.400406446,327.375805537,327.374092023
1120000000,10,1120000000,,411.678664336,411.680336581,411.65559722,411.653962278
1240000000,11,1240000000,,463.694775517,463.696176528,463.671682713,463.670485002
1320000000,12,1320000000,,458.885622824,458.886635862,458.862862783,458.862041119
1440000000,13,1440000000,,448.58950089,448.590119328,448.567217787,448.56679366
1520000000,14,1520000000,,410.083403286,410.083569299,410.061595642,410.061680322
1640000000,15,1640000000,,392.321637077,392.321294951,392.300254517,392.300845908
1720000000,16,1720000000,,383.15338527,383.126062055,383.132354748,383.106954949
1840000000,17,1840000000,,403.40253713,403.391543632,403.381513354,403.372293882
1922000000,18,1922000000,,414.529369856,414.518993026,414.508123542,414.498622976
2040000000,19,2040000000,,439.748693246,439.739148133,439.72708452,439.717094145
2120000000,20,2120000000,,432.121621016,432.140662032,432.099713998,432.117409129
2244000000,21,2244000000,,427.898784895,427.899564248,427.876552401,427.875047656
2320000000,22,2320000000,,392.633158573,392.634467866,392.610550499,392.608468663
2443000000,23,2443000000,,447.347949244,447.349856078,447.324936295,447.322239815
2520000000,24,2520000000,,403.871751238,403.846860594,403.848471488,403.818276454
2641000000,25,2641000000,,448.830972661,448.824084695,448.807647052,448.795530415
2720000000,26,2720000000,,427.813315459,427.80645606,427.789992652,427.77867807
2800000000,27,2800000000,,432.388165203,432.380972354,432.364886425,432.354245226
2920000000,28,2920000000,,430.033251866,430.052078237,430.009912236,430.02577905
3040000000,29,3040000000,,419.944510061,419.945325788,419.921096755,419.919424332
3123000000,30,3123000000,,430.459375543,430.459910487,430.435947218,430.43458827
3200000000,31,3200000000,,433.405933271,433.406089428,433.38250871,433.381593498
3328000000,32,3328000000,,419.806576343,419.806240726,419.783158,419.782777571
3443000000,33,3443000000,,420.58820614,420.587325478,420.564849734,420.565030245
3522000000,34,3522000000,,437.475931418,437.449220981,437.452590904,437.427304924
3643000000,35,3643000000,,429.129936956,429.12252693,429.10623084,429.099856568
3722000000,36,3722000000,,430.341269277,430.334753493,430.316822393,430.310686443
3840000000,37,3840000000,,427.605255508,427.618886477,427.580002287,427.59327359
3920000000,38,3920000000,,426.92880908,426.928533877,426.902966704,426.901868096
4040000000,39,4040000000,,437.728063759,437.728018363,437.701693503,437.700325582
4120000000,40,4120000000,,425.64534853,425.645605925,425.61844679,425.616737643
4240000000,41,4240000000,,438.116576774,438.117221871,438.089155322,438.087015724
4320000000,42,4320000000,,434.878991137,434.880082,434.851084929,434.848476734
4440000000,43,4440000000,,423.412562866,423.397568904,423.384575268,423.365723473
4520000000,44,4520000000,,438.128981444,438.124659858,438.101159809,438.093506757
4600000000,45,4600000000,,414.647386402,414.658776604,414.619659771,414.628536762
4722000000,46,4722000000,,445.309958304,445.310382663,445.282144336,445.280322503
4841000000,47,4841000000,,440.980583607,440.98081128,440.952676356,440.951160994
4920000000,48,4920000000,,418.607183611,418.607033917,418.579189518,418.578135044
5040000000,49,5040000000,,433.405648387,433.404983797,433.377566498,433.377070948
5120000000,50,5120000000,,431.017551305,431.016270228,430.989356455,430.989541271
5240000000,51,5240000000,,435.470789268,435.468765251,435.442444244,435.443430283
5320000000,52,5320000000,,436.833810022,436.809785195,436.805129057,436.785181054
5400000000,53,5400000000,,437.545784377,437.535571543,437.51662546,437.510642022
5520000000,54,5520000000,,427.84238563,427.832572504,427.812748169,427.806605997
5640000000,55,5640000000,,435.227190702,435.217989353,435.197191585,435.190569282
5720000000,56,5720000000,,429.514646718,429.526764904,429.484268052,429.498382212
5840000000,57,5840000000,,422.552227884,422.550553066,422.52148321,422.52119616
5920000000,58,5920000000,,430.270260198,430.268964043,430.239191577,430.238470292
6000000000,59,6000000000,,437.646435429,437.64566897,437.615132512,437.61378771
6120000000,60,6120000000,,439.056062127,439.056016365,439.024666619,439.022512686
6240000000,61,6240000000,,432.542446868,432.524448176,432.511064603,432.489356593
6320000000,62,6320000000,,421.226349841,421.221521802,421.195313238,421.186009342
6440000000,63,6440000000,,422.764739192,422.759974804,422.7341106,422.725148338
6520000000,64,6520000000,,435.290464793,435.285553417,435.260044594,435.25183114
6601000000,65,6601000000,,439.702737925,439.714966266,439.672650853,439.681671172
6720000000,66,6720000000,,443.649692429,443.626531082,443.619469216,443.629807881
6842000000,67,6842000000,,427.942382522,427.891735233,427.911690478,427.963444069
6920000000,68,6920000000,,426.279824653,426.185764268,426.248552342,426.343530546
7000000000,69,7000000000,,424.169767962,424.033634942,424.137915436,424.278390903
7120000000,70,7120000000,,431.214208255,431.044246423,431.181841037,431.360751327
7240000000,71,7240000000,,438.76364807,438.576059188,438.730891319,438.930298856
7320000000,72,7320000000,,442.560768961,442.371183415,442.527753147,442.721714179
7440000000,73,7440000000,,437.051734262,436.882088247,437.01858547,437.197748606
7520000000,74,7520000000,,420.585797303,420.444327144,420.552629951,420.706018353
7640000000,75,7640000000,,435.487587659,435.386364588,435.454616729,435.572455891
7722000000,76,7722000000,,434.812814944,434.741449493,434.780155964,434.847048557
7801000000,77,7801000000,,438.304121524,438.268050268,438.271818346,438.273974771
7920000000,78,7920000000,,435.323231331,435.350299724,435.291328452,435.228338582
8040000000,79,8040000000,,436.697069267,436.79031021,436.665612795,436.533672151
8120000000,80,8120000000,,434.628026546,434.783782747,434.597064072,434.414319267
8200000000,81,8200000000,,430.829028505,431.023496049,430.798598994,430.573790317
8320000000,82,8320000000,,442.227334051,442.446008669,442.197456428,441.97538671
8441000000,83,8441000000,,427.183580954,427.389469168,427.15427549,426.94571253
8522000000,84,8522000000,,439.666102352,439.844558139,439.637411068,439.468247513
8640000000,85,8640000000,,435.008241574,435.142470555,434.980222921,434.874088825
8720000000,86,8720000000,,419.292548235,419.368874129,419.265123457,419.217388579
8800000000,87,8800000000,,428.097306565,428.111636255,428.070473235,428.085849903
8920000000,88,8920000000,,434.302919431,434.254724501,434.276683348,434.352701574
9000000000,89,9000000000,,443.171632957,443.067313322,443.145972694,443.277912808
9120000000,90,9120000000,,424.478210641,424.319055191,424.45320548,424.619772808
9241000000,91,9241000000,,434.787240191,434.603526606,434.762760782,434.972250416
9322000000,92,9322000000,,434.497325339,434.287878297,434.473149975,434.674464062
9441000000,93,9441000000,,424.625318247,424.425990345,424.601379492,424.773947725
9520000000,94,9520000000,,426.862516736,426.703450363,426.83883203,426.966347732
9640000000,95,9640000000,,433.151469645,433.053015792,433.128077283,433.206353938
9720000000,96,9720000000,,445.507018863,445.450422552,445.483932283,445.50577041
9840000000,97,9840000000,,432.191926987,432.182008915,432.16925645,432.158863781
9920000000,98,9920000000,,426.566810614,426.581559083,426.544631303,426.519878089
10000000000,99,10000000000,,425.391771192,425.408169562,425.370080462,425.346067974
10120000000,100,10120000000,,434.459598637,434.46756417,434.438345806,434.449037278
10240000000,101,10240000000,,437.443104185,437.425159603,437.422144914,437.478951828
10320000000,102,10320000000,,432.994065712,432.932285283,432.973229458,433.076214663
10400000000,103,10400000000,,434.264078555,434.14443473,434.24325838,434.387144236
10520000000,104,10520000000,,445.638230933,445.461753582,445.617403827,445.824067808
10611000000,105,10611000000,,437.324386134,437.082839435,437.303553741,437.577705111
10723000000,106,10723000000,,428.322585917,428.010060147,428.301654175,428.650948942
10857000000,107,10857000000,,434.872754265,434.488315333,434.851658491,435.271535314
10922000000,108,10922000000,,450.138890321,449.697939723,450.117563081,450.574916679
11042000000,109,11042000000,,423.900686413,423.425660842,423.879098115,424.359067574
11127000000,110,11127000000,,437.502056956,437.017566477,437.480192711,437.953937217
11245000000,111,11245000000,,414.337047155,413.869960218,414.314850351,414.754734082
11320000000,112,11320000000,,427.217176227,426.794858428,427.194648333,427.593375788
11440000000,113,11440000000,,440.86895686,440.500237979,440.846075723,441.185019628
11520000000,114,11520000000,,444.931477245,444.631786987,444.908353179,445.192412997
11601000000,115,11601000000,,418.97749783,418.735903936,418.954243197,419.17495699
11720000000,116,11720000000,,421.450574312,421.256443618,421.427214043,421.591903971
11840000000,117,11840000000,,447.842516869,447.692997723,447.819032324,447.94400736
11920000000,118,11920000000,,436.985874204,436.868211976,436.962242047,437.062859732
12043000000,119,12043000000,,435.313945171,435.215586288,435.290149325,435.379247104
12120000000,120,12120000000,,432.339949188,432.247372052,432.315985362,432.404252296
12201000000,121,12201000000,,432.694789129,432.595505911,432.670676478,432.770706172
12320000000,122,12320000000,,420.366070882,420.250740284,420.341835108,420.463986716
12440000000,123,12440000000,,447.346155558,447.208023135,447.321807071,447.468567196
12520000000,124,12520000000,,427.801176205,427.63853914,427.776714957,427.948437877
12640000000,125,12640000000,,439.080823245,438.897462126,439.056234005,439.251813859
12720000000,126,12720000000,,423.285238744,423.080784392,423.260500351,423.471515983
12801000000,127,12801000000,,444.457523212,444.240493985,444.432621474,444.658645633
12921000000,128,12921000000,,430.264804178,430.037552504,430.239719375,430.470708153
13000000000,129,13000000000,,427.144102382,426.912312051,427.118815011,427.350604943
13120000000,130,13120000000,,430.815883152,430.585600637,430.790376733,431.018058321
13200000000,131,13200000000,,423.106042819,422.880871465,423.080298082,423.300948914
13320000000,132,13320000000,,430.435358653,430.217467358,430.40935537,430.621120251
13440000000,133,13440000000,,435.289767185,435.081290749,435.263491638,435.465868237
13520000000,134,13520000000,,443.536707182,443.337973249,443.510154663,443.70304129
13640000000,135,13640000000,,433.409617757,433.219471976,433.382783301,433.567435058
13720000000,136,13720000000,,432.001098684,431.817954984,431.973984323,432.153094527
13840000000,137,13840000000,,436.891080688,436.712843005,436.863690095,437.039055594
13920000000,138,13920000000,,410.126899945,409.951834644,410.099238471,410.272493925
14043000000,139,14043000000,,427.559588214,427.385294586,427.531663564,427.704849591
14120000000,140,14120000000,,435.921901242,435.746768306,435.893725422,436.06889511
14200000000,141,14200000000,,452.866518145,452.689557977,452.838094316,453.016432333
14323000000,142,14323000000,,442.134614589,441.954477787,442.105929444,442.288105062
14444000000,143,14444000000,,424.419975984,424.23636943,424.391071959,424.576304124
14521000000,144,14521000000,,417.466930496,417.280510172,417.437808943,417.626464489
14640000000,145,14640000000,,421.168644673,420.976450239,421.13918775,421.326975371
14720000000,146,14720000000,,419.446595167,419.259183709,419.416784257,419.613929509
14840000000,147,14840000000,,432.788336664,432.596393052,432.758125742,432.953659859
14922000000,148,14922000000,,445.162570942,444.969614884,445.131989863,445.327430171
15047000000,149,15047000000,,440.077714402,439.884803777,440.04680122,440.241928601
15122000000,150,15122000000,,429.26418895,429.071943198,429.232990047,429.427235908
15240000000,151,15240000000,,426.626651609,426.435370581,426.59519362,426.788052248
15325000000,152,15325000000,,426.748095322,426.558103781,426.716400316,426.907911356
15402000000,153,15402000000,,434.094802257,433.906085377,434.062881405,434.252893278
15521000000,154,15521000000,,430.237456963,430.044340006,430.205296948,430.388903272
15640000000,155,15640000000,,431.57902095,431.39056509,431.546617555,431.733090939
15720000000,156,15720000000,,445.337644701,445.150150356,445.305005653,445.490443481
15840000000,157,15840000000,,431.651765821,431.47063562,431.618898093,431.808593215
15920000000,158,15920000000,,437.182324031,436.997935938,437.149221027,437.335112955
16040000000,159,16040000000,,419.884520792,419.700092506,419.851172497,420.037530109
16122000000,160,16122000000,,422.818767454,422.633854798,422.785158741,422.972127964
16240000000,161,16240000000,,439.580546024,439.394905683,439.546671221,439.734216627
16320000000,162,16320000000,,429.93329867,429.74252349,429.899166259,430.082316655
16440000000,163,16440000000,,442.50515818,442.317270646,442.470775254,442.657348586
16520000000,164,16520000000,,426.183205651,425.994981829,426.148554143,426.335539913
16641000000,165,16641000000,,432.15158734,431.962917281,432.116670906,432.304129871
16720000000,166,16720000000,,428.675338221,428.486127418,428.640135172,428.828208326
16841000000,167,16841000000,,428.003052495,427.813202611,427.967540204,428.156276691
16920000000,168,16920000000,,435.44794341,435.262059378,435.412087549,435.605363145
17040000000,169,17040000000,,433.23172346,433.042961561,433.195489757,433.385361309
17120000000,170,17120000000,,436.464976423,436.276570101,436.428399997,436.617575198
17240000000,171,17240000000,,438.520439944,438.32857439,438.483509867,438.668554335
17324000000,172,17324000000,,424.383326926,424.194399778,424.346049851,424.533459282
17400000000,173,17400000000,,427.096822165,426.908233168,427.059203959,427.246222192
17520000000,174,17520000000,,426.303404525,426.115289813,426.265471227,426.451941676
17600000000,175,17600000000,,434.808754313,434.621221671,434.770537252,434.956382834
17731000000,176,17731000000,,439.175841299,438.988980861,439.137372009,439.322502385
17854000000,177,17854000000,,434.865787771,434.682774181,434.827183827,435.015552699
17920000000,178,17920000000,,433.024021556,432.838430563,432.98534015,433.171835958
18041000000,179,18041000000,,427.812261851,427.626042143,427.773470521,427.960639509
18120000000,180,18120000000,,432.466885181,432.276905445,432.427925549,432.61274682
18240000000,181,18240000000,,432.630602755,432.44218985,432.59151457,432.778738023
18320000000,182,18320000000,,421.915986608,421.727176208,421.876748266,422.064456444
18440000000,183,18440000000,,436.885449525,436.696106069,436.846006335,437.034289201
18520000000,184,18520000000,,433.209796262,433.019844238,433.170083404,433.359014831
18640000000,185,18640000000,,442.01128004,441.823274699,441.971159476,442.163408401
18720000000,186,18720000000,,428.287554324,428.097645056,428.246690872,428.437411199
18842000000,187,18842000000,,429.092712213,428.902788106,429.051270307,429.241514414
18920000000,188,18920000000,,435.729352692,435.536746735,435.687406153,435.87510684
19040000000,189,19040000000,,431.095517067,430.90465797,431.053105403,431.242693703
19122000000,190,19122000000,,439.579796448,439.388945543,439.536985628,439.726508191
19240000000,191,19240000000,,431.6400485,431.449380904,431.596994714,431.786227503
19320000000,192,19320000000,,423.976950093,423.786689634,423.933910254,424.122614323
19440000000,193,19440000000,,423.753552947,423.563896268,423.710743497,423.898776305
19521000000,194,19521000000,,433.795643532,433.606697466,433.753251423,433.940521467
19600000000,195,19600000000,,428.353636478,428.167339774,428.311943417,428.500953473
19720000000,196,19720000000,,445.164924217,444.977060199,445.123733917,445.311592096
19841000000,197,19841000000,,426.545609668,426.357200787,426.504575871,426.692990808
19920000000,198,19920000000,,440.757562263,440.569474436,440.707020412,440.906100615
20040000000,199,20040000000,,430.247267614,430.046086147,430.145499525,430.383324508
20120000000,200,20120000000,,424.788745371,424.542141058,424.607717429,424.879783281
20240000000,201,20240000000,,427.142606663,426.863713926,426.868819014,427.201425573
20322000000,202,20322000000,,433.532778443,433.217126733,433.169647828,433.55468197
20440000000,203,20440000000,,426.332520793,425.984206949,425.897266048,426.321400833
20522000000,204,20522000000,,438.226876857,437.865910232,437.751582011,438.202688067
20640000000,205,20640000000,,419.40222536,419.028728142,418.910797766,419.36506076
20720000000,206,20720000000,,451.506457496,451.125020307,451.022208737,451.460981931
20840000000,207,20840000000,,429.120995201,428.749734458,428.663521175,429.08546019
20920000000,208,20920000000,,439.208752177,438.843563501,438.787639248,439.17978765
21042000000,209,21042000000,,431.775234801,431.413647323,431.397353695,431.751093691
21125000000,210,21125000000,,429.085111884,428.739019081,428.753518027,429.078213551
21240000000,211,21240000000,,430.549445167,430.231947177,430.256380043,430.572638807
21320000000,212,21320000000,,442.064664972,441.764113189,441.801288499,442.10613122
21440000000,213,21440000000,,421.857042686,421.569635053,421.618221921,421.912841657
21521000000,214,21521000000,,441.160887708,440.881113756,440.935256145,441.225389597
21640000000,215,21640000000,,446.07192112,445.793615666,445.851951077,446.138979747
21720000000,216,21720000000,,433.142125313,432.864367159,432.915434973,433.210940347
21800000000,217,21800000000,,426.07982785,425.793619848,425.846909243,426.141426586
21920000000,218,21920000000,,446.318690038,446.030690455,446.113072529,446.379683084
22040000000,219,22040000000,,424.570264975,424.315431606,424.412845908,424.665557182
22120000000,220,22120000000,,433.565401789,433.332124567,433.461921205,433.683396727
22240000000,221,22240000000,,427.373568079,427.168353387,427.318127491,427.520796377
22324000000,222,22324000000,,436.121822774,435.92827401,436.089545588,436.281931463
22440000000,223,22440000000,,432.695081649,432.494586549,432.664341448,432.849486676
22521000000,224,22521000000,,430.199396122,430.007988009,430.14186473,430.364220992
22640000000,225,22640000000,,435.440029682,435.214458946,435.336154751,435.572082051
22720000000,226,22720000000,,425.211301637,424.966107609,425.04283011,425.325133894
22840000000,227,22840000000,,434.445681828,434.169600767,434.201759089,434.529924836
22921000000,228,22921000000,,435.746558556,435.425135378,435.42061586,435.786751901
23000000000,229,23000000000,,431.536990228,431.181364367,431.127432973,431.544281988
23120000000,230,23120000000,,431.252146112,430.857759288,430.760826589,431.22201323
23240000000,231,23240000000,,437.870465722,437.384423434,437.302837248,437.75005124
23320000000,232,23320000000,,423.702945771,423.280404257,423.100908243,423.647460576
23442000000,233,23442000000,,431.541295581,431.073676194,430.946090129,431.442146098
23520000000,234,23520000000,,443.593090993,443.091062575,443.037536748,443.460729874
23640000000,235,23640000000,,438.6065198,438.221700002,438.103822174,438.592321327
23720000000,236,23720000000,,433.499236326,433.094790266,433.041099233,433.466249249
23841000000,237,23841000000,,423.716044957,423.328669657,423.287890209,423.701017063
23920000000,238,23920000000,,436.027783234,435.639628787,435.607215171,436.012970417
24040000000,239,24040000000,,429.533569734,429.142739323,429.100929325,429.517191291
24120000000,240,24120000000,,435.116239339,434.729867552,434.63069773,435.105550385
24240000000,241,24240000000,,430.468082548,430.028995047,429.882095991,430.405946231
24321000000,242,24321000000,,444.646250446,444.150303429,443.928995526,444.528524397
24400000000,243,24400000000,,435.139351863,434.590464351,434.279815851,434.969772176
24520000000,244,24520000000,,423.137105398,422.520566667,422.131516468,422.900708184
24640000000,245,24640000000,,439.45818427,438.768250891,438.314499744,439.149106172
24720000000,246,24720000000,,426.402547416,425.659110373,425.154543609,426.040690229
24841000000,247,24841000000,,445.896377834,445.125225189,444.574119361,445.507578075
24920000000,248,24920000000,,435.643947192,434.834564009,434.286162723,435.217751591
25040000000,249,25040000000,,447.05371275,446.240767661,445.687974739,446.624872695
25120000000,250,25120000000,,426.605250117,425.785746172,425.254608823,426.170907895
25217000000,251,25217000000,,428.768478379,427.95695163,427.442618881,428.343166551
25320000000,252,25320000000,,421.259770362,420.464152804,419.971655335,420.8514503
25401000000,253,25401000000,,440.335698378,439.551353967,439.089557529,439.93974898
25520000000,254,25520000000,,426.907217594,426.146409385,425.700763207,426.535918195
25640000000,255,25640000000,,441.722616629,440.976172091,440.550553901,441.3668194
25721000000,256,25721000000,,427.435595495,426.700759269,426.288208745,427.092565198
25802000000,257,25802000000,,445.762456862,445.035982216,444.630333837,445.428962381
25920000000,258,25920000000,,434.630889586,433.909714686,433.502327651,434.303885959
26040000000,259,26040000000,,421.909106313,421.181537864,420.77447956,421.576921334
26120000000,260,26120000000,,424.753002063,424.017744602,423.602313205,424.414369655
26240000000,261,26240000000,,432.925276259,432.183091355,431.751149438,432.580974928
26320000000,262,26320000000,,426.286233071,425.526545071,425.082077021,425.92570357
26440000000,263,26440000000,,440.347152608,439.57065749,439.108985652,439.97111041
26525000000,264,26525000000,,446.171219357,445.379673535,444.896122344,445.781446038
26640000000,265,26640000000,,436.245716726,435.432894706,434.933050025,435.835980475
26720000000,266,26720000000,,431.798903427,430.969055888,430.449141562,431.373457624
26844000000,267,26844000000,,432.976076277,432.03022095,431.590781854,432.435945425
26920000000,268,26920000000,,426.297113831,425.497313984,424.8787069,425.904385194
27040000000,269,27040000000,,415.756221696,414.874554941,414.307916392,415.282977478
27120000000,270,27120000000,,435.952679618,435.05712949,434.475962115,435.466995505
27241000000,271,27241000000,,442.30594756,441.395479185,440.805728458,441.8067139
27320000000,272,27320000000,,429.99160848,429.06982638,428.470327733,429.48246317
27401000000,273,27401000000,,443.082078822,442.150940562,441.541022346,442.564985074
27521000000,274,27521000000,,425.100755938,424.158659864,423.541709348,424.574078629
27600000000,275,27600000000,,433.582272643,432.630891109,432.006209679,433.047679529
