%time,field.header.seq,field.header.stamp,field.header.frame_id,field.pose.position.x,field.pose.position.y,field.pose.position.z,field.pose.orientation.x,field.pose.orientation.y,field.pose.orientation.z,field.pose.orientation.w
1000000,0,1000000,world,0.0,0.0,0.74,0.0,0.0,0.0,1.0
11000000,1,11000000,world,-1.07738277069e-27,-1.09807001825e-27,0.739461,-5.3725141903e-27,4.12735521657e-27,1.15199516752e-27,1.0
21000000,2,21000000,world,1.63692024856e-24,1.51811157212e-24,0.737942,1.20292517363e-23,-1.19965837191e-23,-1.854574052e-24,1.0
31000000,3,31000000,world,-4.38394968409e-25,-6.00545634499e-25,0.735443,7.22102059036e-24,-1.67577970031e-23,7.60542676413e-25,1.0
41000000,4,41000000,world,-1.4288227372e-24,-1.79321964477e-24,0.731964,3.00119168489e-24,-2.37804484207e-23,1.87282292978e-24,1.0
51000000,5,51000000,world,-3.25176335573e-19,3.25088079529e-19,0.727505,-3.24760764905e-20,-3.12029071387e-20,1.96367807688e-25,1.0
61000000,6,61000000,world,-1.03932950777e-18,1.03873114951e-18,0.722066,-1.13780278002e-19,-9.6010008738e-20,-8.24286769097e-25,1.0
71000000,7,71000000,world,-1.79586477776e-18,1.79492585481e-18,0.715647,-1.67544757709e-19,-1.41465168305e-19,1.20688857232e-24,1.0
81000000,8,81000000,world,-2.59009748854e-18,2.58894073649e-18,0.708248,-1.56252401586e-19,-1.2735120427e-19,-2.34152412043e-24,1.0
91000000,9,91000000,world,-3.43351076191e-18,3.42428442863e-18,0.699869,-8.06138332875e-20,-5.5115617766e-20,-1.67222238838e-24,1.0
101000000,10,101000000,world,-4.34607211219e-18,4.30977971301e-18,0.69051,8.80527578493e-20,7.17832895998e-20,-4.48288046957e-24,1.0
111000000,11,111000000,world,-5.28529752314e-18,5.22057136022e-18,0.680171,2.88307466197e-19,2.14252324435e-19,-3.19375795469e-24,1.0
121000000,12,121000000,world,-6.2448525506e-18,6.14981117636e-18,0.668852,3.84281645442e-19,2.7049149364e-19,-3.37583852138e-24,1.0
131000000,13,131000000,world,1.19280108197e-10,1.25028046266e-10,0.656553009453,5.69756603881e-09,-5.43559042665e-09,-5.8107079611e-15,1.0
141000000,14,141000000,world,3.09178680812e-09,3.24071897688e-09,0.643274636794,1.46695425042e-07,-1.39953652839e-07,-3.55477447306e-14,1.0
151000000,15,151000000,world,1.39539129641e-08,1.46249824012e-08,0.629019732422,6.58405469303e-07,-6.28194578192e-07,-7.8186986872e-15,1.0
161000000,16,161000000,world,-6.32533115386e-07,1.29483671607e-06,0.624997931947,-9.75653085416e-07,-1.34692360172e-06,-3.16997293182e-07,0.999999999999
171000000,17,171000000,world,1.80391471841e-06,3.90239934019e-06,0.624998071426,-2.33567643448e-06,7.6757437907e-07,-3.89754269941e-07,0.999999999997
181000000,18,181000000,world,8.28273058776e-07,-9.64047936164e-07,0.624998760716,1.62981807425e-06,6.3225622809e-09,-2.22841674522e-07,0.999999999999
191000000,19,191000000,world,8.13968680255e-07,4.73330330119e-06,0.624997796629,-2.92483173476e-06,7.45161003956e-09,-1.94246118757e-07,0.999999999996
201000000,20,201000000,world,8.0193920656e-07,-1.15365557571e-06,0.624998646429,1.79059151661e-06,7.24522969032e-09,-2.04231845264e-07,0.999999999998
211000000,21,211000000,world,1.15605559102e-06,4.48682886963e-06,0.624998216733,-2.72931096103e-06,3.73985444978e-07,-2.1750586658e-07,0.999999999996
221000000,22,221000000,world,-8.54197167857e-07,-1.57465125033e-06,0.624997222234,2.14912479255e-06,-1.48165991386e-06,-1.22281687297e-07,0.999999999997
231000000,23,231000000,world,1.91744955978e-06,4.28567638966e-06,0.62499911028,-2.73801376278e-06,7.88523470448e-07,-9.0175018735e-07,0.999999999996
241000000,24,241000000,world,-2.39034664759e-06,-7.17313377519e-09,0.624998336202,7.51141907087e-07,-3.01627419536e-06,-3.33013635774e-07,0.999999999995
251000000,25,251000000,world,4.05560834383e-06,3.42610552368e-07,0.624997744464,5.62587496782e-07,2.33335921825e-06,-4.18170802781e-07,0.999999999997
261000000,26,261000000,world,3.36784525482e-07,-3.62964041134e-07,0.624998892087,9.65275292476e-07,-7.24116337824e-07,-9.35656983627e-07,0.999999999999
271000000,27,271000000,world,4.31657675486e-06,-1.11475824849e-06,0.624997114419,1.62553007616e-06,2.50058638043e-06,-2.78138527005e-07,0.999999999996
281000000,28,281000000,world,-9.90748738034e-07,2.21582002257e-06,0.624997939634,-1.22487186384e-06,-1.72379408334e-06,4.7360638718e-08,0.999999999998
291000000,29,291000000,world,3.79417065264e-06,6.09708187269e-07,0.624998468359,1.44663438507e-07,2.05516290781e-06,-1.34716455673e-07,0.999999999998
301000000,30,301000000,world,3.79211060481e-06,-6.23097040015e-08,0.625001083921,-2.02922022203e-08,1.36122927553e-06,-1.49104076673e-06,0.999999999998
311000000,31,311000000,world,2.05543299923e-06,-2.02858407953e-07,0.625000017359,1.51400673651e-08,-4.32694153034e-08,-1.51097293457e-06,0.999999999999
321000000,32,321000000,world,2.34837786124e-06,8.30670580352e-08,0.625000100838,-3.51235863165e-08,1.34974781255e-07,-2.2610776184e-06,0.999999999997
331000000,33,331000000,world,1.96841805331e-06,-1.84266145569e-07,0.625000102998,2.567962966e-08,-1.49004055715e-07,-2.94603185717e-06,0.999999999996
341000000,34,341000000,world,2.27716731602e-06,1.47813702657e-07,0.625000043079,-1.84435063797e-08,6.30387485389e-08,-3.6110137579e-06,0.999999999993
351000000,35,351000000,world,1.94797532157e-06,-4.00918636801e-08,0.625000121596,1.40425460244e-08,-1.71996660907e-07,-4.23618559501e-06,0.999999999991
361000000,36,361000000,world,2.3837392077e-06,1.9736160147e-07,0.625000156896,-7.22303786299e-09,1.89038605983e-07,-4.67376873506e-06,0.999999999989
371000000,37,371000000,world,1.87937120226e-06,8.08584284181e-08,0.625000124852,6.73687623365e-09,-1.78348059334e-07,-5.18259821327e-06,0.999999999987
381000000,38,381000000,world,2.12756419806e-06,3.29314118352e-07,0.625000059001,-9.19926507734e-08,2.4951476156e-08,-5.11393606646e-06,0.999999999987
391000000,39,391000000,world,2.05585271981e-06,1.46558829628e-07,0.625000042043,7.19467375482e-08,1.28638220821e-08,-5.11804508934e-06,0.999999999987
401000000,40,401000000,world,2.13444314209e-06,1.05487131186e-06,0.624999624866,-6.68515961523e-07,4.25440364887e-09,-5.14409699473e-06,0.999999999987
411000000,41,411000000,world,1.92445553906e-06,-1.03654503651e-06,0.624999358855,9.71068375561e-07,-1.31622204778e-07,-5.07640542665e-06,0.999999999987
421000000,42,421000000,world,2.03938688274e-06,2.64933715435e-07,0.624997599407,-6.99242602299e-08,-1.37379029286e-09,-5.08323989052e-06,0.999999999987
431000000,43,431000000,world,2.0305519197e-06,1.52114315733e-07,0.624999990448,-8.36658660391e-09,-4.00877394097e-09,-5.03368529137e-06,0.999999999987
441000000,44,441000000,world,2.02756697409e-06,-5.35891593472e-08,0.6250001093,1.60121455797e-07,2.19085799981e-09,-5.03807531342e-06,0.999999999987
451000000,45,451000000,world,2.01974680915e-06,1.84955923739e-07,0.625000010012,-2.7628186103e-08,3.79245229599e-09,-5.0419482055e-06,0.999999999987
461000000,46,461000000,world,2.01978062937e-06,-1.08409334776e-07,0.625000143033,2.04512411887e-07,2.61813326079e-09,-5.03953299626e-06,0.999999999987
471000000,47,471000000,world,1.99797451346e-06,1.49102091213e-07,0.62499999239,-6.47228281233e-09,-1.36176408568e-09,-5.05896094096e-06,0.999999999987
481000000,48,481000000,world,2.00403565058e-06,1.73537225924e-07,0.625000021557,-4.27012631314e-08,2.21148453709e-09,-5.03147458847e-06,0.999999999987
491000000,49,491000000,world,1.976456451e-06,2.84668385991e-08,0.62500002007,3.67541522152e-08,2.60391428267e-09,-5.02863604115e-06,0.999999999987
501000000,50,501000000,world,5.7220376055e-06,2.13749884791e-06,0.625003987373,1.42796165146e-07,2.8473298971e-07,-5.02833885788e-06,0.999999999987
511000000,51,511000000,world,9.83110648842e-06,3.54805875876e-06,0.625039925258,4.62228179036e-07,3.36581419174e-07,-5.02577375507e-06,0.999999999987
521000000,52,521000000,world,1.2521028572e-05,2.923472502e-06,0.625145369673,1.1019743121e-06,-6.26045108173e-10,-5.02261410796e-06,0.999999999987
531000000,53,531000000,world,1.38847959593e-05,3.79237359596e-07,0.625357378947,2.01028789327e-06,-6.67077967748e-07,-5.01894000216e-06,0.999999999985
541000000,54,541000000,world,1.67823765283e-05,-1.76977135586e-06,0.625713405261,2.91002093203e-06,-1.3016236769e-06,-5.0139711205e-06,0.999999999982
551000000,55,551000000,world,2.24307656205e-05,-1.74107827727e-06,0.626250334937,3.5931583337e-06,-1.72934836852e-06,-5.00870882706e-06,0.99999999998
561000000,56,561000000,world,2.66317500837e-05,-3.60067711214e-06,0.627004168118,4.42794269912e-06,-2.34561701806e-06,-5.00364426668e-06,0.999999999975
571000000,57,571000000,world,2.94461362832e-05,-7.24102051993e-06,0.628010012047,5.36605277554e-06,-3.06243095914e-06,-4.99846712124e-06,0.999999999968
581000000,58,581000000,world,3.34000498399e-05,-1.03872538351e-05,0.629302075953,6.13695686557e-06,-3.64404840419e-06,-4.99288505904e-06,0.999999999962
591000000,59,591000000,world,3.95687007395e-05,-1.12901269879e-05,0.630913668923,6.53921419358e-06,-3.95682176081e-06,-4.98736170117e-06,0.999999999958
601000000,60,601000000,world,4.42318663721e-05,-1.39640929207e-05,0.63287720076,6.98728693e-06,-4.36470268583e-06,-4.98151664441e-06,0.999999999954
611000000,61,611000000,world,4.74510573203e-05,-1.83106045654e-05,0.635224187241,7.46353898098e-06,-4.83532140904e-06,-4.97584393248e-06,0.999999999948
621000000,62,621000000,world,5.2449396516e-05,-2.11550199441e-05,0.637985256217,7.57819211792e-06,-5.00221372337e-06,-4.97057769863e-06,0.999999999946
631000000,63,631000000,world,5.80306429239e-05,-2.3175445458e-05,0.641190154422,7.37722684794e-06,-4.93889488634e-06,-4.9657920307e-06,0.999999999948
641000000,64,641000000,world,6.21001388317e-05,-2.68620437751e-05,0.644867757967,7.13639729699e-06,-4.89536410263e-06,-4.96120120427e-06,0.99999999995
651000000,65,651000000,world,6.47332942066e-05,-3.21168892349e-05,0.649045523051,6.84748553896e-06,-4.86938703384e-06,-4.95684899038e-06,0.999999999952
661000000,66,661000000,world,6.87606333316e-05,-3.58618364296e-05,0.6537441819,6.19583298308e-06,-4.54161260047e-06,-4.95230856001e-06,0.999999999958
671000000,67,671000000,world,7.31605747605e-05,-3.91918612156e-05,0.658980354733,5.29324612249e-06,-4.02399131127e-06,-4.94808545202e-06,0.999999999966
681000000,68,681000000,world,7.612639645e-05,-4.4055652525e-05,0.664770057014,4.29676651768e-06,-3.51769768805e-06,-4.94468657532e-06,0.999999999972
691000000,69,691000000,world,7.77408585659e-05,-5.03559290643e-05,0.671128755886,3.19066267535e-06,-2.96609226455e-06,-4.94165014599e-06,0.999999999978
701000000,70,701000000,world,8.08479987697e-05,-5.49978855633e-05,0.678071385432,1.68745748496e-06,-2.10429601812e-06,-4.9389349108e-06,0.999999999984
711000000,71,711000000,world,8.3788407385e-05,-5.97800509069e-05,0.68561236111,4.19778386471e-09,-1.11341034917e-06,-4.93646893377e-06,0.999999999987
721000000,72,721000000,world,8.54279993131e-05,-6.593179924e-05,0.693765595638,-1.72835857127e-06,-1.14140516508e-07,-4.93378198123e-06,0.999999999986
731000000,73,731000000,world,8.58546455296e-05,-7.33564493005e-05,0.70253876428,-3.53457924549e-06,8.85474984792e-07,-4.93167181168e-06,0.999999999981
741000000,74,741000000,world,8.79901113688e-05,-7.88790891953e-05,0.711916215867,-5.79379754564e-06,2.17548677922e-06,-4.93038393277e-06,0.999999999969
751000000,75,751000000,world,8.96296232012e-05,-8.48935247062e-05,0.721877402989,-8.20260962082e-06,3.55056275975e-06,-4.92937098507e-06,0.999999999948
761000000,76,761000000,world,9.01233142918e-05,-9.21048340444e-05,0.732402711015,-1.06170110806e-05,4.89630827019e-06,-4.92871437641e-06,0.99999999992
771000000,77,771000000,world,8.95562959201e-05,-0.000100419890844,0.743473411535,-1.3018631337e-05,6.22052572619e-06,-4.92818147435e-06,0.999999999884
781000000,78,781000000,world,9.04173945408e-05,-0.00010710929861,0.755071618302,-1.56997564626e-05,7.77382799108e-06,-4.92750360601e-06,0.999999999834
791000000,79,791000000,world,9.1039960829e-05,-0.000114003592821,0.767180245612,-1.84919845733e-05,9.34648924089e-06,-4.92749446315e-06,0.999999999773
801000000,80,801000000,world,9.06718892796e-05,-0.000121930258707,0.779782969544,-2.13447151061e-05,1.08434536687e-05,-4.92814734641e-06,0.999999999701
811000000,81,811000000,world,8.96835327213e-05,-0.000130639451043,0.79286419056,-2.42168635779e-05,1.23399515501e-05,-4.92895982134e-06,0.999999999618
821000000,82,821000000,world,9.04185127062e-05,-0.000137177575141,0.806409000326,-2.73632751115e-05,1.40453008836e-05,-4.93012085259e-06,0.999999999515
831000000,83,831000000,world,9.02314133081e-05,-0.000144672019839,0.820403145201,-3.04260555587e-05,1.56837928483e-05,-4.93135852076e-06,0.999999999402
841000000,84,841000000,world,8.91850933362e-05,-0.000153054957762,0.83483299847,-3.34339348263e-05,1.72422245275e-05,-4.93245014002e-06,0.99999999928
851000000,85,851000000,world,8.73508717587e-05,-0.000162249346403,0.849683921891,-3.64190083543e-05,1.87038770969e-05,-4.93413057812e-06,0.99999999915
861000000,86,861000000,world,8.48036010655e-05,-0.000172174635734,0.864925205124,-3.9426443863e-05,2.00691247142e-05,-4.93639451987e-06,0.999999999009
871000000,87,871000000,world,8.36773572412e-05,-0.000180381563565,0.88051802917,-4.26531464119e-05,2.15936287226e-05,-4.93884573382e-06,0.999999998845
881000000,88,881000000,world,8.2367299806e-05,-0.000188715578505,0.896425513662,-4.58402765881e-05,2.30757086855e-05,-4.94153573497e-06,0.999999998671
891000000,89,891000000,world,8.03966486221e-05,-0.000197726841909,0.912612712763,-4.89052133725e-05,2.44666527001e-05,-4.94432637243e-06,0.999999998493
901000000,90,901000000,world,7.78223001433e-05,-0.000207353290638,0.929046501361,-5.18739963322e-05,2.57627952798e-05,-4.94692312232e-06,0.99999999831
911000000,91,911000000,world,7.70216634265e-05,-0.0002147736076,0.945695468661,-5.50553009064e-05,2.7196285396e-05,-4.94988286826e-06,0.999999998102
921000000,92,921000000,world,7.55975866057e-05,-0.000222843557842,0.962529819907,-5.81856669581e-05,2.84932293713e-05,-4.95334073875e-06,0.999999997889
931000000,93,931000000,world,7.35910386686e-05,-0.000231517418451,0.979520674989,-6.12579413152e-05,2.96849307533e-05,-4.95701599506e-06,0.999999997671
941000000,94,941000000,world,7.2167459431e-05,-0.000239355078032,0.996636126838,-6.43482610825e-05,3.08858667114e-05,-4.96081480495e-06,0.99999999744
951000000,95,951000000,world,7.10849544622e-05,-0.000246661636197,1.01384397828,-6.73983092315e-05,3.20542022197e-05,-4.9647820994e-06,0.999999997203
961000000,96,961000000,world,6.94385123361e-05,-0.000254563456699,1.03111373656,-7.02730935323e-05,3.30949631251e-05,-4.96872912768e-06,0.999999996971
971000000,97,971000000,world,6.72679566797e-05,-0.000263016692343,1.04841651877,-7.30017710779e-05,3.40023151058e-05,-4.97252869229e-06,0.999999996745
981000000,98,981000000,world,6.54756465612e-05,-0.000270844735597,1.06572495685,-7.57205218913e-05,3.48606186872e-05,-4.97662936981e-06,0.999999996513
991000000,99,991000000,world,6.40361339328e-05,-0.00027808934359,1.08301310904,-7.84527925697e-05,3.56589416033e-05,-4.98111145371e-06,0.999999996274
1001000000,100,1001000000,world,6.2101539456e-05,-0.000285869836804,1.10025637693,-8.10738707849e-05,3.6332536412e-05,-4.985743216e-06,0.999999996041
1011000000,101,1011000000,world,5.97090728564e-05,-0.000294141952226,1.11743226396,-8.35282160431e-05,3.68821103259e-05,-4.9903957301e-06,0.999999995819
1021000000,102,1021000000,world,5.81912574923e-05,-0.000301063334406,1.134523948,-8.59913052602e-05,3.7424361314e-05,-4.99520590209e-06,0.99999999559
1031000000,103,1031000000,world,5.63623694524e-05,-0.000308288587284,1.15151690817,-8.8274761981e-05,3.78368270773e-05,-5.0000415097e-06,0.999999995375
1041000000,104,1041000000,world,5.41068377885e-05,-0.000315985763411,1.16839730442,-9.03701270748e-05,3.81062237512e-05,-5.00473767176e-06,0.999999995178
1051000000,105,1051000000,world,5.14605413247e-05,-0.000324111864233,1.18515194245,-9.22922382437e-05,3.82328754768e-05,-5.00945711091e-06,0.999999994998
1061000000,106,1061000000,world,4.90794876016e-05,-0.00033170461401,1.20176824035,-9.41638670801e-05,3.82859489873e-05,-5.01448379807e-06,0.999999994821
1071000000,107,1071000000,world,4.6951006532e-05,-0.000338791857286,1.21823419764,-9.5997458008e-05,3.82717569379e-05,-5.01977174613e-06,0.999999994647
1081000000,108,1081000000,world,4.44679364658e-05,-0.000346279934532,1.23453836588,-9.76779670323e-05,3.81606672888e-05,-5.02509886047e-06,0.999999994489
1091000000,109,1091000000,world,4.16614551042e-05,-0.00035412994867,1.25066982015,-9.91711680738e-05,3.79174144126e-05,-5.03044640273e-06,0.999999994351
1101000000,110,1101000000,world,3.89314515387e-05,-0.000361797699299,1.26661813303,-0.00010052783141,3.75718491333e-05,-5.03587247721e-06,0.999999994229
1111000000,111,1111000000,world,3.65867134606e-05,-0.000368629321041,1.28237334975,-0.000101809236749,3.71595268045e-05,-5.04134214265e-06,0.999999994114
1121000000,112,1121000000,world,3.39508486369e-05,-0.00037579829245,1.29792596527,-0.000102899470669,3.66114664456e-05,-5.04667939994e-06,0.999999994023
1131000000,113,1131000000,world,3.10486567956e-05,-0.000383278272967,1.31326866046,-0.000104063937901,3.59342699429e-05,-5.05543120105e-06,0.999999993927
1141000000,114,1141000000,world,2.82028759905e-05,-0.000390548459544,1.32840323174,-0.000105682479561,3.51670333894e-05,-5.07179768689e-06,0.999999993784
1151000000,115,1151000000,world,2.58001640825e-05,-0.000396972456543,1.34333413237,-0.000107819378059,3.43646244587e-05,-5.09549927567e-06,0.999999993584
1161000000,116,1161000000,world,2.31512926006e-05,-0.000403695021254,1.35806565334,-0.000110328288133,3.34895440745e-05,-5.12606544735e-06,0.99999999334
1171000000,117,1171000000,world,2.02771750791e-05,-0.000410683103864,1.37260192807,-0.000113153922398,3.24987539689e-05,-5.16319971849e-06,0.999999993057
1181000000,118,1181000000,world,1.76179126489e-05,-0.000411338743486,1.3869469366,-0.000116953503704,3.1413030448e-05,-5.20689412409e-06,0.999999992654
1191000000,119,1191000000,world,1.50246292157e-05,-0.000408310423717,1.40110451439,-0.000121385599226,3.02181967794e-05,-5.25677955465e-06,0.999999992162
1201000000,120,1201000000,world,1.22275360896e-05,-0.000406142974166,1.41507835588,-0.000125935603787,2.88896517029e-05,-5.31239802301e-06,0.999999991639
1211000000,121,1211000000,world,9.24410461289e-06,-0.000404859634861,1.42887201773,-0.000130599489889,2.74393847069e-05,-5.37362170993e-06,0.999999991081
1221000000,122,1221000000,world,6.33894861605e-06,-0.000402696603346,1.4424889241,-0.000135557909954,2.59044016876e-05,-5.44053925376e-06,0.999999990462
1231000000,123,1231000000,world,3.50969358744e-06,-0.000399770390944,1.45593237226,-0.000140791964273,2.43057078565e-05,-5.51293032939e-06,0.999999989778
1241000000,124,1241000000,world,5.16980843976e-07,-0.000397861841349,1.46920553706,-0.00014606397707,2.26611623903e-05,-5.59038068699e-06,0.99999998906
1251000000,125,1251000000,world,-2.62622482579e-06,-0.000396924509882,1.4823124222,-0.000151263075382,2.10484176689e-05,-5.67437457048e-06,0.999999988322
1261000000,126,1261000000,world,-5.76463399959e-06,-0.000396385757824,1.4952624212,-0.000156391872854,1.96755791546e-05,-5.76781204779e-06,0.999999987561
1271000000,127,1271000000,world,-8.86338798146e-06,-0.000396097519011,1.50806659781,-0.000161419348703,1.85444442938e-05,-5.87039487671e-06,0.999999986783
1281000000,128,1281000000,world,-1.20900497262e-05,-0.000396614347359,1.52073565387,-0.000166274871764,1.76345068189e-05,-5.98166473747e-06,0.999999986003
1291000000,129,1291000000,world,-1.54310502088e-05,-0.000397847947347,1.53327993549,-0.000170978905154,1.69437673536e-05,-6.10143999741e-06,0.999999985221
1301000000,130,1301000000,world,-1.52392975436e-05,-0.000399232121251,1.54570944213,-0.000175596713487,1.68453528235e-05,-6.23077037633e-06,0.999999984422
1311000000,131,1311000000,world,-1.29894140443e-05,-0.000400863175812,1.55803383631,-0.000180124034274,1.71567157608e-05,-6.36890622705e-06,0.99999998361
1321000000,132,1321000000,world,-1.12073468599e-05,-0.000402972055774,1.57026245233,-0.000184482091804,1.76126574372e-05,-6.51465144331e-06,0.999999982807
1331000000,133,1331000000,world,-9.91449059486e-06,-0.000405465044018,1.5824042759,-0.000188584361608,1.8161581135e-05,-6.66768466609e-06,0.999999982031
1341000000,134,1341000000,world,-8.39138966684e-06,-0.000407801861826,1.59446753784,-0.000192454685015,1.88526063837e-05,-6.82799733744e-06,0.99999998128
1351000000,135,1351000000,world,-6.69137848745e-06,-0.000409933321982,1.60645984265,-0.00019607140094,1.96643922678e-05,-6.99522973737e-06,0.99999998056
1361000000,136,1361000000,world,-5.55214391427e-06,-0.000412246588451,1.6183885188,-0.000199409293183,2.04956919078e-05,-7.16875829507e-06,0.999999979882
1371000000,137,1371000000,world,-4.95618666823e-06,-0.000414669788991,1.63026063494,-0.000202477458161,2.13185325321e-05,-7.34864613075e-06,0.999999979247
1381000000,138,1381000000,world,-4.8808248955e-06,-0.000416943316088,1.64208300808,-0.000205324081101,2.21093736381e-05,-7.53481337616e-06,0.999999978648
1391000000,139,1391000000,world,-5.30528386448e-06,-0.000418459561121,1.65386221135,-0.000208010661181,2.28637505794e-05,-7.72686037818e-06,0.999999978075
1401000000,140,1401000000,world,-6.17156930072e-06,-0.000419948438344,1.66560458258,-0.000210389167043,2.35959460616e-05,-7.92447502111e-06,0.999999977558
1411000000,141,1411000000,world,-7.43664346772e-06,-0.000421359704507,1.6773162309,-0.000212422360255,2.42631658732e-05,-8.12752301962e-06,0.999999977111
1421000000,142,1421000000,world,-9.14579053259e-06,-0.000422307161631,1.68900304428,-0.000214133802881,2.48532461773e-05,-8.33569142123e-06,0.99999997673
1431000000,143,1431000000,world,-1.12911838772e-05,-0.000422492090724,1.70067069703,-0.000215549784597,2.53573650305e-05,-8.54856121357e-06,0.999999976411
1441000000,144,1441000000,world,-1.36915435076e-05,-0.000422527728359,1.71232465719,-0.000216604730738,2.57799097764e-05,-8.76619458198e-06,0.99999997617
1451000000,145,1451000000,world,-1.63043485424e-05,-0.000422383563494,1.72396978759,-0.000217309950069,2.61119955786e-05,-8.98877527314e-06,0.999999976007
1461000000,146,1461000000,world,-1.9148342337e-05,-0.000421788296296,1.73560956774,-0.000217702983714,2.63510337089e-05,-9.21603586986e-06,0.999999975913
1471000000,147,1471000000,world,-2.22588225981e-05,-0.000420419148727,1.7472471295,-0.000217789525435,2.6526551047e-05,-9.44749623406e-06,0.999999975887
1481000000,148,1481000000,world,-2.54615250996e-05,-0.00041883556495,1.75888548712,-0.000217475990868,2.6604741704e-05,-9.68315223202e-06,0.999999975951
1491000000,149,1491000000,world,-2.8799409261e-05,-0.000416788377366,1.77052754068,-0.000216779464712,2.65706859483e-05,-9.92279514572e-06,0.999999976101
1501000000,150,1501000000,world,-3.22756029796e-05,-0.000414166089319,1.78217608064,-0.000215701843408,2.6423230203e-05,-1.01660769918e-05,0.999999976336
1511000000,151,1511000000,world,-3.57521118971e-05,-0.000411310178247,1.79383379197,-0.000214190935592,2.61756098105e-05,-1.04128949831e-05,0.999999976664
1521000000,152,1521000000,world,-3.92082993596e-05,-0.000408207359026,1.80550325765,-0.000212233979294,2.58268868272e-05,-1.06635519648e-05,0.999999977088
1531000000,153,1531000000,world,-4.26275998335e-05,-0.000404845173446,1.81718581316,-0.000209840686049,2.53862574515e-05,-1.09179534522e-05,0.999999977602
1541000000,154,1541000000,world,-4.59981006348e-05,-0.0004012131615,1.82887812716,-0.000207007043681,2.48985768852e-05,-1.11757113223e-05,0.999999978202
1551000000,155,1551000000,world,-4.94924317837e-05,-0.000396978511902,1.84057588069,-0.000203775175164,2.42981839051e-05,-1.1436514017e-05,0.999999978877
1561000000,156,1561000000,world,-5.29175865315e-05,-0.000392460196506,1.85227493337,-0.000200116204139,2.35785457674e-05,-1.17004091948e-05,0.99999997963
1571000000,157,1571000000,world,-5.62887569765e-05,-0.000387672420217,1.86397131537,-0.000196028169235,2.27405566617e-05,-1.19671110274e-05,0.999999980456
1581000000,158,1581000000,world,-5.9844340611e-05,-0.000382615607033,1.87566122011,-0.000191483135408,2.17654425865e-05,-1.22362217238e-05,0.999999981355
1591000000,159,1591000000,world,-6.32905012765e-05,-0.000377280554217,1.88734099726,-0.000186440371733,2.06908441371e-05,-1.25081770553e-05,0.999999982328
1601000000,160,1601000000,world,-6.66252444713e-05,-0.000371665811168,1.89900714606,-0.000180906983737,1.95295738804e-05,-1.27830110676e-05,0.999999983364
1611000000,161,1611000000,world,-6.98502034403e-05,-0.000365770964075,1.910656309,-0.000174876196129,1.83278461232e-05,-1.30604079536e-05,0.999999984456
1621000000,162,1621000000,world,-7.29677074532e-05,-0.000359598693384,1.92228526571,-0.000168399706304,1.70609034541e-05,-1.33401154016e-05,0.999999985586
1631000000,163,1631000000,world,-7.61387220257e-05,-0.000353261312317,1.93389092723,-0.000161494280715,1.56519898584e-05,-1.36220926441e-05,0.999999986745
1641000000,164,1641000000,world,-7.943252644e-05,-0.000346895658198,1.94547033041,-0.000154156386439,1.4095724433e-05,-1.39061192845e-05,0.999999987922
1651000000,165,1651000000,world,-8.26092089557e-05,-0.000340244303216,1.95702011444,-0.000146387461993,1.24248752185e-05,-1.41919431905e-05,0.999999989107
1661000000,166,1661000000,world,-8.57680219988e-05,-0.000333457052253,1.96853497685,-0.000138092617063,1.06442719799e-05,-1.44797063918e-05,0.999999990304
1671000000,167,1671000000,world,-8.91827202093e-05,-0.000326955779265,1.98000933085,-0.000129222440578,8.7397209107e-06,-1.47695828331e-05,0.999999991504
1681000000,168,1681000000,world,-9.24718186503e-05,-0.00032014766009,1.99143782402,-0.000119822487187,6.79435132385e-06,-1.50614534969e-05,0.999999992685
1691000000,169,1691000000,world,-9.56415071458e-05,-0.000313042507765,2.00281532846,-0.000109956594407,4.83293209689e-06,-1.53549920721e-05,0.999999993825
1701000000,170,1701000000,world,-9.87535948604e-05,-0.000305772711473,2.01413693064,-9.96991001104e-05,2.75395477048e-06,-1.56502231134e-05,0.999999994904
1711000000,171,1711000000,world,-0.000102249768555,-0.000299256700119,2.02539792222,-8.89797802343e-05,5.01349140902e-07,-1.59469631852e-05,0.999999995914
1721000000,172,1721000000,world,-0.000105617462872,-0.000292424195568,2.03659379023,-7.79143297839e-05,-1.8663850745e-06,-1.62450324364e-05,0.999999996831
1731000000,173,1731000000,world,-0.000108863744341,-0.000285285234757,2.04771994752,-6.64090178028e-05,-4.32943143458e-06,-1.65443057811e-05,0.999999997649
1741000000,174,1741000000,world,-0.000111997839115,-0.000277856913338,2.05877094624,-5.44035944177e-05,-6.86959926464e-06,-1.68451205917e-05,0.999999998355
1751000000,175,1751000000,world,-0.000117214158238,-0.000279546554747,2.06974131254,-4.08907557243e-05,-9.6859788345e-06,-1.71474932568e-05,0.99999999897
1761000000,176,1761000000,world,-0.00012363165063,-0.000286535085645,2.08062580057,-2.63007195651e-05,-1.26098248704e-05,-1.74510289992e-05,0.999999999422
1771000000,177,1771000000,world,-0.000129735927288,-0.000292297629666,2.09141938495,-1.15243795498e-05,-1.55433420139e-05,-1.77555100549e-05,0.999999999655
1781000000,178,1781000000,world,-0.000136608452781,-0.0003019647663,2.10211725169,3.8739061743e-06,-1.86627381089e-05,-1.80610376779e-05,0.999999999655
1791000000,179,1791000000,world,-0.000144396110776,-0.000316210532002,2.1127147873,1.98864093942e-05,-2.19720519877e-05,-1.83673887063e-05,0.999999999392
1801000000,180,1801000000,world,-0.00015172000574,-0.000328449243397,2.12320757077,3.58212830675e-05,-2.5303296138e-05,-1.8674161618e-05,0.999999998864
1811000000,181,1811000000,world,-0.000158582626045,-0.0003386583288,2.13359136544,5.17796938495e-05,-2.86165025107e-05,-1.89814829057e-05,0.99999999807
1821000000,182,1821000000,world,-0.000166240641904,-0.00035097989088,2.14386210973,6.81856852456e-05,-3.20127771281e-05,-1.92896269674e-05,0.999999996977
1831000000,183,1831000000,world,-0.000174209023684,-0.000364419544654,2.15401591061,8.49197149241e-05,-3.53807693118e-05,-1.95984084493e-05,0.999999995576
1841000000,184,1841000000,world,-0.000181650484029,-0.00037558010883,2.1640490366,0.000101498998666,-3.85794894599e-05,-1.99074689356e-05,0.999999993907
1851000000,185,1851000000,world,-0.000188585300417,-0.000384561570152,2.1739580293,0.000117693418203,-4.17161152443e-05,-2.02168580507e-05,0.999999992
1861000000,186,1861000000,world,-0.000195044467356,-0.000391498575701,2.1837413948,0.000133437450395,-4.48167049192e-05,-2.05265835924e-05,0.999999989882
1871000000,187,1871000000,world,-0.000202180802227,-0.000402148963381,2.19339908473,0.000149290111328,-4.79919519308e-05,-2.08364435416e-05,0.999999987488
1881000000,188,1881000000,world,-0.000208855458546,-0.000410752687269,2.20293108917,0.000164707981756,-5.10949794181e-05,-2.114622197e-05,0.999999984907
1891000000,189,1891000000,world,-0.000215105001387,-0.000417451834146,2.21233739705,0.000179795928715,-5.40960489725e-05,-2.14562200922e-05,0.999999982143
1901000000,190,1901000000,world,-0.00022097064121,-0.000422414711729,2.22161799766,0.000194553245785,-5.69730588139e-05,-2.17666247949e-05,0.999999979215
1911000000,191,1911000000,world,-0.00022664520062,-0.000426331917636,2.23077288008,0.000209059323798,-5.96950070161e-05,-2.20772352742e-05,0.999999976122
1921000000,192,1921000000,world,-0.000232833680737,-0.000431662590228,2.23980203435,0.000223425293525,-6.23184035058e-05,-2.23878834342e-05,0.999999972848
1931000000,193,1931000000,world,-0.000238712371582,-0.000435627456179,2.24870560831,0.0002371854047,-6.48551955207e-05,-2.26986405768e-05,0.999999969511
1941000000,194,1941000000,world,-0.000244693996634,-0.000440624363224,2.25748491537,0.00025054834413,-6.73534518321e-05,-2.30094342159e-05,0.99999996608
1951000000,195,1951000000,world,-0.000250510966518,-0.000445005693694,2.26614173786,0.000263326651431,-6.977480525e-05,-2.33200888849e-05,0.999999962623
1961000000,196,1961000000,world,-0.000256102447251,-0.000448345856178,2.27467779121,0.000275564385982,-7.20898463259e-05,-2.36304858254e-05,0.999999959154
1971000000,197,1971000000,world,-0.000261504787599,-0.000450798240519,2.28309472488,0.000287334755502,-7.42818536539e-05,-2.39409860443e-05,0.999999955674
1981000000,198,1981000000,world,-0.000267085969085,-0.000453478473346,2.29139412445,0.00029874308091,-7.63697561686e-05,-2.42517366637e-05,0.999999952166
1991000000,199,1991000000,world,-0.000272611730333,-0.000455757849557,2.29957751584,0.000309719662657,-7.82838455155e-05,-2.45624531801e-05,0.999999948671
2001000000,200,2001000000,world,-0.000278027429973,-0.000457533441796,2.30764636612,0.000320109531261,-8.00324756057e-05,-2.48729734496e-05,0.999999945253
2011000000,201,2011000000,world,-0.000283361595156,-0.000458944559253,2.31560208583,0.000329841426205,-8.16893850171e-05,-2.5183450888e-05,0.999999941949
2021000000,202,2021000000,world,-0.000288645593806,-0.000460123296004,2.32344603126,0.000338916791945,-8.32540632626e-05,-2.54938017119e-05,0.999999938777
2031000000,203,2031000000,world,-0.000293945012638,-0.000461884714064,2.33117950595,0.000347444461531,-8.47255269692e-05,-2.58037607305e-05,0.999999935719
2041000000,204,2041000000,world,-0.000299243924529,-0.000463610691448,2.33880376425,0.000355440562818,-8.60869049543e-05,-2.61133846166e-05,0.999999932785
2051000000,205,2051000000,world,-0.000304566315094,-0.000465403588456,2.34632071755,0.00036293527565,-8.73324734781e-05,-2.64230359753e-05,0.999999929976
2061000000,206,2061000000,world,-0.000309934978088,-0.000467361578969,2.35373504524,0.000369930329077,-8.84510990003e-05,-2.67327098791e-05,0.999999927307
2071000000,207,2071000000,world,-0.000315371544621,-0.000469576243928,2.36105194982,0.000376414476274,-8.94095307279e-05,-2.70421605107e-05,0.999999924793
2081000000,208,2081000000,world,-0.000319320783106,-0.000462223509612,2.36827645255,0.000381255197542,-9.0086225269e-05,-2.73516548696e-05,0.99999992289
2091000000,209,2091000000,world,-0.000323467451962,-0.000455891061562,2.37541337443,0.00038558307065,-9.06918934932e-05,-2.76609500362e-05,0.999999921168
2101000000,210,2101000000,world,-0.000327786734725,-0.000450082309141,2.38246736852,0.000389377736838,-9.12209963364e-05,-2.79699747919e-05,0.999999919641
2111000000,211,2111000000,world,-0.000332278002962,-0.000444643476686,2.38944291657,0.000392676611417,-9.16705902885e-05,-2.8278546809e-05,0.999999918301
2121000000,212,2121000000,world,-0.000337037545969,-0.000440650823724,2.39634433405,0.000395648849466,-9.20501092096e-05,-2.85867792986e-05,0.999999917086
2131000000,213,2131000000,world,-0.000342075485809,-0.0004381593225,2.40317561929,0.00039830742903,-9.23632132089e-05,-2.88949590598e-05,0.999999915993
2141000000,214,2141000000,world,-0.000347505715987,-0.000437601995876,2.40993975833,0.000400709757063,-9.26137025649e-05,-2.9203038806e-05,0.999999915001
2151000000,215,2151000000,world,-0.000353462184873,-0.00043947688044,2.41663933944,0.00040290519441,-9.27880361869e-05,-2.95108251824e-05,0.999999914093
2161000000,216,2161000000,world,-0.00035968070589,-0.000442784836337,2.42327685415,0.000404784803998,-9.2909571532e-05,-2.98184164244e-05,0.999999913314
2171000000,217,2171000000,world,-0.000366155197442,-0.000447488667194,2.42985469871,0.000406359663,-9.2982763044e-05,-3.01258652615e-05,0.999999912659
2181000000,218,2181000000,world,-0.000372879209092,-0.000453544873396,2.43637517836,0.00040764993527,-9.30023491637e-05,-3.04330644316e-05,0.999999912123
2191000000,219,2191000000,world,-0.000380216899471,-0.000462519716991,2.44284050924,0.000408837849963,-9.30044933466e-05,-3.07399486998e-05,0.999999911628
2201000000,220,2201000000,world,-0.000387807865237,-0.0004728278177,2.44925282586,0.000409768756547,-9.2952822755e-05,-3.10469469619e-05,0.999999911243
2211000000,221,2211000000,world,-0.000395599162442,-0.000484221335177,2.45561418021,0.0004103919992,-9.28413269047e-05,-3.13541932877e-05,0.999999910988
2221000000,222,2221000000,world,-0.000403761534499,-0.000497425337312,2.46192654512,0.000410775303012,-9.26639242303e-05,-3.16615227678e-05,0.999999910837
2231000000,223,2231000000,world,-0.000412272201937,-0.000512322197757,2.46819181875,0.000410904797709,-9.24200171827e-05,-3.19688309347e-05,0.999999910797
2241000000,224,2241000000,world,-0.000420936885585,-0.000528049691812,2.47441182733,0.000410691702517,-9.21183054736e-05,-3.22762598306e-05,0.999999910902
2251000000,225,2251000000,world,-0.00042974810506,-0.000544558327608,2.48058832347,0.000410138928522,-9.17487430812e-05,-3.25837590571e-05,0.999999911153
2261000000,226,2261000000,world,-0.00043870027927,-0.00056180828466,2.48672273445,0.00040924766342,-9.13054890434e-05,-3.28911631501e-05,0.999999911549
2271000000,227,2271000000,world,-0.000447908350729,-0.000580287082357,2.49281599734,0.000408060604841,-9.08034246896e-05,-3.31986601023e-05,0.99999991207
2281000000,228,2281000000,world,-0.000457417290826,-0.000600180068276,2.4988689724,0.00040655913033,-9.02514391732e-05,-3.35065341657e-05,0.999999912721
2291000000,229,2291000000,world,-0.000467039495935,-0.000620659430462,2.5048824874,0.000404625335801,-8.96270490609e-05,-3.3814717883e-05,0.999999913551
2301000000,230,2301000000,world,-0.000476951116055,-0.000642494137929,2.51085733665,0.000402348284663,-8.89152807039e-05,-3.41229449977e-05,0.999999914523
2311000000,231,2311000000,world,-0.00048703568486,-0.000665161052631,2.51679428471,0.00039969854195,-8.81335258981e-05,-3.44312557891e-05,0.999999915644
2321000000,232,2321000000,world,-0.000497212338352,-0.000688293832717,2.52269406635,0.000396643677047,-8.72680924941e-05,-3.47396477802e-05,0.999999916926
2331000000,233,2331000000,world,-0.000507562728288,-0.000712256474269,2.52855664078,0.000393230543318,-8.63199414535e-05,-3.50479722966e-05,0.999999918345
2341000000,234,2341000000,world,-0.000518119779106,-0.000737193875503,2.53437791049,0.000389440549092,-8.52956845346e-05,-3.53561762365e-05,0.999999919905
2351000000,235,2351000000,world,-0.00052875497964,-0.000762519999256,2.54015261098,0.000385178212349,-8.41910430102e-05,-3.56646310853e-05,0.999999921639
2361000000,236,2361000000,world,-0.000539467871467,-0.000788231438273,2.5458756977,0.000380394600856,-8.30156158041e-05,-3.59733993437e-05,0.999999923557
2371000000,237,2371000000,world,-0.000550259606647,-0.000814329223417,2.55154233686,0.00037508096808,-8.1752797199e-05,-3.62822948468e-05,0.999999925657
2381000000,238,2381000000,world,-0.000561132026957,-0.000840815799763,2.55714789604,0.000369312774226,-8.03916059962e-05,-3.65911669404e-05,0.999999927903
2391000000,239,2391000000,world,-0.000572086804323,-0.000867697016578,2.56268793548,0.000363121620149,-7.89420995988e-05,-3.69000732575e-05,0.999999930275
2401000000,240,2401000000,world,-0.000583154663057,-0.000895115138945,2.56815819951,0.000356544910929,-7.73978666424e-05,-3.72089482681e-05,0.99999993275
2411000000,241,2411000000,world,-0.000594418489888,-0.000923461316234,2.57355460852,0.000349598770846,-7.57681185306e-05,-3.75176348864e-05,0.999999935316
2421000000,242,2421000000,world,-0.000605895068705,-0.000952796877188,2.57887325177,0.000342229227822,-7.40689624024e-05,-3.78263256413e-05,0.999999937981
2431000000,243,2431000000,world,-0.000617444161762,-0.00098247986382,2.58411038033,0.000334315772885,-7.22992748921e-05,-3.81352615536e-05,0.999999940776
2441000000,244,2441000000,world,-0.000629065196181,-0.00101251009046,2.58926239917,0.000325811369749,-7.04747352318e-05,-3.84444124538e-05,0.999999943701
2451000000,245,2451000000,world,-0.000640759162005,-0.00104288636117,2.59432586095,0.000316780871111,-6.85583863938e-05,-3.87535456338e-05,0.999999946724
2461000000,246,2461000000,world,-0.000652512196254,-0.00107353082866,2.59929900446,0.000307317055222,-6.6550465971e-05,-3.90626290121e-05,0.999999949801
2471000000,247,2471000000,world,-0.000664327034161,-0.00110445529716,2.60418635668,0.000297445205098,-6.44423784866e-05,-3.93716763662e-05,0.999999952912
2481000000,248,2481000000,world,-0.000676220187589,-0.00113574628227,2.60899380025,0.00028718886106,-6.22281477659e-05,-3.96806120992e-05,0.999999956038
2491000000,249,2491000000,world,-0.000687037493078,-0.0011620461899,2.6137270086,0.000275908261917,-5.97963061833e-05,-3.99894379902e-05,0.99999995935
2501000000,250,2501000000,world,-0.000696314273867,-0.00118119965589,2.618391447,0.00026333178651,-5.71226848638e-05,-4.02985161231e-05,0.999999962885
2511000000,251,2511000000,world,-0.000705853774388,-0.00120158504665,2.62299237567,0.000250270372617,-5.44305964633e-05,-4.06078286128e-05,0.999999966377
2521000000,252,2521000000,world,-0.000715674059699,-0.00122328797406,2.62753486804,0.000236739746812,-5.17369473582e-05,-4.09172703398e-05,0.999999969802
2531000000,253,2531000000,world,-0.000725612068527,-0.0012458665231,2.63202289804,0.000222905474403,-4.8976907921e-05,-4.12265721395e-05,0.999999973107
2541000000,254,2541000000,world,-0.000734337491931,-0.00126098951447,2.63645533108,0.000208009194013,-4.60172950125e-05,-4.15359924338e-05,0.999999976445
2551000000,255,2551000000,world,-0.000743453825627,-0.00127801109483,2.64082942666,0.000193121234282,-4.30219212924e-05,-4.18451995594e-05,0.999999979551
2561000000,256,2561000000,world,-0.000752964600239,-0.00129696056838,2.64514256416,0.000178233627214,-4.00038995881e-05,-4.21540304211e-05,0.999999982428
2571000000,257,2571000000,world,-0.000762373185609,-0.00131535715612,2.64939222933,0.000162989587459,-3.6945696638e-05,-4.24625778807e-05,0.999999985133
2581000000,258,2581000000,world,-0.000771468804909,-0.00133215275612,2.65357600899,0.000147258287773,-3.38581042404e-05,-4.27710709324e-05,0.99999998767
2591000000,259,2591000000,world,-0.000780998027527,-0.00135110739408,2.65769158603,0.000131404426556,-3.08618782758e-05,-4.30794235598e-05,0.999999989962
2601000000,260,2601000000,world,-0.000790947325806,-0.00137215022818,2.66173673846,0.000115577789036,-2.79216111638e-05,-4.33873848544e-05,0.99999999199
2611000000,261,2611000000,world,-0.000801296618038,-0.00139517426471,2.66570933393,0.000100002383393,-2.50153849008e-05,-4.36948029216e-05,0.999999993732
2621000000,262,2621000000,world,-0.000812020692983,-0.00142005252391,2.66960732614,8.47333825348e-05,-2.21388038052e-05,-4.40016858855e-05,0.999999995197
2631000000,263,2631000000,world,-0.000822962729021,-0.00144614427685,2.67342875121,6.9740662865e-05,-1.92748453585e-05,-4.43079825788e-05,0.999999996401
2641000000,264,2641000000,world,-0.000833727861811,-0.00146992407022,2.67717172462,5.45569410912e-05,-1.64031294915e-05,-4.46136145101e-05,0.999999997382
2651000000,265,2651000000,world,-0.000844661549596,-0.00149374035763,2.68083459225,3.93552088178e-05,-1.35904488819e-05,-4.491874095e-05,0.999999998124
2661000000,266,2661000000,world,-0.000855548488069,-0.0015165661862,2.68441946517,2.39879253669e-05,-1.08427665231e-05,-4.52235029667e-05,0.999999998631
2671000000,267,2671000000,world,-0.000866735344759,-0.00154108472235,2.68793204541,8.74601847907e-06,-8.21247910771e-06,-4.55277991967e-05,0.999999998892
2681000000,268,2681000000,world,-0.000878197951521,-0.00156717341447,2.69137798084,-6.13436342712e-06,-5.64442203163e-06,-4.58314009931e-05,0.999999998915
2691000000,269,2691000000,world,-0.00088990929819,-0.00159469589579,2.69476271417,-2.05372632807e-05,-3.14117507706e-06,-4.61343274115e-05,0.99999999872
2701000000,270,2701000000,world,-0.000901822295554,-0.00162327121106,2.69809148989,-3.44571752292e-05,-6.91604920508e-07,-4.64366021986e-05,0.999999998328
2711000000,271,2711000000,world,-0.000913759115092,-0.00165093014094,2.70136936059,-4.81248124871e-05,1.71842599468e-06,-4.6738138951e-05,0.999999997748
2721000000,272,2721000000,world,-0.000925873940501,-0.0016797284923,2.70460119415,-6.14403130356e-05,4.04851713957e-06,-4.70389572127e-05,0.999999996998
2731000000,273,2731000000,world,-0.000938094075191,-0.00170923158961,2.70779106916,-7.44901092268e-05,6.28582663622e-06,-4.73393556488e-05,0.999999996085
2741000000,274,2741000000,world,-0.000950336931509,-0.00173873566369,2.71094045927,-8.73952033356e-05,8.41682726188e-06,-4.7639378911e-05,0.999999995011
2751000000,275,2751000000,world,-0.000962696426147,-0.0017690633989,2.71405018364,-9.99543443761e-05,1.04701981635e-05,-4.79388157006e-05,0.999999993801
2761000000,276,2761000000,world,-0.000975152169202,-0.00180008911447,2.71712102948,-0.000111989293914,1.24538334661e-05,-4.82375808917e-05,0.999999992488
2771000000,277,2771000000,world,-0.000987684454217,-0.00183169200318,2.72015375346,-0.000123474711668,1.4370839049e-05,-4.85357275996e-05,0.999999991096
2781000000,278,2781000000,world,-0.00100027475316,-0.00186375576616,2.7231490829,-0.000134414074532,1.62274317397e-05,-4.88332030057e-05,0.999999989642
2791000000,279,2791000000,world,-0.00101290574287,-0.00189617154066,2.72610771678,-0.00014492010444,1.80140209148e-05,-4.91298829443e-05,0.99999998813
2801000000,280,2801000000,world,-0.00102556618964,-0.00192843910523,2.72903032682,-0.000155100043863,1.97152136658e-05,-4.94260721191e-05,0.999999986556
2811000000,281,2811000000,world,-0.0010382431684,-0.0019603018275,2.7319176556,-0.000165033374572,2.13186325061e-05,-4.97218942552e-05,0.999999984919
2821000000,282,2821000000,world,-0.00105092954348,-0.00199212793787,2.73477094512,-0.000174677350326,2.28377869252e-05,-5.00172457123e-05,0.999999983232
2831000000,283,2831000000,world,-0.00106363038535,-0.00202364199721,2.73759156369,-0.000183891949596,2.43003226836e-05,-5.03119307335e-05,0.999999981531
2841000000,284,2841000000,world,-0.00107630167,-0.00205515384267,2.74038082708,-0.000192586321069,2.56948135576e-05,-5.06060289919e-05,0.999999979845
2851000000,285,2851000000,world,-0.0010889336072,-0.00208659845353,2.7431400002,-0.00020075236071,2.70301699042e-05,-5.08995179863e-05,0.999999978189
2861000000,286,2861000000,world,-0.00110225322579,-0.0021222911907,2.74587030108,-0.000208001735019,2.82280726784e-05,-5.11920844311e-05,0.999999976659
2871000000,287,2871000000,world,-0.00111654929087,-0.00216393830706,2.74857289984,-0.000214231784007,2.92492853229e-05,-5.1483873194e-05,0.999999975299
2881000000,288,2881000000,world,-0.00113066707725,-0.00220465945951,2.75124891734,-0.000220210367239,3.02140836353e-05,-5.17753810299e-05,0.999999973957
2891000000,289,2891000000,world,-0.00114458930605,-0.00224433709715,2.75389943404,-0.00022600756276,3.11304731239e-05,-5.20665478171e-05,0.99999997262
2901000000,290,2901000000,world,-0.00115834657775,-0.00228310653482,2.75652548867,-0.000231555209794,3.20369991573e-05,-5.23571356051e-05,0.999999971307
2911000000,291,2911000000,world,-0.00117224463201,-0.00232259483669,2.75912808063,-0.000236635013813,3.28763817949e-05,-5.26470939924e-05,0.999999970076
2921000000,292,2921000000,world,-0.00118590466546,-0.00236074580791,2.7617081687,-0.000241478782659,3.36961518536e-05,-5.29365166872e-05,0.999999968875
2931000000,293,2931000000,world,-0.00119931056841,-0.00239738470967,2.76426660679,-0.000246132649855,3.45064759453e-05,-5.32252746962e-05,0.999999967698
2941000000,294,2941000000,world,-0.00121242320924,-0.00243208148204,2.76680393951,-0.000250708283087,3.53100743032e-05,-5.35134099319e-05,0.999999966517
2951000000,295,2951000000,world,-0.00122530856146,-0.0024654868296,2.7693206235,-0.000255187013197,3.60951232372e-05,-5.38013274628e-05,0.999999965341
2961000000,296,2961000000,world,-0.00123797446439,-0.00249763933191,2.77181709727,-0.000259619535828,3.68592261759e-05,-5.40891056231e-05,0.999999964157
2971000000,297,2971000000,world,-0.00125043087325,-0.00252858319251,2.77429378228,-0.000263993547211,3.76370114689e-05,-5.43765836818e-05,0.999999962967
2981000000,298,2981000000,world,-0.00126261534036,-0.0025578833292,2.77675108328,-0.000268285257843,3.84215020678e-05,-5.46637443779e-05,0.999999961779
2991000000,299,2991000000,world,-0.00127450877448,-0.00258522850578,2.77918938925,-0.000272517562768,3.92068636391e-05,-5.49506910468e-05,0.999999960589
3001000000,300,3001000000,world,-0.00128623414334,-0.00261160116172,2.78160907477,-0.000276580849501,3.99877282676e-05,-5.52373401413e-05,0.999999959426
3011000000,301,3011000000,world,-0.00129780268615,-0.00263706259358,2.78401049926,-0.000280508645776,4.07621835183e-05,-5.55235796812e-05,0.999999958285
3021000000,302,3021000000,world,-0.00130922449636,-0.00266166772503,2.78639400815,-0.000284321356077,4.15214479162e-05,-5.58097912103e-05,0.999999957161
3031000000,303,3031000000,world,-0.00132050855028,-0.00268546587383,2.78875993335,-0.000288055675784,4.22591770562e-05,-5.60961609812e-05,0.999999956046
3041000000,304,3041000000,world,-0.00133149659836,-0.0027073677023,2.79110859315,-0.000291837379647,4.3008719734e-05,-5.63826230547e-05,0.999999954901
3051000000,305,3051000000,world,-0.00134234417522,-0.00272833165504,2.79343999794,-0.000295490393418,4.37685477852e-05,-5.66689883586e-05,0.999999953779
3061000000,306,3061000000,world,-0.00135291234721,-0.00274747498184,2.79575296454,-0.000299073186687,4.45253203151e-05,-5.69553667685e-05,0.999999952664
3071000000,307,3071000000,world,-0.00136332066193,-0.0027656129152,2.79804606725,-0.000302481931279,4.5272886812e-05,-5.72416738221e-05,0.999999951589
3081000000,308,3081000000,world,-0.00137365376317,-0.002783322068,2.80031793718,-0.00030566531775,4.60030425816e-05,-5.7527704798e-05,0.999999950571
3091000000,309,3091000000,world,-0.00138391662084,-0.00280063111166,2.80256725973,-0.000308637406101,4.67073248515e-05,-5.78136384663e-05,0.999999949609
3101000000,310,3101000000,world,-0.00139411225726,-0.00281755783138,2.8047927727,-0.000311420711279,4.73782509911e-05,-5.80997644784e-05,0.999999948698
3111000000,311,3111000000,world,-0.0014041105614,-0.00283328937332,2.80699326363,-0.000314117862905,4.80320123776e-05,-5.83860501299e-05,0.999999947807
3121000000,312,3121000000,world,-0.00141399749084,-0.00284835258351,2.80916756915,-0.000316625231588,4.86936004905e-05,-5.86722457421e-05,0.999999946967
3131000000,313,3131000000,world,-0.00142383138242,-0.0028631122933,2.81131457214,-0.000318852618472,4.93207002279e-05,-5.89583653437e-05,0.999999946212
3141000000,314,3141000000,world,-0.00143346604493,-0.00287671075181,2.81343360817,-0.000320876994474,4.9929787075e-05,-5.92444427268e-05,0.999999945518
3151000000,315,3151000000,world,-0.00144295971394,-0.00288948691833,2.81552525503,-0.000322653020059,5.05175134704e-05,-5.95303119527e-05,0.9999999449
3161000000,316,3161000000,world,-0.0014524119071,-0.00290202210297,2.8175902873,-0.000324130401444,5.1068818083e-05,-5.98159149169e-05,0.999999944377
3171000000,317,3171000000,world,-0.00146182082098,-0.0029143055763,2.81962944904,-0.000325312927307,5.15765535206e-05,-6.01016401351e-05,0.99999994395
3181000000,318,3181000000,world,-0.00147118356696,-0.00292632074818,2.82164345538,-0.000326221038738,5.20389954471e-05,-6.03875273533e-05,0.999999943613
3191000000,319,3191000000,world,-0.00148040756969,-0.00293753882217,2.82363299331,-0.000326896457943,5.24983261365e-05,-6.06733929095e-05,0.999999943351
3201000000,320,3201000000,world,-0.00148942090908,-0.00294755332402,2.82559872319,-0.000327339988264,5.29420948792e-05,-6.09591754641e-05,0.999999943165
3211000000,321,3211000000,world,-0.00149839167578,-0.00295731622435,2.82754134349,-0.000327437076238,5.33358238747e-05,-6.12448961925e-05,0.999999943095
3221000000,322,3221000000,world,-0.00150715635874,-0.00296595924911,2.8294618665,-0.000327267789477,5.37014549413e-05,-6.15304835325e-05,0.999999943113
3231000000,323,3231000000,world,-0.00151577683932,-0.00297380923629,2.83136137919,-0.000326794929871,5.40319873197e-05,-6.18157442687e-05,0.999999943232
3241000000,324,3241000000,world,-0.00152436071225,-0.00298143601606,2.83324092667,-0.00032593885947,5.43102377895e-05,-6.21010042081e-05,0.999999943479
3251000000,325,3251000000,world,-0.00153290460403,-0.0029888227613,2.83510151318,-0.000324715319404,5.45341729888e-05,-6.23864481795e-05,0.999999943847
3261000000,326,3261000000,world,-0.00154126315381,-0.00299531700102,2.83694410365,-0.000323188308571,5.47397305975e-05,-6.26719618166e-05,0.999999944313
3271000000,327,3271000000,world,-0.0015494690318,-0.00300094767649,2.83876962611,-0.000321341230094,5.49333158034e-05,-6.29573542113e-05,0.999999944879
3281000000,328,3281000000,world,-0.00155763739523,-0.00300634763133,2.84057897299,-0.000319100351852,5.50611643262e-05,-6.32426892168e-05,0.999999945572
3291000000,329,3291000000,world,-0.00156576452576,-0.00301149871243,2.84237300173,-0.000316463890941,5.51277402235e-05,-6.35278957496e-05,0.999999946388
3301000000,330,3301000000,world,-0.00157384602063,-0.00301637947854,2.84415253648,-0.000313423194022,5.51358301759e-05,-6.38127579024e-05,0.999999947327
3311000000,331,3311000000,world,-0.00158163692046,-0.00301998396816,2.84591836876,-0.000310039684193,5.51104460784e-05,-6.4097521316e-05,0.999999948365
3321000000,332,3321000000,world,-0.00158938659203,-0.00302328016209,2.84767126065,-0.000306212569811,5.50233405313e-05,-6.43824725767e-05,0.999999949531
3331000000,333,3331000000,world,-0.00159709201185,-0.0030263067864,2.84941194404,-0.000301931092317,5.48882114365e-05,-6.46675318873e-05,0.999999950822
3341000000,334,3341000000,world,-0.00160475005691,-0.00302904768195,2.85114112232,-0.000297209956119,5.47379216482e-05,-6.49524568897e-05,0.999999952226
3351000000,335,3351000000,world,-0.00161224790516,-0.00303115792973,2.85285938593,-0.000292112122647,5.45290645693e-05,-6.52373428983e-05,0.999999953721
3361000000,336,3361000000,world,-0.00161959005234,-0.00303264899907,2.85456599889,-0.000286643011048,5.42573241471e-05,-6.55221724509e-05,0.999999955299
3371000000,337,3371000000,world,-0.00162680934968,-0.00303370901887,2.8562592631,-0.000280775797334,5.39226437115e-05,-6.58067331018e-05,0.999999956963
3381000000,338,3381000000,world,-0.0016338728942,-0.00303415734357,2.85793752451,-0.000274469921498,5.35319084062e-05,-6.60910107927e-05,0.999999958716
3391000000,339,3391000000,world,-0.00164089416801,-0.00303432017568,2.85959919565,-0.000267659521909,5.30735393698e-05,-6.63754268019e-05,0.999999960568
3401000000,340,3401000000,world,-0.00164787101415,-0.00303419094023,2.86124275231,-0.000260338931289,5.25580937918e-05,-6.66600047702e-05,0.999999962509
3411000000,341,3411000000,world,-0.00165480156457,-0.00303376328661,2.86286673117,-0.000252518865662,5.20273771484e-05,-6.69444971013e-05,0.999999964523
3421000000,342,3421000000,world,-0.00166156078352,-0.00303301906075,2.86446972729,-0.000244280444192,5.14485306439e-05,-6.72289207921e-05,0.99999996658
3431000000,343,3431000000,world,-0.00166825978456,-0.00303196776669,2.86605039187,-0.000235647745403,5.07844622233e-05,-6.75133050372e-05,0.999999968667
3441000000,344,3441000000,world,-0.00167491021507,-0.0030306077425,2.86760742986,-0.00022662880386,5.00376779202e-05,-6.77974747e-05,0.99999997077
3451000000,345,3451000000,world,-0.00168150971568,-0.00302893568727,2.86913959783,-0.00021716428276,4.92146404667e-05,-6.80812383713e-05,0.999999972891
3461000000,346,3461000000,world,-0.0016880556451,-0.00302694976987,2.87064570571,-0.000207172609252,4.83204701902e-05,-6.83650200693e-05,0.999999975035
3471000000,347,3471000000,world,-0.00169454528838,-0.00302465184011,2.87212468098,-0.000196641882989,4.73604939828e-05,-6.86490084006e-05,0.999999977188
3481000000,348,3481000000,world,-0.00170095768003,-0.00302212415305,2.87357555477,-0.000185546016601,4.63759780322e-05,-6.89330062565e-05,0.999999979335
3491000000,349,3491000000,world,-0.00170723570769,-0.00301959884912,2.87499739869,-0.000173978138677,4.53637139187e-05,-6.92168839622e-05,0.999999981441
3501000000,350,3501000000,world,-0.00171446121717,-0.00302871762576,2.87638932532,-0.000160785095615,4.41495563265e-05,-6.95007469459e-05,0.999999983684
3511000000,351,3511000000,world,-0.00172181277246,-0.00303972995253,2.87775047411,-0.000147063965374,4.2824870984e-05,-6.97844845443e-05,0.999999985834
3521000000,352,3521000000,world,-0.00172902107252,-0.00304945071636,2.87908002164,-0.000133146500551,4.14269216279e-05,-7.00678246825e-05,0.999999987823
3531000000,353,3531000000,world,-0.00173607729781,-0.00305781348223,2.88037739344,-0.000118932184875,3.98884181002e-05,-7.03498915284e-05,0.999999989657
3541000000,354,3541000000,world,-0.00174350359221,-0.00306979934486,2.88164384116,-0.000103895647047,3.80014954869e-05,-7.06288647358e-05,0.999999991387
3551000000,355,3551000000,world,-0.00175125587762,-0.00308499941581,2.8828814936,-8.80899101189e-05,3.58254009828e-05,-7.09046403713e-05,0.999999992965
3561000000,356,3561000000,world,-0.00175878568598,-0.00309824010654,2.8840924064,-7.22123428829e-05,3.34734258887e-05,-7.11770379891e-05,0.999999994299
3571000000,357,3571000000,world,-0.00176608973676,-0.00310953198629,2.88527855795,-5.64775354922e-05,3.08535743765e-05,-7.14462791105e-05,0.999999995377
3581000000,358,3581000000,world,-0.00177317157714,-0.00311892792919,2.88644185106,-4.09535562423e-05,2.79576902923e-05,-7.17124180444e-05,0.999999996199
3591000000,359,3591000000,world,-0.00178393796196,-0.00313151372969,2.88758411615,-2.51415078085e-05,2.43853534757e-05,-7.19752405489e-05,0.999999996796
3601000000,360,3601000000,world,-0.00179589762427,-0.00314418883972,2.88870711229,-9.25526791999e-06,2.04492913037e-05,-7.2234797981e-05,0.999999997139
3611000000,361,3611000000,world,-0.00180730129587,-0.003154821929,2.88981253164,6.52006573907e-06,1.63923322277e-05,-7.24917076139e-05,0.999999997217
3621000000,362,3621000000,world,-0.00181813487858,-0.00316351763496,2.89090200167,2.21776115257e-05,1.22878100653e-05,-7.27460507222e-05,0.999999997033
3631000000,363,3631000000,world,-0.00183132492025,-0.00317395365875,2.89197708704,3.80427079012e-05,7.9401326035e-06,-7.2997780746e-05,0.999999996581
3641000000,364,3641000000,world,-0.00184449876283,-0.00318339423067,2.89303929247,5.35665129976e-05,3.50013254378e-06,-7.32467886823e-05,0.999999995877
3651000000,365,3651000000,world,-0.00185689948981,-0.00319105820088,2.89408998125,6.85698451397e-05,-9.98643037827e-07,-7.3493196898e-05,0.999999994948
3661000000,366,3661000000,world,-0.00187002226278,-0.00319979267698,2.89512958803,8.33137184009e-05,-5.68844211266e-06,-7.37369430064e-05,0.999999993795
3671000000,367,3671000000,world,-0.00188268960866,-0.00320755164256,2.89615802167,9.76597106755e-05,-1.03915124875e-05,-7.39778542995e-05,0.999999992441
3681000000,368,3681000000,world,-0.00189454840823,-0.00321377897177,2.8971751887,0.000111637884801,-1.50032365567e-05,-7.42164384912e-05,0.999999990902
3691000000,369,3691000000,world,-0.00190574559731,-0.00321880902573,2.89818099919,0.000125265405901,-1.94787904486e-05,-7.44529812188e-05,0.999999989193
3701000000,370,3701000000,world,-0.00191714594871,-0.00322419441462,2.89917536623,0.000138696163373,-2.38040689557e-05,-7.46873213994e-05,0.999999987309
3711000000,371,3711000000,world,-0.00192782816899,-0.00322842352285,2.90015820742,0.000151576376503,-2.79168868946e-05,-7.49193088189e-05,0.999999985316
3721000000,372,3721000000,world,-0.00193784538812,-0.00323164941963,2.90112944299,0.000163810975034,-3.1921989078e-05,-7.51492242422e-05,0.99999998325
3731000000,373,3731000000,world,-0.00194725936382,-0.00323402469456,2.90208899634,0.00017539401581,-3.58116996241e-05,-7.53770030738e-05,0.999999981136
3741000000,374,3741000000,world,-0.00195613538996,-0.00323569809831,2.90303684134,0.000186386399566,-3.95637059087e-05,-7.5602465575e-05,0.99999997899
3751000000,375,3751000000,world,-0.00196453987079,-0.00323681249532,2.90397309402,0.000196908494202,-4.31365158854e-05,-7.58258905346e-05,0.999999976808
3761000000,376,3761000000,world,-0.00197259079399,-0.00323837606387,2.90489789093,0.000207068560254,-4.65076891608e-05,-7.60475446424e-05,0.999999974588
3771000000,377,3771000000,world,-0.00198029710492,-0.00323959694969,2.90581136403,0.000216788472377,-4.96191052021e-05,-7.62675180466e-05,0.999999972362
3781000000,378,3781000000,world,-0.00198741763109,-0.00324069642207,2.90671363975,0.000226001556632,-5.2417590212e-05,-7.64854195548e-05,0.999999970163
3791000000,379,3791000000,world,-0.00199429495558,-0.00324168674022,2.90760483957,0.000234601700303,-5.50472204213e-05,-7.67016297164e-05,0.999999968024
3801000000,380,3801000000,world,-0.0020010192522,-0.00324265622964,2.90848508019,0.000242587851301,-5.75250387347e-05,-7.69162044977e-05,0.999999965963
3811000000,381,3811000000,world,-0.00200764146105,-0.00324369615819,2.9093544737,0.000249993521628,-5.98441659353e-05,-7.71289812555e-05,0.999999963987
3821000000,382,3821000000,world,-0.00201120496917,-0.00323661507946,2.91021313282,0.000256067955494,-6.16658968428e-05,-7.73405743725e-05,0.999999962322
3831000000,383,3831000000,world,-0.0020142011838,-0.00322824300267,2.91106115712,0.000261545691281,-6.32490053793e-05,-7.75510071517e-05,0.99999996079
3841000000,384,3841000000,world,-0.00201746823165,-0.00322085967711,2.9118986447,0.000266676311467,-6.46729966669e-05,-7.77601909669e-05,0.999999959327
3851000000,385,3851000000,world,-0.00202105734131,-0.00321457965916,2.91272566367,0.000271477075628,-6.59086283859e-05,-7.79678902295e-05,0.999999957939
3861000000,386,3861000000,world,-0.00202410952224,-0.00320770537009,2.91354199429,0.000275730983179,-6.69322354854e-05,-7.81741775758e-05,0.999999956691
3871000000,387,3871000000,world,-0.00202754868075,-0.00320207916475,2.91434725653,0.000279653680045,-6.78761282111e-05,-7.83791969275e-05,0.999999955522
3881000000,388,3881000000,world,-0.00203144383546,-0.00319783589958,2.91514108448,0.000283295600108,-6.87487465298e-05,-7.85828775311e-05,0.999999954421
3891000000,389,3891000000,world,-0.00203580420704,-0.00319498755646,2.91592312674,0.000286713563432,-6.95487131764e-05,-7.87851198425e-05,0.999999953376
3901000000,390,3901000000,world,-0.00204059380016,-0.00319398921398,2.91669304547,0.000290004774423,-7.02725784828e-05,-7.89862785415e-05,0.99999995236
3911000000,391,3911000000,world,-0.00204581457115,-0.00319469612582,2.91745051651,0.000293150292417,-7.0920366247e-05,-7.9186633932e-05,0.999999951381
3921000000,392,3921000000,world,-0.00205148494183,-0.00319667582759,2.91819522862,0.000296112943847,-7.14694312481e-05,-7.93861403888e-05,0.999999950454
3931000000,393,3931000000,world,-0.00205758843488,-0.00319987976998,2.91892686798,0.000298868348627,-7.1925305819e-05,-7.95846860212e-05,0.999999949585
