%time,field.header.seq,field.header.stamp,field.header.frame_id,field.point.x,field.point.y,field.point.z
1000000,0,1000000,world,0.0,0.0,0.74
11000000,1,11000000,world,-1.07738277069e-27,-1.09807001825e-27,0.739461
21000000,2,21000000,world,1.63692024856e-24,1.51811157212e-24,0.737942
31000000,3,31000000,world,-4.38394968409e-25,-6.00545634499e-25,0.735443
41000000,4,41000000,world,-1.4288227372e-24,-1.79321964477e-24,0.731964
51000000,5,51000000,world,-3.25176335573e-19,3.25088079529e-19,0.727505
61000000,6,61000000,world,-1.03932950777e-18,1.03873114951e-18,0.722066
71000000,7,71000000,world,-1.79586477776e-18,1.79492585481e-18,0.715647
81000000,8,81000000,world,-2.59009748854e-18,2.58894073649e-18,0.708248
91000000,9,91000000,world,-3.43351076191e-18,3.42428442863e-18,0.699869
101000000,10,101000000,world,-4.34607211219e-18,4.30977971301e-18,0.69051
111000000,11,111000000,world,-5.28529752314e-18,5.22057136022e-18,0.680171
121000000,12,121000000,world,-6.2448525506e-18,6.14981117636e-18,0.668852
131000000,13,131000000,world,1.19280108197e-10,1.25028046266e-10,0.656553009453
141000000,14,141000000,world,3.09178680812e-09,3.24071897688e-09,0.643274636794
151000000,15,151000000,world,1.39539129641e-08,1.46249824012e-08,0.629019732422
161000000,16,161000000,world,-6.32533115386e-07,1.29483671607e-06,0.624997931947
171000000,17,171000000,world,1.80391471841e-06,3.90239934019e-06,0.624998071426
181000000,18,181000000,world,8.28273058776e-07,-9.64047936164e-07,0.624998760716
191000000,19,191000000,world,8.13968680255e-07,4.73330330119e-06,0.624997796629
201000000,20,201000000,world,8.0193920656e-07,-1.15365557571e-06,0.624998646429
211000000,21,211000000,world,1.15605559102e-06,4.48682886963e-06,0.624998216733
221000000,22,221000000,world,-8.54197167857e-07,-1.57465125033e-06,0.624997222234
231000000,23,231000000,world,1.91744955978e-06,4.28567638966e-06,0.62499911028
241000000,24,241000000,world,-2.39034664759e-06,-7.17313377519e-09,0.624998336202
251000000,25,251000000,world,4.05560834383e-06,3.42610552368e-07,0.624997744464
261000000,26,261000000,world,3.36784525482e-07,-3.62964041134e-07,0.624998892087
271000000,27,271000000,world,4.31657675486e-06,-1.11475824849e-06,0.624997114419
281000000,28,281000000,world,-9.90748738034e-07,2.21582002257e-06,0.624997939634
291000000,29,291000000,world,3.79417065264e-06,6.09708187269e-07,0.624998468359
301000000,30,301000000,world,3.79211060481e-06,-6.23097040015e-08,0.625001083921
311000000,31,311000000,world,2.05543299923e-06,-2.02858407953e-07,0.625000017359
321000000,32,321000000,world,2.34837786124e-06,8.30670580352e-08,0.625000100838
331000000,33,331000000,world,1.96841805331e-06,-1.84266145569e-07,0.625000102998
341000000,34,341000000,world,2.27716731602e-06,1.47813702657e-07,0.625000043079
351000000,35,351000000,world,1.94797532157e-06,-4.00918636801e-08,0.625000121596
361000000,36,361000000,world,2.3837392077e-06,1.9736160147e-07,0.625000156896
371000000,37,371000000,world,1.87937120226e-06,8.08584284181e-08,0.625000124852
381000000,38,381000000,world,2.12756419806e-06,3.29314118352e-07,0.625000059001
391000000,39,391000000,world,2.05585271981e-06,1.46558829628e-07,0.625000042043
401000000,40,401000000,world,2.13444314209e-06,1.05487131186e-06,0.624999624866
411000000,41,411000000,world,1.92445553906e-06,-1.03654503651e-06,0.624999358855
421000000,42,421000000,world,2.03938688274e-06,2.64933715435e-07,0.624997599407
431000000,43,431000000,world,2.0305519197e-06,1.52114315733e-07,0.624999990448
441000000,44,441000000,world,2.02756697409e-06,-5.35891593472e-08,0.6250001093
451000000,45,451000000,world,2.01974680915e-06,1.84955923739e-07,0.625000010012
461000000,46,461000000,world,2.01978062937e-06,-1.08409334776e-07,0.625000143033
471000000,47,471000000,world,1.99797451346e-06,1.49102091213e-07,0.62499999239
481000000,48,481000000,world,2.00403565058e-06,1.73537225924e-07,0.625000021557
491000000,49,491000000,world,1.976456451e-06,2.84668385991e-08,0.62500002007
501000000,50,501000000,world,5.7220376055e-06,2.13749884791e-06,0.625003987373
511000000,51,511000000,world,9.83110648842e-06,3.54805875876e-06,0.625039925258
521000000,52,521000000,world,1.2521028572e-05,2.923472502e-06,0.625145369673
531000000,53,531000000,world,1.38847959593e-05,3.79237359596e-07,0.625357378947
541000000,54,541000000,world,1.67823765283e-05,-1.76977135586e-06,0.625713405261
551000000,55,551000000,world,2.24307656205e-05,-1.74107827727e-06,0.626250334937
561000000,56,561000000,world,2.66317500837e-05,-3.60067711214e-06,0.627004168118
571000000,57,571000000,world,2.94461362832e-05,-7.24102051993e-06,0.628010012047
581000000,58,581000000,world,3.34000498399e-05,-1.03872538351e-05,0.629302075953
591000000,59,591000000,world,3.95687007395e-05,-1.12901269879e-05,0.630913668923
601000000,60,601000000,world,4.42318663721e-05,-1.39640929207e-05,0.63287720076
611000000,61,611000000,world,4.74510573203e-05,-1.83106045654e-05,0.635224187241
621000000,62,621000000,world,5.2449396516e-05,-2.11550199441e-05,0.637985256217
631000000,63,631000000,world,5.80306429239e-05,-2.3175445458e-05,0.641190154422
641000000,64,641000000,world,6.21001388317e-05,-2.68620437751e-05,0.644867757967
651000000,65,651000000,world,6.47332942066e-05,-3.21168892349e-05,0.649045523051
661000000,66,661000000,world,6.87606333316e-05,-3.58618364296e-05,0.6537441819
671000000,67,671000000,world,7.31605747605e-05,-3.91918612156e-05,0.658980354733
681000000,68,681000000,world,7.612639645e-05,-4.4055652525e-05,0.664770057014
691000000,69,691000000,world,7.77408585659e-05,-5.03559290643e-05,0.671128755886
701000000,70,701000000,world,8.08479987697e-05,-5.49978855633e-05,0.678071385432
711000000,71,711000000,world,8.3788407385e-05,-5.97800509069e-05,0.68561236111
721000000,72,721000000,world,8.54279993131e-05,-6.593179924e-05,0.693765595638
731000000,73,731000000,world,8.58546455296e-05,-7.33564493005e-05,0.70253876428
741000000,74,741000000,world,8.79901113688e-05,-7.88790891953e-05,0.711916215867
751000000,75,751000000,world,8.96296232012e-05,-8.48935247062e-05,0.721877402989
761000000,76,761000000,world,9.01233142918e-05,-9.21048340444e-05,0.732402711015
771000000,77,771000000,world,8.95562959201e-05,-0.000100419890844,0.743473411535
781000000,78,781000000,world,9.04173945408e-05,-0.00010710929861,0.755071618302
791000000,79,791000000,world,9.1039960829e-05,-0.000114003592821,0.767180245612
801000000,80,801000000,world,9.06718892796e-05,-0.000121930258707,0.779782969544
811000000,81,811000000,world,8.96835327213e-05,-0.000130639451043,0.79286419056
821000000,82,821000000,world,9.04185127062e-05,-0.000137177575141,0.806409000326
831000000,83,831000000,world,9.02314133081e-05,-0.000144672019839,0.820403145201
841000000,84,841000000,world,8.91850933362e-05,-0.000153054957762,0.83483299847
851000000,85,851000000,world,8.73508717587e-05,-0.000162249346403,0.849683921891
861000000,86,861000000,world,8.48036010655e-05,-0.000172174635734,0.864925205124
871000000,87,871000000,world,8.36773572412e-05,-0.000180381563565,0.88051802917
881000000,88,881000000,world,8.2367299806e-05,-0.000188715578505,0.896425513662
891000000,89,891000000,world,8.03966486221e-05,-0.000197726841909,0.912612712763
901000000,90,901000000,world,7.78223001433e-05,-0.000207353290638,0.929046501361
911000000,91,911000000,world,7.70216634265e-05,-0.0002147736076,0.945695468661
921000000,92,921000000,world,7.55975866057e-05,-0.000222843557842,0.962529819907
931000000,93,931000000,world,7.35910386686e-05,-0.000231517418451,0.979520674989
941000000,94,941000000,world,7.2167459431e-05,-0.000239355078032,0.996636126838
951000000,95,951000000,world,7.10849544622e-05,-0.000246661636197,1.01384397828
961000000,96,961000000,world,6.94385123361e-05,-0.000254563456699,1.03111373656
971000000,97,971000000,world,6.72679566797e-05,-0.000263016692343,1.04841651877
981000000,98,981000000,world,6.54756465612e-05,-0.000270844735597,1.06572495685
991000000,99,991000000,world,6.40361339328e-05,-0.00027808934359,1.08301310904
1001000000,100,1001000000,world,6.2101539456e-05,-0.000285869836804,1.10025637693
1011000000,101,1011000000,world,5.97090728564e-05,-0.000294141952226,1.11743226396
1021000000,102,1021000000,world,5.81912574923e-05,-0.000301063334406,1.134523948
1031000000,103,1031000000,world,5.63623694524e-05,-0.000308288587284,1.15151690817
1041000000,104,1041000000,world,5.41068377885e-05,-0.000315985763411,1.16839730442
1051000000,105,1051000000,world,5.14605413247e-05,-0.000324111864233,1.18515194245
1061000000,106,1061000000,world,4.90794876016e-05,-0.00033170461401,1.20176824035
1071000000,107,1071000000,world,4.6951006532e-05,-0.000338791857286,1.21823419764
1081000000,108,1081000000,world,4.44679364658e-05,-0.000346279934532,1.23453836588
1091000000,109,1091000000,world,4.16614551042e-05,-0.00035412994867,1.25066982015
1101000000,110,1101000000,world,3.89314515387e-05,-0.000361797699299,1.26661813303
1111000000,111,1111000000,world,3.65867134606e-05,-0.000368629321041,1.28237334975
1121000000,112,1121000000,world,3.39508486369e-05,-0.00037579829245,1.29792596527
1131000000,113,1131000000,world,3.10486567956e-05,-0.000383278272967,1.31326866046
1141000000,114,1141000000,world,2.82028759905e-05,-0.000390548459544,1.32840323174
1151000000,115,1151000000,world,2.58001640825e-05,-0.000396972456543,1.34333413237
1161000000,116,1161000000,world,2.31512926006e-05,-0.000403695021254,1.35806565334
1171000000,117,1171000000,world,2.02771750791e-05,-0.000410683103864,1.37260192807
1181000000,118,1181000000,world,1.76179126489e-05,-0.000411338743486,1.3869469366
1191000000,119,1191000000,world,1.50246292157e-05,-0.000408310423717,1.40110451439
1201000000,120,1201000000,world,1.22275360896e-05,-0.000406142974166,1.41507835588
1211000000,121,1211000000,world,9.24410461289e-06,-0.000404859634861,1.42887201773
1221000000,122,1221000000,world,6.33894861605e-06,-0.000402696603346,1.4424889241
1231000000,123,1231000000,world,3.50969358744e-06,-0.000399770390944,1.45593237226
1241000000,124,1241000000,world,5.16980843976e-07,-0.000397861841349,1.46920553706
1251000000,125,1251000000,world,-2.62622482579e-06,-0.000396924509882,1.4823124222
1261000000,126,1261000000,world,-5.76463399959e-06,-0.000396385757824,1.4952624212
1271000000,127,1271000000,world,-8.86338798146e-06,-0.000396097519011,1.50806659781
1281000000,128,1281000000,world,-1.20900497262e-05,-0.000396614347359,1.52073565387
1291000000,129,1291000000,world,-1.54310502088e-05,-0.000397847947347,1.53327993549
1301000000,130,1301000000,world,-1.52392975436e-05,-0.000399232121251,1.54570944213
1311000000,131,1311000000,world,-1.29894140443e-05,-0.000400863175812,1.55803383631
1321000000,132,1321000000,world,-1.12073468599e-05,-0.000402972055774,1.57026245233
1331000000,133,1331000000,world,-9.91449059486e-06,-0.000405465044018,1.5824042759
1341000000,134,1341000000,world,-8.39138966684e-06,-0.000407801861826,1.59446753784
1351000000,135,1351000000,world,-6.69137848745e-06,-0.000409933321982,1.60645984265
1361000000,136,1361000000,world,-5.55214391427e-06,-0.000412246588451,1.6183885188
1371000000,137,1371000000,world,-4.95618666823e-06,-0.000414669788991,1.63026063494
1381000000,138,1381000000,world,-4.8808248955e-06,-0.000416943316088,1.64208300808
1391000000,139,1391000000,world,-5.30528386448e-06,-0.000418459561121,1.65386221135
1401000000,140,1401000000,world,-6.17156930072e-06,-0.000419948438344,1.66560458258
1411000000,141,1411000000,world,-7.43664346772e-06,-0.000421359704507,1.6773162309
1421000000,142,1421000000,world,-9.14579053259e-06,-0.000422307161631,1.68900304428
1431000000,143,1431000000,world,-1.12911838772e-05,-0.000422492090724,1.70067069703
1441000000,144,1441000000,world,-1.36915435076e-05,-0.000422527728359,1.71232465719
1451000000,145,1451000000,world,-1.63043485424e-05,-0.000422383563494,1.72396978759
1461000000,146,1461000000,world,-1.9148342337e-05,-0.000421788296296,1.73560956774
1471000000,147,1471000000,world,-2.22588225981e-05,-0.000420419148727,1.7472471295
1481000000,148,1481000000,world,-2.54615250996e-05,-0.00041883556495,1.75888548712
1491000000,149,1491000000,world,-2.8799409261e-05,-0.000416788377366,1.77052754068
1501000000,150,1501000000,world,-3.22756029796e-05,-0.000414166089319,1.78217608064
1511000000,151,1511000000,world,-3.57521118971e-05,-0.000411310178247,1.79383379197
1521000000,152,1521000000,world,-3.92082993596e-05,-0.000408207359026,1.80550325765
1531000000,153,1531000000,world,-4.26275998335e-05,-0.000404845173446,1.81718581316
1541000000,154,1541000000,world,-4.59981006348e-05,-0.0004012131615,1.82887812716
1551000000,155,1551000000,world,-4.94924317837e-05,-0.000396978511902,1.84057588069
1561000000,156,1561000000,world,-5.29175865315e-05,-0.000392460196506,1.85227493337
1571000000,157,1571000000,world,-5.62887569765e-05,-0.000387672420217,1.86397131537
1581000000,158,1581000000,world,-5.9844340611e-05,-0.000382615607033,1.87566122011
1591000000,159,1591000000,world,-6.32905012765e-05,-0.000377280554217,1.88734099726
1601000000,160,1601000000,world,-6.66252444713e-05,-0.000371665811168,1.89900714606
1611000000,161,1611000000,world,-6.98502034403e-05,-0.000365770964075,1.910656309
1621000000,162,1621000000,world,-7.29677074532e-05,-0.000359598693384,1.92228526571
1631000000,163,1631000000,world,-7.61387220257e-05,-0.000353261312317,1.93389092723
1641000000,164,1641000000,world,-7.943252644e-05,-0.000346895658198,1.94547033041
1651000000,165,1651000000,world,-8.26092089557e-05,-0.000340244303216,1.95702011444
1661000000,166,1661000000,world,-8.57680219988e-05,-0.000333457052253,1.96853497685
1671000000,167,1671000000,world,-8.91827202093e-05,-0.000326955779265,1.98000933085
1681000000,168,1681000000,world,-9.24718186503e-05,-0.00032014766009,1.99143782402
1691000000,169,1691000000,world,-9.56415071458e-05,-0.000313042507765,2.00281532846
1701000000,170,1701000000,world,-9.87535948604e-05,-0.000305772711473,2.01413693064
1711000000,171,1711000000,world,-0.000102249768555,-0.000299256700119,2.02539792222
1721000000,172,1721000000,world,-0.000105617462872,-0.000292424195568,2.03659379023
1731000000,173,1731000000,world,-0.000108863744341,-0.000285285234757,2.04771994752
1741000000,174,1741000000,world,-0.000111997839115,-0.000277856913338,2.05877094624
1751000000,175,1751000000,world,-0.000117214158238,-0.000279546554747,2.06974131254
1761000000,176,1761000000,world,-0.00012363165063,-0.000286535085645,2.08062580057
1771000000,177,1771000000,world,-0.000129735927288,-0.000292297629666,2.09141938495
1781000000,178,1781000000,world,-0.000136608452781,-0.0003019647663,2.10211725169
1791000000,179,1791000000,world,-0.000144396110776,-0.000316210532002,2.1127147873
1801000000,180,1801000000,world,-0.00015172000574,-0.000328449243397,2.12320757077
1811000000,181,1811000000,world,-0.000158582626045,-0.0003386583288,2.13359136544
1821000000,182,1821000000,world,-0.000166240641904,-0.00035097989088,2.14386210973
1831000000,183,1831000000,world,-0.000174209023684,-0.000364419544654,2.15401591061
1841000000,184,1841000000,world,-0.000181650484029,-0.00037558010883,2.1640490366
1851000000,185,1851000000,world,-0.000188585300417,-0.000384561570152,2.1739580293
1861000000,186,1861000000,world,-0.000195044467356,-0.000391498575701,2.1837413948
1871000000,187,1871000000,world,-0.000202180802227,-0.000402148963381,2.19339908473
1881000000,188,1881000000,world,-0.000208855458546,-0.000410752687269,2.20293108917
1891000000,189,1891000000,world,-0.000215105001387,-0.000417451834146,2.21233739705
1901000000,190,1901000000,world,-0.00022097064121,-0.000422414711729,2.22161799766
1911000000,191,1911000000,world,-0.00022664520062,-0.000426331917636,2.23077288008
1921000000,192,1921000000,world,-0.000232833680737,-0.000431662590228,2.23980203435
1931000000,193,1931000000,world,-0.000238712371582,-0.000435627456179,2.24870560831
1941000000,194,1941000000,world,-0.000244693996634,-0.000440624363224,2.25748491537
1951000000,195,1951000000,world,-0.000250510966518,-0.000445005693694,2.26614173786
1961000000,196,1961000000,world,-0.000256102447251,-0.000448345856178,2.27467779121
1971000000,197,1971000000,world,-0.000261504787599,-0.000450798240519,2.28309472488
1981000000,198,1981000000,world,-0.000267085969085,-0.000453478473346,2.29139412445
1991000000,199,1991000000,world,-0.000272611730333,-0.000455757849557,2.29957751584
2001000000,200,2001000000,world,-0.000278027429973,-0.000457533441796,2.30764636612
2011000000,201,2011000000,world,-0.000283361595156,-0.000458944559253,2.31560208583
2021000000,202,2021000000,world,-0.000288645593806,-0.000460123296004,2.32344603126
2031000000,203,2031000000,world,-0.000293945012638,-0.000461884714064,2.33117950595
2041000000,204,2041000000,world,-0.000299243924529,-0.000463610691448,2.33880376425
2051000000,205,2051000000,world,-0.000304566315094,-0.000465403588456,2.34632071755
2061000000,206,2061000000,world,-0.000309934978088,-0.000467361578969,2.35373504524
2071000000,207,2071000000,world,-0.000315371544621,-0.000469576243928,2.36105194982
2081000000,208,2081000000,world,-0.000319320783106,-0.000462223509612,2.36827645255
2091000000,209,2091000000,world,-0.000323467451962,-0.000455891061562,2.37541337443
2101000000,210,2101000000,world,-0.000327786734725,-0.000450082309141,2.38246736852
2111000000,211,2111000000,world,-0.000332278002962,-0.000444643476686,2.38944291657
2121000000,212,2121000000,world,-0.000337037545969,-0.000440650823724,2.39634433405
2131000000,213,2131000000,world,-0.000342075485809,-0.0004381593225,2.40317561929
2141000000,214,2141000000,world,-0.000347505715987,-0.000437601995876,2.40993975833
2151000000,215,2151000000,world,-0.000353462184873,-0.00043947688044,2.41663933944
2161000000,216,2161000000,world,-0.00035968070589,-0.000442784836337,2.42327685415
2171000000,217,2171000000,world,-0.000366155197442,-0.000447488667194,2.42985469871
2181000000,218,2181000000,world,-0.000372879209092,-0.000453544873396,2.43637517836
2191000000,219,2191000000,world,-0.000380216899471,-0.000462519716991,2.44284050924
2201000000,220,2201000000,world,-0.000387807865237,-0.0004728278177,2.44925282586
2211000000,221,2211000000,world,-0.000395599162442,-0.000484221335177,2.45561418021
2221000000,222,2221000000,world,-0.000403761534499,-0.000497425337312,2.46192654512
2231000000,223,2231000000,world,-0.000412272201937,-0.000512322197757,2.46819181875
2241000000,224,2241000000,world,-0.000420936885585,-0.000528049691812,2.47441182733
2251000000,225,2251000000,world,-0.00042974810506,-0.000544558327608,2.48058832347
2261000000,226,2261000000,world,-0.00043870027927,-0.00056180828466,2.48672273445
2271000000,227,2271000000,world,-0.000447908350729,-0.000580287082357,2.49281599734
2281000000,228,2281000000,world,-0.000457417290826,-0.000600180068276,2.4988689724
2291000000,229,2291000000,world,-0.000467039495935,-0.000620659430462,2.5048824874
2301000000,230,2301000000,world,-0.000476951116055,-0.000642494137929,2.51085733665
2311000000,231,2311000000,world,-0.00048703568486,-0.000665161052631,2.51679428471
2321000000,232,2321000000,world,-0.000497212338352,-0.000688293832717,2.52269406635
2331000000,233,2331000000,world,-0.000507562728288,-0.000712256474269,2.52855664078
2341000000,234,2341000000,world,-0.000518119779106,-0.000737193875503,2.53437791049
2351000000,235,2351000000,world,-0.00052875497964,-0.000762519999256,2.54015261098
2361000000,236,2361000000,world,-0.000539467871467,-0.000788231438273,2.5458756977
2371000000,237,2371000000,world,-0.000550259606647,-0.000814329223417,2.55154233686
2381000000,238,2381000000,world,-0.000561132026957,-0.000840815799763,2.55714789604
2391000000,239,2391000000,world,-0.000572086804323,-0.000867697016578,2.56268793548
2401000000,240,2401000000,world,-0.000583154663057,-0.000895115138945,2.56815819951
2411000000,241,2411000000,world,-0.000594418489888,-0.000923461316234,2.57355460852
2421000000,242,2421000000,world,-0.000605895068705,-0.000952796877188,2.57887325177
2431000000,243,2431000000,world,-0.000617444161762,-0.00098247986382,2.58411038033
2441000000,244,2441000000,world,-0.000629065196181,-0.00101251009046,2.58926239917
2451000000,245,2451000000,world,-0.000640759162005,-0.00104288636117,2.59432586095
2461000000,246,2461000000,world,-0.000652512196254,-0.00107353082866,2.59929900446
2471000000,247,2471000000,world,-0.000664327034161,-0.00110445529716,2.60418635668
2481000000,248,2481000000,world,-0.000676220187589,-0.00113574628227,2.60899380025
2491000000,249,2491000000,world,-0.000687037493078,-0.0011620461899,2.6137270086
2501000000,250,2501000000,world,-0.000696314273867,-0.00118119965589,2.618391447
2511000000,251,2511000000,world,-0.000705853774388,-0.00120158504665,2.62299237567
2521000000,252,2521000000,world,-0.000715674059699,-0.00122328797406,2.62753486804
2531000000,253,2531000000,world,-0.000725612068527,-0.0012458665231,2.63202289804
2541000000,254,2541000000,world,-0.000734337491931,-0.00126098951447,2.63645533108
2551000000,255,2551000000,world,-0.000743453825627,-0.00127801109483,2.64082942666
2561000000,256,2561000000,world,-0.000752964600239,-0.00129696056838,2.64514256416
2571000000,257,2571000000,world,-0.000762373185609,-0.00131535715612,2.64939222933
2581000000,258,2581000000,world,-0.000771468804909,-0.00133215275612,2.65357600899
2591000000,259,2591000000,world,-0.000780998027527,-0.00135110739408,2.65769158603
2601000000,260,2601000000,world,-0.000790947325806,-0.00137215022818,2.66173673846
2611000000,261,2611000000,world,-0.000801296618038,-0.00139517426471,2.66570933393
2621000000,262,2621000000,world,-0.000812020692983,-0.00142005252391,2.66960732614
2631000000,263,2631000000,world,-0.000822962729021,-0.00144614427685,2.67342875121
2641000000,264,2641000000,world,-0.000833727861811,-0.00146992407022,2.67717172462
2651000000,265,2651000000,world,-0.000844661549596,-0.00149374035763,2.68083459225
2661000000,266,2661000000,world,-0.000855548488069,-0.0015165661862,2.68441946517
2671000000,267,2671000000,world,-0.000866735344759,-0.00154108472235,2.68793204541
2681000000,268,2681000000,world,-0.000878197951521,-0.00156717341447,2.69137798084
2691000000,269,2691000000,world,-0.00088990929819,-0.00159469589579,2.69476271417
2701000000,270,2701000000,world,-0.000901822295554,-0.00162327121106,2.69809148989
2711000000,271,2711000000,world,-0.000913759115092,-0.00165093014094,2.70136936059
2721000000,272,2721000000,world,-0.000925873940501,-0.0016797284923,2.70460119415
2731000000,273,2731000000,world,-0.000938094075191,-0.00170923158961,2.70779106916
2741000000,274,2741000000,world,-0.000950336931509,-0.00173873566369,2.71094045927
2751000000,275,2751000000,world,-0.000962696426147,-0.0017690633989,2.71405018364
2761000000,276,2761000000,world,-0.000975152169202,-0.00180008911447,2.71712102948
2771000000,277,2771000000,world,-0.000987684454217,-0.00183169200318,2.72015375346
2781000000,278,2781000000,world,-0.00100027475316,-0.00186375576616,2.7231490829
2791000000,279,2791000000,world,-0.00101290574287,-0.00189617154066,2.72610771678
2801000000,280,2801000000,world,-0.00102556618964,-0.00192843910523,2.72903032682
2811000000,281,2811000000,world,-0.0010382431684,-0.0019603018275,2.7319176556
2821000000,282,2821000000,world,-0.00105092954348,-0.00199212793787,2.73477094512
2831000000,283,2831000000,world,-0.00106363038535,-0.00202364199721,2.73759156369
2841000000,284,2841000000,world,-0.00107630167,-0.00205515384267,2.74038082708
2851000000,285,2851000000,world,-0.0010889336072,-0.00208659845353,2.7431400002
2861000000,286,2861000000,world,-0.00110225322579,-0.0021222911907,2.74587030108
2871000000,287,2871000000,world,-0.00111654929087,-0.00216393830706,2.74857289984
2881000000,288,2881000000,world,-0.00113066707725,-0.00220465945951,2.75124891734
2891000000,289,2891000000,world,-0.00114458930605,-0.00224433709715,2.75389943404
2901000000,290,2901000000,world,-0.00115834657775,-0.00228310653482,2.75652548867
2911000000,291,2911000000,world,-0.00117224463201,-0.00232259483669,2.75912808063
2921000000,292,2921000000,world,-0.00118590466546,-0.00236074580791,2.7617081687
2931000000,293,2931000000,world,-0.00119931056841,-0.00239738470967,2.76426660679
2941000000,294,2941000000,world,-0.00121242320924,-0.00243208148204,2.76680393951
2951000000,295,2951000000,world,-0.00122530856146,-0.0024654868296,2.7693206235
2961000000,296,2961000000,world,-0.00123797446439,-0.00249763933191,2.77181709727
2971000000,297,2971000000,world,-0.00125043087325,-0.00252858319251,2.77429378228
2981000000,298,2981000000,world,-0.00126261534036,-0.0025578833292,2.77675108328
2991000000,299,2991000000,world,-0.00127450877448,-0.00258522850578,2.77918938925
3001000000,300,3001000000,world,-0.00128623414334,-0.00261160116172,2.78160907477
3011000000,301,3011000000,world,-0.00129780268615,-0.00263706259358,2.78401049926
3021000000,302,3021000000,world,-0.00130922449636,-0.00266166772503,2.78639400815
3031000000,303,3031000000,world,-0.00132050855028,-0.00268546587383,2.78875993335
3041000000,304,3041000000,world,-0.00133149659836,-0.0027073677023,2.79110859315
3051000000,305,3051000000,world,-0.00134234417522,-0.00272833165504,2.79343999794
3061000000,306,3061000000,world,-0.00135291234721,-0.00274747498184,2.79575296454
3071000000,307,3071000000,world,-0.00136332066193,-0.0027656129152,2.79804606725
3081000000,308,3081000000,world,-0.00137365376317,-0.002783322068,2.80031793718
3091000000,309,3091000000,world,-0.00138391662084,-0.00280063111166,2.80256725973
3101000000,310,3101000000,world,-0.00139411225726,-0.00281755783138,2.8047927727
3111000000,311,3111000000,world,-0.0014041105614,-0.00283328937332,2.80699326363
3121000000,312,3121000000,world,-0.00141399749084,-0.00284835258351,2.80916756915
3131000000,313,3131000000,world,-0.00142383138242,-0.0028631122933,2.81131457214
3141000000,314,3141000000,world,-0.00143346604493,-0.00287671075181,2.81343360817
3151000000,315,3151000000,world,-0.00144295971394,-0.00288948691833,2.81552525503
3161000000,316,3161000000,world,-0.0014524119071,-0.00290202210297,2.8175902873
3171000000,317,3171000000,world,-0.00146182082098,-0.0029143055763,2.81962944904
3181000000,318,3181000000,world,-0.00147118356696,-0.00292632074818,2.82164345538
3191000000,319,3191000000,world,-0.00148040756969,-0.00293753882217,2.82363299331
3201000000,320,3201000000,world,-0.00148942090908,-0.00294755332402,2.82559872319
3211000000,321,3211000000,world,-0.00149839167578,-0.00295731622435,2.82754134349
3221000000,322,3221000000,world,-0.00150715635874,-0.00296595924911,2.8294618665
3231000000,323,3231000000,world,-0.00151577683932,-0.00297380923629,2.83136137919
3241000000,324,3241000000,world,-0.00152436071225,-0.00298143601606,2.83324092667
3251000000,325,3251000000,world,-0.00153290460403,-0.0029888227613,2.83510151318
3261000000,326,3261000000,world,-0.00154126315381,-0.00299531700102,2.83694410365
3271000000,327,3271000000,world,-0.0015494690318,-0.00300094767649,2.83876962611
3281000000,328,3281000000,world,-0.00155763739523,-0.00300634763133,2.84057897299
3291000000,329,3291000000,world,-0.00156576452576,-0.00301149871243,2.84237300173
3301000000,330,3301000000,world,-0.00157384602063,-0.00301637947854,2.84415253648
3311000000,331,3311000000,world,-0.00158163692046,-0.00301998396816,2.84591836876
3321000000,332,3321000000,world,-0.00158938659203,-0.00302328016209,2.84767126065
3331000000,333,3331000000,world,-0.00159709201185,-0.0030263067864,2.84941194404
3341000000,334,3341000000,world,-0.00160475005691,-0.00302904768195,2.85114112232
3351000000,335,3351000000,world,-0.00161224790516,-0.00303115792973,2.85285938593
3361000000,336,3361000000,world,-0.00161959005234,-0.00303264899907,2.85456599889
3371000000,337,3371000000,world,-0.00162680934968,-0.00303370901887,2.8562592631
3381000000,338,3381000000,world,-0.0016338728942,-0.00303415734357,2.85793752451
3391000000,339,3391000000,world,-0.00164089416801,-0.00303432017568,2.85959919565
3401000000,340,3401000000,world,-0.00164787101415,-0.00303419094023,2.86124275231
3411000000,341,3411000000,world,-0.00165480156457,-0.00303376328661,2.86286673117
3421000000,342,3421000000,world,-0.00166156078352,-0.00303301906075,2.86446972729
3431000000,343,3431000000,world,-0.00166825978456,-0.00303196776669,2.86605039187
3441000000,344,3441000000,world,-0.00167491021507,-0.0030306077425,2.86760742986
3451000000,345,3451000000,world,-0.00168150971568,-0.00302893568727,2.86913959783
3461000000,346,3461000000,world,-0.0016880556451,-0.00302694976987,2.87064570571
3471000000,347,3471000000,world,-0.00169454528838,-0.00302465184011,2.87212468098
3481000000,348,3481000000,world,-0.00170095768003,-0.00302212415305,2.87357555477
3491000000,349,3491000000,world,-0.00170723570769,-0.00301959884912,2.87499739869
3501000000,350,3501000000,world,-0.00171446121717,-0.00302871762576,2.87638932532
3511000000,351,3511000000,world,-0.00172181277246,-0.00303972995253,2.87775047411
3521000000,352,3521000000,world,-0.00172902107252,-0.00304945071636,2.87908002164
3531000000,353,3531000000,world,-0.00173607729781,-0.00305781348223,2.88037739344
3541000000,354,3541000000,world,-0.00174350359221,-0.00306979934486,2.88164384116
3551000000,355,3551000000,world,-0.00175125587762,-0.00308499941581,2.8828814936
3561000000,356,3561000000,world,-0.00175878568598,-0.00309824010654,2.8840924064
3571000000,357,3571000000,world,-0.00176608973676,-0.00310953198629,2.88527855795
3581000000,358,3581000000,world,-0.00177317157714,-0.00311892792919,2.88644185106
3591000000,359,3591000000,world,-0.00178393796196,-0.00313151372969,2.88758411615
3601000000,360,3601000000,world,-0.00179589762427,-0.00314418883972,2.88870711229
3611000000,361,3611000000,world,-0.00180730129587,-0.003154821929,2.88981253164
3621000000,362,3621000000,world,-0.00181813487858,-0.00316351763496,2.89090200167
3631000000,363,3631000000,world,-0.00183132492025,-0.00317395365875,2.89197708704
3641000000,364,3641000000,world,-0.00184449876283,-0.00318339423067,2.89303929247
3651000000,365,3651000000,world,-0.00185689948981,-0.00319105820088,2.89408998125
3661000000,366,3661000000,world,-0.00187002226278,-0.00319979267698,2.89512958803
3671000000,367,3671000000,world,-0.00188268960866,-0.00320755164256,2.89615802167
3681000000,368,3681000000,world,-0.00189454840823,-0.00321377897177,2.8971751887
3691000000,369,3691000000,world,-0.00190574559731,-0.00321880902573,2.89818099919
3701000000,370,3701000000,world,-0.00191714594871,-0.00322419441462,2.89917536623
3711000000,371,3711000000,world,-0.00192782816899,-0.00322842352285,2.90015820742
3721000000,372,3721000000,world,-0.00193784538812,-0.00323164941963,2.90112944299
3731000000,373,3731000000,world,-0.00194725936382,-0.00323402469456,2.90208899634
3741000000,374,3741000000,world,-0.00195613538996,-0.00323569809831,2.90303684134
3751000000,375,3751000000,world,-0.00196453987079,-0.00323681249532,2.90397309402
3761000000,376,3761000000,world,-0.00197259079399,-0.00323837606387,2.90489789093
3771000000,377,3771000000,world,-0.00198029710492,-0.00323959694969,2.90581136403
3781000000,378,3781000000,world,-0.00198741763109,-0.00324069642207,2.90671363975
3791000000,379,3791000000,world,-0.00199429495558,-0.00324168674022,2.90760483957
3801000000,380,3801000000,world,-0.0020010192522,-0.00324265622964,2.90848508019
3811000000,381,3811000000,world,-0.00200764146105,-0.00324369615819,2.9093544737
3821000000,382,3821000000,world,-0.00201120496917,-0.00323661507946,2.91021313282
3831000000,383,3831000000,world,-0.0020142011838,-0.00322824300267,2.91106115712
3841000000,384,3841000000,world,-0.00201746823165,-0.00322085967711,2.9118986447
3851000000,385,3851000000,world,-0.00202105734131,-0.00321457965916,2.91272566367
3861000000,386,3861000000,world,-0.00202410952224,-0.00320770537009,2.91354199429
3871000000,387,3871000000,world,-0.00202754868075,-0.00320207916475,2.91434725653
3881000000,388,3881000000,world,-0.00203144383546,-0.00319783589958,2.91514108448
3891000000,389,3891000000,world,-0.00203580420704,-0.00319498755646,2.91592312674
3901000000,390,3901000000,world,-0.00204059380016,-0.00319398921398,2.91669304547
3911000000,391,3911000000,world,-0.00204581457115,-0.00319469612582,2.91745051651
3921000000,392,3921000000,world,-0.00205148494183,-0.00319667582759,2.91819522862
3931000000,393,3931000000,world,-0.00205758843488,-0.00319987976998,2.91892686798
3941000000,394,3941000000,world,-0.00206415016915,-0.00320491466615,2.91964505288
3951000000,395,3951000000,world,-0.00207113669149,-0.00321167046096,2.92034939076
3961000000,396,3961000000,world,-0.00207848628852,-0.00321940471435,2.92103950495
3971000000,397,3971000000,world,-0.00208617563215,-0.0032280560478,2.9217150332
3981000000,398,3981000000,world,-0.00209420050919,-0.00323808158306,2.9223756272
3991000000,399,3991000000,world,-0.00210254663795,-0.00324963891584,2.92302095255
4001000000,400,4001000000,world,-0.00211116442426,-0.00326188741622,2.92365068866
4011000000,401,4011000000,world,-0.00212003294542,-0.00327478171338,2.92426452705
4021000000,402,4021000000,world,-0.00212913384064,-0.00328828508969,2.9248621714
4031000000,403,4031000000,world,-0.00213845843916,-0.00330330570222,2.92544333643
4041000000,404,4041000000,world,-0.00214798542298,-0.00331905574888,2.92600774916
4051000000,405,4051000000,world,-0.00215769916792,-0.00333526851212,2.92655546443
4061000000,406,4061000000,world,-0.00216758711393,-0.00335259876364,2.92708781046
4071000000,407,4071000000,world,-0.00217763985274,-0.00337076220465,2.92760637648
4081000000,408,4081000000,world,-0.00218784854343,-0.00338928569399,2.92811269072
4091000000,409,4091000000,world,-0.00219820492115,-0.00340816294024,2.9286082223
4101000000,410,4101000000,world,-0.00220870220943,-0.00342739407446,2.92909438378
4111000000,411,4111000000,world,-0.00221931994228,-0.00344792263308,2.9295725327
4121000000,412,4121000000,world,-0.0022300666011,-0.00346886482453,2.93004397544
4131000000,413,4131000000,world,-0.00224091183094,-0.0034908767014,2.93050960978
4141000000,414,4141000000,world,-0.00225187371959,-0.00351334535604,2.93096886414
4151000000,415,4151000000,world,-0.0022629561979,-0.00353607671047,2.93142083923
4161000000,416,4161000000,world,-0.00227415536234,-0.00355907710097,2.9318646713
4171000000,417,4171000000,world,-0.00228546801666,-0.00358235707287,2.93229953087
4181000000,418,4181000000,world,-0.00229685268439,-0.00360631021151,2.93272462109
4191000000,419,4191000000,world,-0.00230830928548,-0.00363091995504,2.93313917693
4201000000,420,4201000000,world,-0.00231987422999,-0.00365580596396,2.93354246385
4211000000,421,4211000000,world,-0.00233154429351,-0.0036809794306,2.93393377613
4221000000,422,4221000000,world,-0.00234324118835,-0.00370670112602,2.93431243583
4231000000,423,4231000000,world,-0.00235496780398,-0.00373295940146,2.93467779194
4241000000,424,4241000000,world,-0.00236679977599,-0.00375950312447,2.93502921933
4251000000,425,4251000000,world,-0.00237864583158,-0.00378641261479,2.93536648438
4261000000,426,4261000000,world,-0.00239046672044,-0.00381372690015,2.93569083823
4271000000,427,4271000000,world,-0.00240239570339,-0.0038413403667,2.93600384408
4281000000,428,4281000000,world,-0.00241442889721,-0.00386925965335,2.93630700495
4291000000,429,4291000000,world,-0.0024263982364,-0.00389737143598,2.93660176606
4301000000,430,4301000000,world,-0.00243831291849,-0.00392568461118,2.93688951685
4311000000,431,4311000000,world,-0.00245033790204,-0.00395432056549,2.93717159317
4321000000,432,4321000000,world,-0.00246246843675,-0.00398327896685,2.93744927943
4331000000,433,4331000000,world,-0.00247469813795,-0.00401255917478,2.93772381024
4341000000,434,4341000000,world,-0.00248327754039,-0.00403083507797,2.93799623148
4351000000,435,4351000000,world,-0.00249176072366,-0.00404888121413,2.93826716763
4361000000,436,4361000000,world,-0.00250059935912,-0.00406808418968,2.9385371651
4371000000,437,4371000000,world,-0.00250860166438,-0.00408464237372,2.93880675073
4381000000,438,4381000000,world,-0.00251528228548,-0.00409701697952,2.93907642976
4391000000,439,4391000000,world,-0.00252251051159,-0.00411119303559,2.93934668575
4401000000,440,4401000000,world,-0.00253028805581,-0.00412719412142,2.93961798544
4411000000,441,4411000000,world,-0.00253801418418,-0.00414320243836,2.93989077768
4421000000,442,4421000000,world,-0.00254495062386,-0.00415697697883,2.94016549363
4431000000,443,4431000000,world,-0.00255248833087,-0.00417277893631,2.94044254667
4441000000,444,4441000000,world,-0.00256060373601,-0.00419053337232,2.94072233491
4451000000,445,4451000000,world,-0.00256926245422,-0.00421013282982,2.94100516839
4461000000,446,4461000000,world,-0.0025784225554,-0.00423144959671,2.94129023726
4471000000,447,4471000000,world,-0.00258722692933,-0.00425040132896,2.94157592118
4481000000,448,4481000000,world,-0.00259639712322,-0.00427059037761,2.94186064435
4491000000,449,4491000000,world,-0.00260598197559,-0.00429234670236,2.94214289417
4501000000,450,4501000000,world,-0.00261546929689,-0.0043134648681,2.94242121821
4511000000,451,4511000000,world,-0.00262522550363,-0.00433548627687,2.9426942223
4521000000,452,4521000000,world,-0.00263529262417,-0.00435880803347,2.9429605679
4531000000,453,4531000000,world,-0.00264562567801,-0.00438328958639,2.94321934529
4541000000,454,4541000000,world,-0.00265615287168,-0.00440802920854,2.94347141581
4551000000,455,4551000000,world,-0.00266682098454,-0.00443258132241,2.94371810538
4561000000,456,4561000000,world,-0.00267763102759,-0.00445798937923,2.94396068914
4571000000,457,4571000000,world,-0.00268878131592,-0.00448427237488,2.94420039275
4581000000,458,4581000000,world,-0.00270205111147,-0.00451239110668,2.94443839513
4591000000,459,4591000000,world,-0.00271521781239,-0.00454091089206,2.94467582841
4601000000,460,4601000000,world,-0.00272823370228,-0.00456970445739,2.94491378154
4611000000,461,4611000000,world,-0.00274106273861,-0.00459865714683,2.94515330131
4621000000,462,4621000000,world,-0.00275367789774,-0.00462766714892,2.94539539397
4631000000,463,4631000000,world,-0.00276605986285,-0.00465664304435,2.94564051941
4641000000,464,4641000000,world,-0.00277844977445,-0.00468667640895,2.94588635959
4651000000,465,4651000000,world,-0.00279278957926,-0.0047266956026,2.9461297837
4661000000,466,4661000000,world,-0.00280698703997,-0.00476707278066,2.94636778013
4671000000,467,4671000000,world,-0.00282151345686,-0.00481010213769,2.94659746539
4681000000,468,4681000000,world,-0.00283554360107,-0.00485161875016,2.94681606952
4691000000,469,4691000000,world,-0.00284907241582,-0.0048915285966,2.94702093706
4701000000,470,4701000000,world,-0.00286210493081,-0.0049297844576,2.94720951997
4711000000,471,4711000000,world,-0.00287465378125,-0.00496637657822,2.94737937332
4721000000,472,4721000000,world,-0.00288615669378,-0.00499859887581,2.94752814976
4731000000,473,4731000000,world,-0.00289725395815,-0.00502938442105,2.9476539429
4741000000,474,4741000000,world,-0.00290797418422,-0.00505881365048,2.9477581752
4751000000,475,4751000000,world,-0.00291834684498,-0.00508696602097,2.94784399109
4761000000,476,4761000000,world,-0.0029280237987,-0.00511172567778,2.94791443287
4771000000,477,4771000000,world,-0.00293743317831,-0.0051355000142,2.94797243002
4781000000,478,4781000000,world,-0.00294655755805,-0.0051568539391,2.94802079959
4791000000,479,4791000000,world,-0.00295536673853,-0.00517401254354,2.94806225178
4801000000,480,4801000000,world,-0.00296399839605,-0.00519074419036,2.94809939671
4811000000,481,4811000000,world,-0.00297247332422,-0.00520713816714,2.94813474381
4821000000,482,4821000000,world,-0.00298079160002,-0.00522241192608,2.94817070671
4831000000,483,4831000000,world,-0.00298896208034,-0.00523626825322,2.94820960741
4841000000,484,4841000000,world,-0.00299702659229,-0.00525005784336,2.94825368033
4851000000,485,4851000000,world,-0.00300499542714,-0.00526366775549,2.94830500819
4861000000,486,4861000000,world,-0.00301286783552,-0.00527604081463,2.94836510296
4871000000,487,4871000000,world,-0.0030206652687,-0.00528845505742,2.94843520324
4881000000,488,4881000000,world,-0.00302839383395,-0.00530089810148,2.94851649834
4891000000,489,4891000000,world,-0.00303605740792,-0.00531334504755,2.94861013162
4901000000,490,4901000000,world,-0.00304366008854,-0.00532576191027,2.94871720222
4911000000,491,4911000000,world,-0.00305120410046,-0.00533698143438,2.94883876606
4921000000,492,4921000000,world,-0.0030586929695,-0.00534787883681,2.94897583938
4931000000,493,4931000000,world,-0.00306613200154,-0.00535838527638,2.94912872992
4941000000,494,4941000000,world,-0.00307353243613,-0.00536754476073,2.94929504736
4951000000,495,4951000000,world,-0.00308088358612,-0.00537664904122,2.94947184496
4961000000,496,4961000000,world,-0.00308818501075,-0.00538566188883,2.94965629491
4971000000,497,4971000000,world,-0.00309546746697,-0.00539352819242,2.94984568346
4981000000,498,4981000000,world,-0.00310272014024,-0.00540062002799,2.95003740768
4991000000,499,4991000000,world,-0.00310992372405,-0.00540760136376,2.95022897017
5001000000,500,5001000000,world,-0.00311707915887,-0.00541443684437,2.95041797402
5011000000,501,5011000000,world,-0.00312421775333,-0.00542058806022,2.9506021187
5021000000,502,5021000000,world,-0.00313137776612,-0.00542540582408,2.95077919635
5031000000,503,5031000000,world,-0.00313848771688,-0.005430055197,2.95094708927
5041000000,504,5041000000,world,-0.00314554854652,-0.00543450501927,2.95110376421
5051000000,505,5051000000,world,-0.00315256220234,-0.0054387206823,2.95124741792
5061000000,506,5061000000,world,-0.00315964880205,-0.00544152164946,2.95137787002
5071000000,507,5071000000,world,-0.00316671477687,-0.00544370974392,2.95149585231
5081000000,508,5081000000,world,-0.00317373185857,-0.00544565224527,2.95160207819
5091000000,509,5091000000,world,-0.00318070368713,-0.0054473210341,2.95169723305
5101000000,510,5101000000,world,-0.00318763197793,-0.00544868561166,2.95178197557
5111000000,511,5111000000,world,-0.00319472113522,-0.00544847326221,2.95185693798
5121000000,512,5121000000,world,-0.00320176108046,-0.00544790714987,2.95192272962
5131000000,513,5131000000,world,-0.00320875473228,-0.00544703598527,2.95197988402
5141000000,514,5141000000,world,-0.00321573048977,-0.00544573151602,2.95202863442
5151000000,515,5151000000,world,-0.0032228828953,-0.00544315083423,2.95206911215
5161000000,516,5161000000,world,-0.00322998808114,-0.00544026479502,2.95210144473
5171000000,517,5171000000,world,-0.00323704902818,-0.00543706146947,2.95212575394
5181000000,518,5181000000,world,-0.00324409894539,-0.0054334547563,2.9521421568
5191000000,519,5191000000,world,-0.0032513770819,-0.00542887693263,2.95215076538
5201000000,520,5201000000,world,-0.0032586067413,-0.00542397968475,2.95215168823
5211000000,521,5211000000,world,-0.00326579201731,-0.00541875265699,2.95214502918
5221000000,522,5221000000,world,-0.00327293806979,-0.00541318590421,2.952130888
5231000000,523,5231000000,world,-0.00328035552226,-0.00540699300215,2.95210936039
5241000000,524,5241000000,world,-0.00328776265216,-0.00540042974868,2.95208053861
5251000000,525,5251000000,world,-0.0032951272111,-0.00539352490312,2.95204455593
5261000000,526,5261000000,world,-0.00330245479128,-0.00538627500892,2.95200200902
5271000000,527,5271000000,world,-0.00330998537274,-0.00537877161163,2.95195374426
5281000000,528,5281000000,world,-0.00331763138306,-0.00537098639961,2.95190057828
5291000000,529,5291000000,world,-0.00332523805591,-0.00536283798659,2.95184329596
5301000000,530,5301000000,world,-0.00333391053041,-0.00535968197266,2.95178265417
5311000000,531,5311000000,world,-0.0033440997628,-0.00536368001272,2.95171937844
5321000000,532,5321000000,world,-0.00335409722952,-0.00536648653648,2.95165416173
5331000000,533,5331000000,world,-0.00336389318556,-0.00536802757072,2.95158770308
5341000000,534,5341000000,world,-0.00337464826613,-0.0053771226792,2.95152083611
5351000000,535,5351000000,world,-0.00338526359661,-0.0053853422934,2.95145440837
5361000000,536,5361000000,world,-0.00339560738716,-0.00539162186205,2.9513892375
5371000000,537,5371000000,world,-0.00340568861764,-0.00539596398102,2.95132610975
5381000000,538,5381000000,world,-0.00341583833475,-0.00540231713824,2.9512657816
5391000000,539,5391000000,world,-0.00342599287956,-0.00540974651825,2.95120897882
5401000000,540,5401000000,world,-0.00343590435453,-0.00541502217825,2.95115639887
5411000000,541,5411000000,world,-0.00344559428582,-0.00541822729993,2.95110872376
5421000000,542,5421000000,world,-0.00345505248082,-0.00542161518555,2.95106669039
5431000000,543,5431000000,world,-0.00346429075872,-0.00542618339353,2.95103104254
5441000000,544,5441000000,world,-0.00347338917243,-0.00542874570039,2.95100249515
5451000000,545,5451000000,world,-0.0034823750548,-0.00542943222084,2.95098173566
5461000000,546,5461000000,world,-0.00349111492915,-0.00543018765236,2.95096942465
5471000000,547,5471000000,world,-0.00349964558481,-0.00543141749961,2.95096619695
5481000000,548,5481000000,world,-0.00350815627871,-0.0054310176426,2.95097266294
5491000000,549,5491000000,world,-0.00351667007879,-0.00542913626552,2.95098940918
5501000000,550,5501000000,world,-0.00352520709506,-0.00542592974457,2.95101699931
5511000000,551,5511000000,world,-0.00353378442401,-0.00542156223234,2.95105597504
5521000000,552,5521000000,world,-0.00354187070949,-0.00541854957683,2.95110685636
5531000000,553,5531000000,world,-0.00354999875823,-0.00541481920498,2.95116985459
5541000000,554,5541000000,world,-0.00355772408478,-0.00541185522878,2.95124400899
5551000000,555,5551000000,world,-0.00356527087102,-0.00540937308557,2.95132811369
5561000000,556,5561000000,world,-0.00357301032626,-0.00540612663787,2.9514210112
5571000000,557,5571000000,world,-0.00358095177899,-0.00540222593791,2.95152158968
5581000000,558,5581000000,world,-0.00358903031686,-0.00539783202196,2.95162878147
5591000000,559,5591000000,world,-0.00359671573685,-0.00539341471769,2.95174156121
5601000000,560,5601000000,world,-0.00360464603231,-0.00538866016615,2.95185894449
5611000000,561,5611000000,world,-0.00361254243435,-0.00538381454778,2.95197998584
5621000000,562,5621000000,world,-0.00362028800678,-0.00537903540665,2.95210377724
5631000000,563,5631000000,world,-0.00362830907132,-0.00537420532069,2.95222944675
5641000000,564,5641000000,world,-0.00363659969449,-0.0053694099646,2.95235615689
5651000000,565,5651000000,world,-0.00364514995926,-0.00536472929066,2.95248329546
5661000000,566,5661000000,world,-0.00365394703782,-0.00536023846815,2.95261114271
5671000000,567,5671000000,world,-0.00366394183319,-0.0053474290482,2.95274022604
5681000000,568,5681000000,world,-0.00367433072155,-0.00533337262774,2.95287104384
5691000000,569,5691000000,world,-0.00368483854334,-0.00532042178641,2.95300407747
5701000000,570,5701000000,world,-0.00369544201914,-0.00530868443457,2.95313979073
5711000000,571,5711000000,world,-0.00370639809851,-0.00529790734294,2.95327862951
5721000000,572,5721000000,world,-0.00371739586913,-0.00528847733184,2.95342102197
5731000000,573,5731000000,world,-0.00372841847973,-0.00528041715478,2.95356716824
5741000000,574,5741000000,world,-0.00373934372819,-0.0052749995354,2.9537165873
5751000000,575,5751000000,world,-0.00375026522151,-0.00527100120002,2.95386868672
5761000000,576,5761000000,world,-0.00376118768718,-0.00526823976265,2.95402289683
5771000000,577,5771000000,world,-0.00377210538744,-0.00526667302433,2.95417867041
5781000000,578,5781000000,world,-0.00378301365762,-0.00526625594406,2.95433548183
5791000000,579,5791000000,world,-0.00379371245382,-0.00526768526909,2.95449282569
5801000000,580,5801000000,world,-0.00380435873838,-0.00527031015661,2.95465021743
5811000000,581,5811000000,world,-0.00381500203573,-0.00527388924971,2.95480719138
5821000000,582,5821000000,world,-0.00382564221326,-0.00527837784274,2.95496330008
5831000000,583,5831000000,world,-0.00383614904845,-0.00528427177975,2.95511811335
5841000000,584,5841000000,world,-0.00384646891223,-0.00529175163372,2.95527121816
5851000000,585,5851000000,world,-0.00385680087767,-0.00529995139344,2.95542206829
5861000000,586,5861000000,world,-0.00386714426105,-0.00530883531761,2.95556932106
5871000000,587,5871000000,world,-0.00387727215259,-0.00531923395428,2.95571141693
5881000000,588,5881000000,world,-0.00388727308862,-0.00533077627655,2.95584685955
5891000000,589,5891000000,world,-0.00389730030732,-0.00534284911454,2.95597421256
5901000000,590,5901000000,world,-0.00390735191139,-0.00535543549866,2.9560920965
5911000000,591,5911000000,world,-0.0039171119005,-0.00536953652809,2.95619918611
5921000000,592,5921000000,world,-0.00392677479242,-0.00538450027987,2.95629421022
5931000000,593,5931000000,world,-0.00393647470038,-0.00539987165286,2.95637606403
5941000000,594,5941000000,world,-0.00394620621454,-0.0054156494033,2.95644455068
5951000000,595,5951000000,world,-0.00395550191294,-0.00543304941957,2.95649986161
5961000000,596,5961000000,world,-0.00396479075616,-0.00545100932606,2.95654218385
5971000000,597,5971000000,world,-0.00397412097297,-0.00546931264955,2.95657169647
5981000000,598,5981000000,world,-0.00398299507683,-0.00548906448,2.95658857048
5991000000,599,5991000000,world,-0.00399180329387,-0.00550938523685,2.95659297174
6001000000,600,6001000000,world,-0.00400066530476,-0.00553000052642,2.95658505918
6011000000,601,6011000000,world,-0.00400957197581,-0.00555092440242,2.9565651435
6021000000,602,6021000000,world,-0.00401816677715,-0.00557279304145,2.95653438438
6031000000,603,6031000000,world,-0.00402646516058,-0.0055955775455,2.95649418185
6041000000,604,6041000000,world,-0.00403481378184,-0.00561865850691,2.95644588248
6051000000,605,6051000000,world,-0.00404320225832,-0.00564205177093,2.95639078037
6061000000,606,6061000000,world,-0.00405108557178,-0.00566649282486,2.95633011911
6071000000,607,6071000000,world,-0.00405879036118,-0.00569154351227,2.95626509523
6081000000,608,6081000000,world,-0.00406654106587,-0.00571690316178,2.95619685893
6091000000,609,6091000000,world,-0.0040743249249,-0.00574258886631,2.95612651571
6101000000,610,6101000000,world,-0.00408163200082,-0.0057690573632,2.95605512793
6111000000,611,6111000000,world,-0.00408864866488,-0.00579614713475,2.95598371735
6121000000,612,6121000000,world,-0.0040957036517,-0.00582356728497,2.95591326623
6131000000,613,6131000000,world,-0.00410278360572,-0.0058513288091,2.95584474903
6141000000,614,6141000000,world,-0.0041097832018,-0.00587947650048,2.95577926826
6151000000,615,6151000000,world,-0.00411599816457,-0.00590827651612,2.95571793833
6161000000,616,6161000000,world,-0.0041222388549,-0.00593743538353,2.9556618312
6171000000,617,6171000000,world,-0.0041282193865,-0.00596694051035,2.95561197694
6181000000,618,6181000000,world,-0.00413359238473,-0.00599677261727,2.95556936573
6191000000,619,6191000000,world,-0.00413900293486,-0.00602698098569,2.95553494946
6201000000,620,6201000000,world,-0.00414443836485,-0.00605756531842,2.95550964309
6211000000,621,6211000000,world,-0.00414988267713,-0.00608852411008,2.9554943261
6221000000,622,6221000000,world,-0.00415244630391,-0.0061100841982,2.95548984807
6231000000,623,6231000000,world,-0.00415395265687,-0.0061285166837,2.95549701822
6241000000,624,6241000000,world,-0.00415567935048,-0.00614823528577,2.95551661567
6251000000,625,6251000000,world,-0.00415762765368,-0.00616930711912,2.95554919648
6261000000,626,6261000000,world,-0.00415812411309,-0.00618351791756,2.95559451527
6271000000,627,6271000000,world,-0.00415862931787,-0.00619816490281,2.95565214011
6281000000,628,6281000000,world,-0.0041594370501,-0.00621478290147,2.95572165851
6291000000,629,6291000000,world,-0.00416052805432,-0.00623336325344,2.95580267476
6301000000,630,6301000000,world,-0.00416187485295,-0.00625385701942,2.95589480881
6311000000,631,6311000000,world,-0.0041630413891,-0.00627154520702,2.95599769634
6321000000,632,6321000000,world,-0.00416424896171,-0.00628929619356,2.95611098571
6331000000,633,6331000000,world,-0.00416564156571,-0.00630907473398,2.95623416775
6341000000,634,6341000000,world,-0.00416732163401,-0.006328604757,2.95636547286
6351000000,635,6351000000,world,-0.00416930759091,-0.00634688357607,2.95650263714
6361000000,636,6361000000,world,-0.00417134391398,-0.00636714797555,2.95664348569
6371000000,637,6371000000,world,-0.0041733916887,-0.00638927984314,2.95678593159
6381000000,638,6381000000,world,-0.00417569095378,-0.00641218046549,2.95692797185
6391000000,639,6391000000,world,-0.00417854439363,-0.00643453164814,2.95706768378
6401000000,640,6401000000,world,-0.00418125333827,-0.00645848257722,2.95720322186
6411000000,641,6411000000,world,-0.00418378359257,-0.00648387831248,2.95733281475
6421000000,642,6421000000,world,-0.00418610756248,-0.00651055966057,2.95745476202
6431000000,643,6431000000,world,-0.00418914451092,-0.00653595534114,2.95756743105
6441000000,644,6441000000,world,-0.00419198280994,-0.00656220228213,2.95766925484
6451000000,645,6451000000,world,-0.00419449462462,-0.00658944229164,2.95775876191
6461000000,646,6461000000,world,-0.0041972236177,-0.00661714727071,2.95783471906
6471000000,647,6471000000,world,-0.00420038838222,-0.00664488534006,2.95789600131
6481000000,648,6481000000,world,-0.00420311749098,-0.00667327166626,2.95794152854
6491000000,649,6491000000,world,-0.00420540284242,-0.00670218104518,2.95797026352
6501000000,650,6501000000,world,-0.00420826438733,-0.00673086299871,2.95798121017
6511000000,651,6511000000,world,-0.00421087805925,-0.00675971978165,2.95797341193
6521000000,652,6521000000,world,-0.00421298400378,-0.00678881404981,2.95794595017
6531000000,653,6531000000,world,-0.00421459154139,-0.00681805042442,2.95789813017
6541000000,654,6541000000,world,-0.00421480303991,-0.00685155117176,2.95783068454
6551000000,655,6551000000,world,-0.00421295201993,-0.00689239181573,2.95774493489
6561000000,656,6561000000,world,-0.00421082406668,-0.00693235607692,2.95764214889
6571000000,657,6571000000,world,-0.00420846184277,-0.00697129106027,2.95752354858
6581000000,658,6581000000,world,-0.00420583435012,-0.00700932276528,2.95739030882
6591000000,659,6591000000,world,-0.00420245223442,-0.00704818257641,2.95724355988
6601000000,660,6601000000,world,-0.00419897082186,-0.00708564950985,2.9570843865
6611000000,661,6611000000,world,-0.00419542320807,-0.0070877295564,2.95691382248
6621000000,662,6621000000,world,-0.00419184638591,-0.00695806503612,2.956733144
6631000000,663,6631000000,world,-0.00418823293064,-0.00683736115372,2.95654413125
6641000000,664,6641000000,world,-0.00418459415696,-0.00672685568836,2.95634845717
6651000000,665,6651000000,world,-0.00418093956354,-0.00662726376694,2.95614773058
6661000000,666,6661000000,world,-0.00418003020794,-0.00641364543773,2.95594338822
6671000000,667,6671000000,world,-0.00418163803535,-0.00609658623769,2.95573689521
6681000000,668,6681000000,world,-0.00418289370123,-0.00580653545674,2.95552979921
6691000000,669,6691000000,world,-0.00418376921402,-0.00554453917195,2.95532349215
6701000000,670,6701000000,world,-0.00418657390331,-0.00515509068197,2.95511909952
6711000000,671,6711000000,world,-0.00419034988666,-0.00470146786008,2.95491795903
6721000000,672,6721000000,world,-0.00419347998441,-0.00429143252331,2.95472146907
6731000000,673,6731000000,world,-0.00419635417024,-0.00390027617852,2.95453097046
6741000000,674,6741000000,world,-0.00420072310392,-0.00333652598278,2.9543476959
6751000000,675,6751000000,world,-0.00420432057189,-0.00282868232388,2.95417401621
6761000000,676,6761000000,world,-0.00420716545894,-0.00237640545451,2.95401163224
6771000000,677,6771000000,world,-0.00420928962501,-0.00197811975335,2.95386223034
6781000000,678,6781000000,world,-0.00421193999837,-0.00144323754464,2.95372703357
6791000000,679,6791000000,world,-0.00421402132997,-0.000947882213598,2.95360798131
6801000000,680,6801000000,world,-0.00421544437804,-0.00051182647977,2.95350661133
6811000000,681,6811000000,world,-0.00421626529776,-0.00013241468454,2.95342437446
6821000000,682,6821000000,world,-0.00421654485851,0.000193647307886,2.9533626519
6831000000,683,6831000000,world,-0.00421634846258,0.000470071369772,2.95332276036
6841000000,684,6841000000,world,-0.0042166989175,0.000850662802137,2.95330578553
6851000000,685,6851000000,world,-0.00421663932976,0.00118034253399,2.95331291664
6861000000,686,6861000000,world,-0.0042163186582,0.00149596854204,2.95334325498
6871000000,687,6871000000,world,-0.00421583012979,0.00181437529579,2.9533952052
6881000000,688,6881000000,world,-0.00421508029661,0.00208557743925,2.95346727987
6891000000,689,6891000000,world,-0.00421411982033,0.00231236314168,2.95355799002
6901000000,690,6901000000,world,-0.00421312635744,0.00252547567845,2.95366596126
6911000000,691,6911000000,world,-0.00421209517054,0.0027164741048,2.95378978234
6921000000,692,6921000000,world,-0.00421097683991,0.00286873870952,2.95392796813
6931000000,693,6931000000,world,-0.00420981069135,0.00298472700463,2.95407914515
6941000000,694,6941000000,world,-0.00420843626202,0.00305518066449,2.95424175016
6951000000,695,6951000000,world,-0.00420701509842,0.00309000571453,2.95441438377
6961000000,696,6961000000,world,-0.00420566738718,0.00309667033005,2.95459569807
6971000000,697,6971000000,world,-0.00420442360636,0.003077190149,2.95478435482
6981000000,698,6981000000,world,-0.00420309476077,0.00298509307481,2.95497852745
6991000000,699,6991000000,world,-0.00420187467218,0.00286073636947,2.9551769964
7001000000,700,7001000000,world,-0.00420083973902,0.0027178636275,2.95537859107
7011000000,701,7011000000,world,-0.00420000815531,0.00255742729732,2.95558209294
7021000000,702,7021000000,world,-0.00419939468205,0.00238006783178,2.95578624559
7031000000,703,7031000000,world,-0.00419880444419,0.00214704678496,2.95598905508
7041000000,704,7041000000,world,-0.00419816754372,0.00182888314603,2.95618846969
7051000000,705,7051000000,world,-0.00419781000752,0.00150027897407,2.95638435808
7061000000,706,7061000000,world,-0.00419764073318,0.00114547614007,2.95657482798
7071000000,707,7071000000,world,-0.00419726144757,0.000646042206641,2.95675581488
7081000000,708,7081000000,world,-0.00419720637682,0.000142537437992,2.95692886937
7091000000,709,7091000000,world,-0.00419748088233,-0.000365465342566,2.95709310647
7101000000,710,7101000000,world,-0.00419808598983,-0.000879121732451,2.95724769379
7111000000,711,7111000000,world,-0.00419867397987,-0.00150079381179,2.95738841662
7121000000,712,7121000000,world,-0.0041993849772,-0.00219174475423,2.95751512665
7131000000,713,7131000000,world,-0.00420045127677,-0.00288499287957,2.95762904251
7141000000,714,7141000000,world,-0.00420095452053,-0.00379935058149,2.95772155811
7151000000,715,7151000000,world,-0.00420180876179,-0.00471980521905,2.95780059843
7161000000,716,7161000000,world,-0.00420306374026,-0.00563636532299,2.95786715968
7171000000,717,7171000000,world,-0.00420458785589,-0.00660676825004,2.95791928823
7181000000,718,7181000000,world,-0.00420621792424,-0.00770157680815,2.95795371161
7191000000,719,7191000000,world,-0.0042082534353,-0.00879161048896,2.95797677492
7201000000,720,7201000000,world,-0.00421068548138,-0.00988068727709,2.95798883769
7211000000,721,7211000000,world,-0.00421349391752,-0.0109738963043,2.95799003283
7221000000,722,7221000000,world,-0.00421629874717,-0.0121866112511,2.95797405162
7231000000,723,7231000000,world,-0.00421903716231,-0.0135390453001,2.95793930416
7241000000,724,7241000000,world,-0.00422216210194,-0.0148968406115,2.95789421595
7251000000,725,7251000000,world,-0.00422566263875,-0.0162643900803,2.95783931077
7261000000,726,7261000000,world,-0.00422952642067,-0.0176469927838,2.95777579794
7271000000,727,7271000000,world,-0.00423340842136,-0.0192048928476,2.95769380749
7281000000,728,7281000000,world,-0.00423755777817,-0.0208188743808,2.95760280147
7291000000,729,7291000000,world,-0.00424186233682,-0.0225273295732,2.95750127385
7301000000,730,7301000000,world,-0.00424608540208,-0.0244243286017,2.95738267289
7311000000,731,7311000000,world,-0.00425066013903,-0.0263392899629,2.95726183039
7321000000,732,7321000000,world,-0.00425557567198,-0.0282766650115,2.95714014556
