%time,field.header.seq,field.header.stamp,field.header.frame_id,field.twist.linear.x,field.twist.linear.y,field.twist.linear.z,field.twist.angular.x,field.twist.angular.y,field.twist.angular.z
28000000,1,28000000,,0.0122489369081,-0.0060562835685,-0.0520478553726,0.0,0.0,0.0
41000000,2,41000000,,0.0304622427712,0.0271735260896,-0.113693210051,0.0,0.0,0.0
41000000,3,41000000,,-0.00520300643004,0.0191666377152,-0.293740053141,0.0,0.0,0.0
51000000,4,51000000,,-0.00373374991211,0.04344971878,-0.369000115838,0.0,0.0,0.0
62000000,5,62000000,,-0.012048755154,0.000555236427755,-0.481671892544,0.0,0.0,0.0
75000000,6,75000000,,-0.0245806996389,-0.00887981365757,-0.566202653853,0.0,0.0,0.0
82000000,7,82000000,,0.0228315946112,0.0276032034871,-0.685638109549,0.0,0.0,0.0
91000000,8,91000000,,-0.0113812684724,-0.0421175518867,-0.710126751711,0.0,0.0,0.0
102000000,9,102000000,,0.00594879699558,-0.0357561208408,-0.835782494022,0.0,0.0,0.0
111000000,10,111000000,,0.00923502232278,0.0136380873383,-0.910126084361,0.0,0.0,0.0
123000000,11,123000000,,0.00956326338076,0.000219238549333,-1.06213094107,0.0,0.0,0.0
132000000,12,132000000,,-0.00574845558862,0.0251127095729,-1.11452068617,0.0,0.0,0.0
143000000,13,143000000,,-0.0178907477487,-0.0324006148025,-1.23414024043,0.0,0.0,0.0
162000000,14,162000000,,0.00702878592269,0.0291188124344,-1.32553464333,0.0,0.0,0.0
162000000,15,162000000,,0.015375382453,0.0242800523143,-1.39396425754,0.0,0.0,0.0
171000000,16,171000000,,0.0114165147439,-0.00115919584991,-0.390018163665,0.0,0.0,0.0
185000000,17,185000000,,0.0161599687908,-0.0149116000118,0.0359289967189,0.0,0.0,0.0
195000000,18,195000000,,0.0273480316513,-0.0362953303851,-0.0372013911769,0.0,0.0,0.0
201000000,19,201000000,,-0.00898040248607,-0.00751923856459,0.0109948605413,0.0,0.0,0.0
211000000,20,211000000,,0.0082520306788,0.0241837882224,0.0242301635742,0.0,0.0,0.0
222000000,21,222000000,,-0.00347888907618,0.00112544718355,0.0294884700584,0.0,0.0,0.0
231000000,22,231000000,,0.0358306222424,-0.00632283268758,0.00720666353666,0.0,0.0,0.0
242000000,23,242000000,,-0.0179580903462,0.0283897759661,-0.0174593283696,0.0,0.0,0.0
251000000,24,251000000,,-0.00686496851734,0.0159984986921,0.0104950682759,0.0,0.0,0.0
262000000,25,262000000,,-0.0217756003889,0.0468589120231,-0.00261848320413,0.0,0.0,0.0
271000000,26,271000000,,0.00885030768536,0.0113763245004,0.00289737863517,0.0,0.0,0.0
281000000,27,281000000,,-0.00699020342429,-0.00814490393276,0.00131904531662,0.0,0.0,0.0
293000000,28,293000000,,0.0217374318052,0.00102275166776,-0.0258937038937,0.0,0.0,0.0
301000000,29,301000000,,-0.0419953089587,-0.00515840084753,-0.0407700329992,0.0,0.0,0.0
311000000,30,311000000,,0.0163330649466,-0.00726788106273,-0.00466862925171,0.0,0.0,0.0
320000000,31,320000000,,-0.04482837591,-0.0109659023603,0.0321555013645,0.0,0.0,0.0
331000000,32,331000000,,0.00232433751377,0.0143707572359,-0.00355875231586,0.0,0.0,0.0
345000000,33,345000000,,0.00896737289699,0.00769189161478,0.0138370174674,0.0,0.0,0.0
355000000,34,355000000,,0.0140127237013,-0.0144054357586,-0.0162230378249,0.0,0.0,0.0
366000000,35,366000000,,0.0065553501663,0.00583288985714,0.00471178419597,0.0,0.0,0.0
372000000,36,372000000,,-0.00740836047558,-0.00436321383776,0.0380047783239,0.0,0.0,0.0
383000000,37,383000000,,-0.0262688176502,0.00751546785284,0.00668244089346,0.0,0.0,0.0
396000000,38,396000000,,-0.00504076550704,-0.00696006607423,0.0255526846885,0.0,0.0,0.0
401000000,39,401000000,,0.0388806780927,-0.0207101716949,0.00306763353334,0.0,0.0,0.0
411000000,40,411000000,,-0.0174794431831,-0.0205000510479,0.00119731445904,0.0,0.0,0.0
421000000,41,421000000,,0.00765217396146,-0.0406658095947,0.0117768054093,0.0,0.0,0.0
431000000,42,431000000,,-0.0143763684006,0.014640348442,0.00830539455025,0.0,0.0,0.0
441000000,43,441000000,,-0.00180368100271,0.0102132379675,0.00753239228274,0.0,0.0,0.0
451000000,44,451000000,,-0.0234402813655,-0.02902153123,-0.00223812022351,0.0,0.0,0.0
461000000,45,461000000,,0.0119665590041,-0.0236134547469,-0.0289051513897,0.0,0.0,0.0
471000000,46,471000000,,-0.00986146129679,-0.0154843647337,-0.014378257225,0.0,0.0,0.0
481000000,47,481000000,,-0.0119735109713,0.020989341369,0.0182904177751,0.0,0.0,0.0
491000000,48,491000000,,-0.0168823224311,0.00490985977866,-0.00171548896691,0.0,0.0,0.0
501000000,49,501000000,,0.0257807348988,0.0422908832532,0.00195797177503,0.0,0.0,0.0
511000000,50,511000000,,0.0190044605324,0.000253416172656,0.0108271812517,0.0,0.0,0.0
521000000,51,521000000,,-0.000741034468142,-0.0197694760847,0.0144910493388,0.0,0.0,0.0
532000000,52,532000000,,-0.0254216895309,0.014525134165,0.00752861794719,0.0,0.0,0.0
541000000,53,541000000,,-0.0235524058467,-0.00637508669813,0.0102624889985,0.0,0.0,0.0
551000000,54,551000000,,0.035997627474,-0.000895214228262,0.0443980828049,0.0,0.0,0.0
561000000,55,561000000,,0.00700998342581,-0.00608729168634,0.0365799563303,0.0,0.0,0.0
571000000,56,571000000,,-0.0108265373635,-0.00816704875327,0.0559208263507,0.0,0.0,0.0
581000000,57,581000000,,-0.0392853591184,0.0288692707603,0.067275206175,0.0,0.0,0.0
591000000,58,591000000,,0.00741885706933,0.0157996461003,0.117980814628,0.0,0.0,0.0
601000000,59,601000000,,0.00973180599307,-0.0150707597798,0.200812693737,0.0,0.0,0.0
611000000,60,611000000,,-0.0122904257944,-0.0137639895993,0.205580256376,0.0,0.0,0.0
621000000,61,621000000,,0.00223553587149,-0.0152917550764,0.2245062442,0.0,0.0,0.0
631000000,62,631000000,,0.0251927012837,0.00480919315704,0.268300755646,0.0,0.0,0.0
640000000,63,640000000,,-0.0068282282048,-0.0118525598357,0.335485475758,0.0,0.0,0.0
651000000,64,651000000,,0.014034314872,-0.00737182806966,0.332910007004,0.0,0.0,0.0
661000000,65,661000000,,0.000852984674006,0.0295103617387,0.390466397744,0.0,0.0,0.0
671000000,66,671000000,,0.0362900720531,0.0231262738181,0.450941376372,0.0,0.0,0.0
680000000,67,680000000,,-0.0076502476822,0.0142318491499,0.525072309399,0.0,0.0,0.0
691000000,68,691000000,,0.00813905095972,-0.0135636802534,0.586572335982,0.0,0.0,0.0
701000000,69,701000000,,0.00471836665186,-0.0131846790226,0.64097054209,0.0,0.0,0.0
711000000,70,711000000,,0.0217676316796,-0.0285831694039,0.723535483749,0.0,0.0,0.0
720000000,71,720000000,,-0.0404272149762,0.0205625920821,0.770685522647,0.0,0.0,0.0
731000000,72,731000000,,-0.0375413574977,0.00365199916496,0.795453185296,0.0,0.0,0.0
741000000,73,741000000,,-0.0129479228064,0.0328363951229,0.885930947092,0.0,0.0,0.0
751000000,74,751000000,,0.00228612627285,-0.0269774339057,0.948372416078,0.0,0.0,0.0
761000000,75,761000000,,-0.00120003779754,-0.00143946467191,0.965553648724,0.0,0.0,0.0
771000000,76,771000000,,0.0512472270142,-0.0263024519626,1.05755854823,0.0,0.0,0.0
781000000,77,781000000,,0.0140464156838,-0.00525447792771,1.13112003697,0.0,0.0,0.0
791000000,78,791000000,,-0.000965543555595,-0.039639877225,1.16473195816,0.0,0.0,0.0
801000000,79,801000000,,0.00238902106148,0.0171368141019,1.27484049971,0.0,0.0,0.0
811000000,80,811000000,,-0.0061926660862,-0.000741211145897,1.24744698002,0.0,0.0,0.0
824000000,81,824000000,,-0.0487787358537,-0.00112233310482,1.29146443219,0.0,0.0,0.0
831000000,82,831000000,,0.0068506419144,-0.0162719160566,1.35832249029,0.0,0.0,0.0
842000000,83,842000000,,0.00282663987301,0.0119282929098,1.39076236875,0.0,0.0,0.0
851000000,84,851000000,,-0.0183374230102,-0.0367253795155,1.43419053644,0.0,0.0,0.0
861000000,85,861000000,,-0.00712566044176,-0.00927625937513,1.48315790029,0.0,0.0,0.0
871000000,86,871000000,,0.02489751925,0.00593670621052,1.54746410241,0.0,0.0,0.0
880000000,87,880000000,,0.0358723170007,-0.00668766800281,1.53962495818,0.0,0.0,0.0
891000000,88,891000000,,0.012118737632,-0.0258009448873,1.58932257052,0.0,0.0,0.0
901000000,89,901000000,,-0.0215512683537,-0.00603015835759,1.56620729261,0.0,0.0,0.0
911000000,90,911000000,,-0.00209357079553,-0.00499722155091,1.6540175926,0.0,0.0,0.0
922000000,91,922000000,,0.00769212417101,-0.0361389189102,1.69744381794,0.0,0.0,0.0
931000000,92,931000000,,0.012935066431,-0.030625797039,1.66005831513,0.0,0.0,0.0
941000000,93,941000000,,-0.0235791933961,0.00134786407412,1.71037563186,0.0,0.0,0.0
951000000,94,951000000,,0.00883526940162,0.0176308826157,1.72762607552,0.0,0.0,0.0
962000000,95,962000000,,0.0169896924013,0.0281175563723,1.68961847179,0.0,0.0,0.0
971000000,96,971000000,,0.00667202188404,-0.0256538169928,1.72662226113,0.0,0.0,0.0
982000000,97,982000000,,0.0342965437419,-0.0335871166899,1.74602107001,0.0,0.0,0.0
991000000,98,991000000,,0.0159654440343,-0.0230808584259,1.74783137068,0.0,0.0,0.0
1001000000,99,1001000000,,0.00284196873746,0.0477146643992,1.7606781593,0.0,0.0,0.0
1011000000,100,1011000000,,-0.00120867944015,0.00471396689401,1.73921612332,0.0,0.0,0.0
1021000000,101,1021000000,,-0.0194842089128,-0.0129038641191,1.75085031421,0.0,0.0,0.0
1031000000,102,1031000000,,0.000944459345767,-0.0139805885554,1.709595977,0.0,0.0,0.0
1041000000,103,1041000000,,-0.0239516522339,-0.00379186248202,1.71594712653,0.0,0.0,0.0
1051000000,104,1051000000,,0.0161294398408,-0.0216285469202,1.69095896799,0.0,0.0,0.0
1061000000,105,1061000000,,0.0059835124804,0.00082845068821,1.67575195187,0.0,0.0,0.0
1071000000,106,1071000000,,-0.0282037013455,-0.0025372174665,1.69149660028,0.0,0.0,0.0
1081000000,107,1081000000,,0.0163966226054,0.0248619567015,1.65039495183,0.0,0.0,0.0
1091000000,108,1091000000,,0.00381339453242,-0.0195792953667,1.63496349582,0.0,0.0,0.0
1101000000,109,1101000000,,-0.0330074394554,-0.0012960727121,1.60056958015,0.0,0.0,0.0
1111000000,110,1111000000,,0.0239089060869,-0.015308993708,1.60055117415,0.0,0.0,0.0
1121000000,111,1121000000,,0.015888214889,0.0243444713925,1.56164299388,0.0,0.0,0.0
1131000000,112,1131000000,,0.0183338658271,-0.00797289264266,1.53403889746,0.0,0.0,0.0
1141000000,113,1141000000,,0.0191975396182,0.0118020127896,1.51193999503,0.0,0.0,0.0
1151000000,114,1151000000,,-0.0212438529033,0.00544346109242,1.52796665842,0.0,0.0,0.0
1162000000,115,1162000000,,0.00764669501249,-0.00421903466672,1.46079736768,0.0,0.0,0.0
1171000000,116,1171000000,,0.00881731437424,0.0186850570972,1.48497870945,0.0,0.0,0.0
1181000000,117,1181000000,,-0.0211173963693,-0.024372017871,1.46877538111,0.0,0.0,0.0
1191000000,118,1191000000,,-0.0061739371755,-0.00551147590115,1.41759366544,0.0,0.0,0.0
1201000000,119,1201000000,,0.00961706655225,0.0157128219847,1.38832422467,0.0,0.0,0.0
1211000000,120,1211000000,,0.0198736819801,0.0553786707858,1.41202830574,0.0,0.0,0.0
1221000000,121,1221000000,,-0.0122110056186,0.0258098746178,1.35698282802,0.0,0.0,0.0
1232000000,122,1232000000,,0.0013401619205,0.00672541155743,1.34745094135,0.0,0.0,0.0
1241000000,123,1241000000,,-0.0169241711901,-0.00164309217903,1.37485436702,0.0,0.0,0.0
1251000000,124,1251000000,,0.020241636259,0.0133515093875,1.30875538302,0.0,0.0,0.0
1262000000,125,1262000000,,0.0156956300423,0.00966888364282,1.30773184025,0.0,0.0,0.0
1272000000,126,1272000000,,0.00659250652021,0.036475300016,1.31068135932,0.0,0.0,0.0
1281000000,127,1281000000,,0.00546095908246,-0.0141741961983,1.30421370498,0.0,0.0,0.0
1291000000,128,1291000000,,0.00235157420968,-0.00748063599627,1.28977223247,0.0,0.0,0.0
1302000000,129,1302000000,,0.0136148400916,0.00971183069151,1.23072663689,0.0,0.0,0.0
1311000000,130,1311000000,,0.00482446772971,0.0229546770438,1.24340406357,0.0,0.0,0.0
1320000000,131,1320000000,,-0.017254115383,-0.00243694685023,1.22766278588,0.0,0.0,0.0
1331000000,132,1331000000,,-0.00726601929745,-0.0179253898282,1.20620260824,0.0,0.0,0.0
1342000000,133,1342000000,,0.00405741465672,0.0153934019618,1.2349874003,0.0,0.0,0.0
1352000000,134,1352000000,,-0.0382358047326,0.0168917074761,1.22295203908,0.0,0.0,0.0
1361000000,135,1361000000,,0.0139591175335,-0.0366653530762,1.20072817192,0.0,0.0,0.0
1372000000,136,1372000000,,0.00549212801144,-0.0213127562871,1.16792838641,0.0,0.0,0.0
1382000000,137,1382000000,,-0.0154895700641,-0.00578864960209,1.20067509131,0.0,0.0,0.0
1391000000,138,1391000000,,-0.017261638647,0.00462011211902,1.17381416274,0.0,0.0,0.0
1403000000,139,1403000000,,0.0418351696783,0.00728453624847,1.20076750102,0.0,0.0,0.0
1411000000,140,1411000000,,-0.0226158741563,-0.00931910721672,1.1724479145,0.0,0.0,0.0
1421000000,141,1421000000,,-0.00301420913211,-0.0131120271173,1.17720838262,0.0,0.0,0.0
1432000000,142,1432000000,,-0.0171234413638,-0.00365483138722,1.18771055526,0.0,0.0,0.0
1442000000,143,1442000000,,-0.0121650951079,0.0133013407819,1.19429111008,0.0,0.0,0.0
1451000000,144,1451000000,,0.00684612158141,-0.00316588241277,1.17294406588,0.0,0.0,0.0
1461000000,145,1461000000,,0.000663975071666,-0.014730968392,1.15672019399,0.0,0.0,0.0
1471000000,146,1471000000,,-0.0363379311528,0.00505740023846,1.16823226558,0.0,0.0,0.0
1481000000,147,1481000000,,-0.0119443490103,0.0053342805492,1.15833728774,0.0,0.0,0.0
1492000000,148,1492000000,,0.00469781184315,-0.0020275870562,1.18614708452,0.0,0.0,0.0
1503000000,149,1503000000,,-0.0249759347414,0.000466916616625,1.15421442014,0.0,0.0,0.0
1511000000,150,1511000000,,0.0207833314392,-0.0352587271648,1.16829464708,0.0,0.0,0.0
1520000000,151,1520000000,,0.0079999598921,0.00327311994323,1.168311191,0.0,0.0,0.0
1531000000,152,1531000000,,0.00109052196791,0.0569459786628,1.11066796282,0.0,0.0,0.0
1541000000,153,1541000000,,-0.0162434658444,-0.0060675311645,1.16656843721,0.0,0.0,0.0
1551000000,154,1551000000,,-0.024273391831,0.000476280128343,1.17958120697,0.0,0.0,0.0
1561000000,155,1561000000,,0.0192154993308,0.0517102250829,1.15569471285,0.0,0.0,0.0
1577000000,156,1577000000,,0.00835125946849,-0.0278302880169,1.1790397716,0.0,0.0,0.0
1585000000,157,1585000000,,-0.00334534843989,-0.0258622735668,1.16743541349,0.0,0.0,0.0
1593000000,158,1593000000,,-0.00127138993425,-0.0334829515197,1.14831190176,0.0,0.0,0.0
1601000000,159,1601000000,,0.019877485348,-0.0369463444298,1.18549004198,0.0,0.0,0.0
1611000000,160,1611000000,,0.0134026403717,-0.0182605345362,1.12497340337,0.0,0.0,0.0
1621000000,161,1621000000,,-0.0236304067812,-0.0350537412825,1.15824975202,0.0,0.0,0.0
1631000000,162,1631000000,,-0.0316841338153,-0.00246942017531,1.15918600201,0.0,0.0,0.0
1641000000,163,1641000000,,-0.0053985600929,0.00352300805252,1.14315234534,0.0,0.0,0.0
1651000000,164,1651000000,,-0.000447056858118,0.0144820333648,1.13546581245,0.0,0.0,0.0
1661000000,165,1661000000,,0.000323304316047,-0.0244358030938,1.14195274412,0.0,0.0,0.0
1670000000,166,1670000000,,0.0205729783322,-0.00666886834258,1.16832135732,0.0,0.0,0.0
1683000000,167,1683000000,,-0.00901223471865,-0.0147421119669,1.18611797452,0.0,0.0,0.0
1691000000,168,1691000000,,-0.00430345355897,-0.00658541211708,1.16451482624,0.0,0.0,0.0
1701000000,169,1701000000,,0.0110572658403,-0.00761746258816,1.1873860501,0.0,0.0,0.0
1712000000,170,1712000000,,-0.00660224785182,0.0126221626425,1.09995398416,0.0,0.0,0.0
1721000000,171,1721000000,,-0.0128155878711,-0.0300321544693,1.14786817033,0.0,0.0,0.0
1731000000,172,1731000000,,0.0155586745771,-0.0278771293904,1.10266180904,0.0,0.0,0.0
1742000000,173,1742000000,,-0.00540581551733,0.0101123502483,1.12204135569,0.0,0.0,0.0
1751000000,174,1751000000,,-0.0118840328283,0.0121402005713,1.10660704346,0.0,0.0,0.0
1761000000,175,1761000000,,0.0192058606948,0.0170493621539,1.07156309284,0.0,0.0,0.0
1771000000,176,1771000000,,0.0204942253488,0.017947440697,1.11246470007,0.0,0.0,0.0
1781000000,177,1781000000,,-0.0258706600834,0.0580385232312,1.05486758744,0.0,0.0,0.0
1791000000,178,1791000000,,-0.0119382013198,-0.0433729043241,1.06312259589,0.0,0.0,0.0
1802000000,179,1802000000,,0.0277368925068,0.0166869183594,1.02265670744,0.0,0.0,0.0
1812000000,180,1812000000,,0.0335476237279,0.0047594340302,1.0705632077,0.0,0.0,0.0
1822000000,181,1822000000,,-0.018955588086,-0.0286246292064,1.01230805871,0.0,0.0,0.0
1832000000,182,1832000000,,-0.0315619227496,0.00263013499264,1.018981628,0.0,0.0,0.0
1841000000,183,1841000000,,0.0317167249995,0.0236434462509,1.02608046102,0.0,0.0,0.0
1851000000,184,1851000000,,0.00354843289718,0.00968442482784,1.01502030768,0.0,0.0,0.0
1861000000,185,1861000000,,-0.0539738038756,-0.0374008342507,0.959861203301,0.0,0.0,0.0
1871000000,186,1871000000,,-0.0051907052359,0.0273874101351,1.007305696,0.0,0.0,0.0
1881000000,187,1881000000,,-0.00518280413238,0.00794701906997,1.02501437273,0.0,0.0,0.0
1891000000,188,1891000000,,0.0145217210682,-0.00056476229328,0.969606332649,0.0,0.0,0.0
1901000000,189,1901000000,,0.00786944770484,-0.00614403210979,0.94728765244,0.0,0.0,0.0
1912000000,190,1912000000,,-0.0217266876842,-0.0231276413845,0.948964528268,0.0,0.0,0.0
1922000000,191,1922000000,,0.00462501235137,-0.0322216673855,0.926950211712,0.0,0.0,0.0
1931000000,192,1931000000,,-0.0247408076429,0.00975781011011,0.900233332059,0.0,0.0,0.0
1942000000,193,1942000000,,-0.0627507595807,-0.0441610384004,0.853887396613,0.0,0.0,0.0
1952000000,194,1952000000,,-0.023214195774,-0.00619466536195,0.872639384947,0.0,0.0,0.0
1962000000,195,1962000000,,-0.0125854010669,-0.0319534390133,0.855692849299,0.0,0.0,0.0
1971000000,196,1971000000,,-0.00255110291524,-0.0357768592995,0.869001519457,0.0,0.0,0.0
1981000000,197,1981000000,,0.00271398121771,-0.0140666859195,0.823913303277,0.0,0.0,0.0
1992000000,198,1992000000,,0.00636758056426,0.00485617625834,0.80334515993,0.0,0.0,0.0
2002000000,199,2002000000,,0.0252428540736,-0.0055195057434,0.825585193777,0.0,0.0,0.0
2011000000,200,2011000000,,0.0245448065589,-0.0129860196923,0.816272049639,0.0,0.0,0.0
2021000000,201,2021000000,,-0.00855868404556,0.0458629111052,0.80612078237,0.0,0.0,0.0
2032000000,202,2032000000,,-0.00972046380461,0.0424503245392,0.753072285144,0.0,0.0,0.0
2041000000,203,2041000000,,0.0124397634843,0.00739644926169,0.771221681622,0.0,0.0,0.0
2051000000,204,2051000000,,-0.0269010647151,-0.012549626513,0.750831803403,0.0,0.0,0.0
2062000000,205,2062000000,,-0.0048283753169,-0.0357068904505,0.762503646217,0.0,0.0,0.0
2071000000,206,2071000000,,-0.00128260459614,-0.0232459799696,0.778766550639,0.0,0.0,0.0
2081000000,207,2081000000,,0.0279342631247,0.00111180273839,0.753019479631,0.0,0.0,0.0
2092000000,208,2092000000,,0.0251758566127,-0.0143909451332,0.702338988666,0.0,0.0,0.0
2101000000,209,2101000000,,-0.0187604650339,0.0187868465317,0.733355308766,0.0,0.0,0.0
2112000000,210,2112000000,,0.0384288682226,-0.0170348106627,0.761432522427,0.0,0.0,0.0
2121000000,211,2121000000,,0.0395392014227,-0.0218693362,0.720210718148,0.0,0.0,0.0
2132000000,212,2132000000,,-0.0214782878279,-0.0302185473093,0.738032546304,0.0,0.0,0.0
2141000000,213,2141000000,,-0.00717904106144,-0.0194481883097,0.689520454584,0.0,0.0,0.0
2153000000,214,2153000000,,-0.0353500961563,0.0141333497536,0.68648781098,0.0,0.0,0.0
2161000000,215,2161000000,,0.0104009076062,0.0223425630839,0.673447487814,0.0,0.0,0.0
2171000000,216,2171000000,,0.0104125649612,0.0142617976496,0.674769958815,0.0,0.0,0.0
2181000000,217,2181000000,,0.0119431078478,0.0339595811595,0.664242820265,0.0,0.0,0.0
2199000000,218,2199000000,,-0.0183271999884,0.00127948212591,0.625103884988,0.0,0.0,0.0
2208000000,219,2208000000,,-0.016985261085,0.00419214994226,0.607816509748,0.0,0.0,0.0
2215000000,220,2215000000,,-0.0444939019114,-0.0345401741489,0.633845169675,0.0,0.0,0.0
2222000000,221,2222000000,,-0.0064104214154,-0.0179820006105,0.648501877381,0.0,0.0,0.0
2237000000,222,2237000000,,-0.00356227508445,-0.0307018135322,0.600116770279,0.0,0.0,0.0
2244000000,223,2244000000,,-0.0575563189219,-0.004109953032,0.633597679868,0.0,0.0,0.0
2251000000,224,2251000000,,-0.0424691069518,-0.0233790828655,0.622348992239,0.0,0.0,0.0
2262000000,225,2262000000,,-0.0234196516407,-0.0277644525647,0.61282240325,0.0,0.0,0.0
2272000000,226,2272000000,,-0.0214641537427,-0.0293932692729,0.583365752778,0.0,0.0,0.0
2281000000,227,2281000000,,0.0171364278416,-0.0100932042024,0.555924228287,0.0,0.0,0.0
2291000000,228,2291000000,,-0.00540961871999,0.0278220102518,0.613821017971,0.0,0.0,0.0
2301000000,229,2301000000,,0.019945393438,0.0522507264919,0.615654568918,0.0,0.0,0.0
2312000000,230,2312000000,,0.0196645382597,-0.0414175483594,0.58226164844,0.0,0.0,0.0
2321000000,231,2321000000,,0.0172168594483,0.00236183177547,0.598661625555,0.0,0.0,0.0
2331000000,232,2331000000,,0.0156531795077,0.039157989454,0.592123056172,0.0,0.0,0.0
2342000000,233,2342000000,,-0.00329274479284,0.0183640018586,0.582913168386,0.0,0.0,0.0
2351000000,234,2351000000,,-0.0082837132324,-0.0206460889295,0.568925443064,0.0,0.0,0.0
2363000000,235,2363000000,,0.0155855528091,-0.0163551758923,0.572890200502,0.0,0.0,0.0
2374000000,236,2374000000,,-0.00584857563639,0.0274618771164,0.586574433214,0.0,0.0,0.0
2382000000,237,2382000000,,-0.000433640401572,0.00412900163998,0.560232191233,0.0,0.0,0.0
2391000000,238,2391000000,,-0.00905137032332,0.0172655232324,0.525325653462,0.0,0.0,0.0
2401000000,239,2401000000,,-0.0150559444309,0.0028141052845,0.598014074421,0.0,0.0,0.0
2411000000,240,2411000000,,-0.00124641389785,-0.0142520102895,0.544528847454,0.0,0.0,0.0
2420000000,241,2420000000,,0.0107174002322,-0.00722669798159,0.522968347543,0.0,0.0,0.0
2430000000,242,2430000000,,-0.0395716853188,-0.0238007676393,0.561010002675,0.0,0.0,0.0
2443000000,243,2443000000,,-0.0153599142676,0.0107706315324,0.50974423411,0.0,0.0,0.0
2452000000,244,2452000000,,0.0334338433119,0.0223240706669,0.497158364542,0.0,0.0,0.0
2463000000,245,2463000000,,-0.015302973741,-0.00387877313164,0.530923307136,0.0,0.0,0.0
2472000000,246,2472000000,,0.0146117745404,-0.0233925943592,0.499616698811,0.0,0.0,0.0
2482000000,247,2482000000,,-0.0244861758253,0.0105021353099,0.472561284706,0.0,0.0,0.0
2491000000,248,2491000000,,-0.0223220346344,-0.00850342715647,0.481282512987,0.0,0.0,0.0
2502000000,249,2502000000,,-0.00888561212176,0.0227740320233,0.471263154972,0.0,0.0,0.0
2511000000,250,2511000000,,0.00624566708983,0.00194433632755,0.431223390138,0.0,0.0,0.0
2521000000,251,2521000000,,0.0185461141941,-0.00935977719315,0.460596221244,0.0,0.0,0.0
2531000000,252,2531000000,,0.0313961412428,-0.0182270315874,0.446895102018,0.0,0.0,0.0
2543000000,253,2543000000,,0.0175403469962,-0.0234580004625,0.447132840321,0.0,0.0,0.0
2551000000,254,2551000000,,0.00236767367142,-0.0270409899422,0.45225315535,0.0,0.0,0.0
2561000000,255,2561000000,,0.00205955863524,0.0186935448226,0.385723345255,0.0,0.0,0.0
2571000000,256,2571000000,,-0.00459541819995,0.00330610402155,0.414074022454,0.0,0.0,0.0
2583000000,257,2583000000,,-0.00356991995374,-0.0113439713975,0.411756035505,0.0,0.0,0.0
2591000000,258,2591000000,,-0.0273981919724,-0.00911513579416,0.400233422878,0.0,0.0,0.0
2617000000,259,2617000000,,-0.0102351569386,-0.0263185428961,0.426760248293,0.0,0.0,0.0
2617000000,260,2617000000,,-0.0056623617168,0.00437906553146,0.39782117666,0.0,0.0,0.0
2621000000,261,2621000000,,-0.00621974170957,0.00105843992032,0.401614989526,0.0,0.0,0.0
2632000000,262,2632000000,,-0.0327783110774,0.038504408248,0.419430383187,0.0,0.0,0.0
2642000000,263,2642000000,,-0.00763920151795,0.00668493389334,0.390307045158,0.0,0.0,0.0
2654000000,264,2654000000,,0.0211664061542,0.0100146824929,0.349554155094,0.0,0.0,0.0
2654000000,265,2654000000,,-0.057760293881,0.00653206901826,0.365655163429,0.0,0.0,0.0
2674000000,266,2674000000,,0.0119321246769,-0.0444005285631,0.334278176315,0.0,0.0,0.0
2681000000,267,2681000000,,0.0065669761588,-0.0157412098673,0.342708386792,0.0,0.0,0.0
2691000000,268,2691000000,,0.0181582004116,-0.00841487204186,0.337338984688,0.0,0.0,0.0
2702000000,269,2702000000,,-0.000192988698055,-0.00436496800802,0.335053076756,0.0,0.0,0.0
2711000000,270,2711000000,,-0.0308382880517,0.00451215950084,0.328427781492,0.0,0.0,0.0
2721000000,271,2721000000,,0.010122938964,0.0659180497786,0.346665048346,0.0,0.0,0.0
2731000000,272,2731000000,,-0.0371563127156,-0.0233437655914,0.313510721654,0.0,0.0,0.0
2741000000,273,2741000000,,-0.00041357813404,-0.00577291834695,0.317907107359,0.0,0.0,0.0
2751000000,274,2751000000,,-0.00636000951273,0.00485393023241,0.32965422116,0.0,0.0,0.0
2767000000,275,2767000000,,-0.00335478987082,0.00803743615776,0.297448052029,0.0,0.0,0.0
2778000000,276,2778000000,,0.0285174385382,0.00559140300115,0.314931533679,0.0,0.0,0.0
2792000000,278,2792000000,,-0.00281059291139,0.026758390215,0.296914934633,0.0,0.0,0.0
2802000000,279,2802000000,,-0.0302923847115,0.0195403431276,0.268774835641,0.0,0.0,0.0
2811000000,280,2811000000,,-0.00687142937569,-0.0200719819851,0.28983051808,0.0,0.0,0.0
2821000000,281,2821000000,,0.00185194511999,-0.0139562745338,0.306988775831,0.0,0.0,0.0
2832000000,282,2832000000,,0.00821659748828,-0.0189821522493,0.299146348434,0.0,0.0,0.0
2842000000,283,2842000000,,-0.00462698554146,-0.00617412067433,0.298118994233,0.0,0.0,0.0
2851000000,284,2851000000,,-0.00441738953825,0.0212501967352,0.306628658765,0.0,0.0,0.0
2862000000,285,2862000000,,0.00622630661996,0.00232351443617,0.278330191661,0.0,0.0,0.0
2872000000,286,2872000000,,0.00980672169043,0.0118133185752,0.281442548341,0.0,0.0,0.0
2882000000,287,2882000000,,-0.0109085567023,0.0302312078745,0.262274946415,0.0,0.0,0.0
2891000000,288,2891000000,,0.00666004756811,0.0132837117009,0.259899619212,0.0,0.0,0.0
2901000000,289,2901000000,,0.0339016683792,0.00231604148955,0.231184602856,0.0,0.0,0.0
2911000000,290,2911000000,,0.00150877428683,-0.0169404175271,0.279971726557,0.0,0.0,0.0
2921000000,291,2921000000,,0.00471224322688,-0.032482029998,0.228078879589,0.0,0.0,0.0
2932000000,292,2932000000,,-0.00119396370732,0.00898536527831,0.287659699142,0.0,0.0,0.0
2942000000,293,2942000000,,0.0113691390723,0.0269341510227,0.258368449256,0.0,0.0,0.0
2952000000,294,2952000000,,-0.0210964362831,-0.033781501688,0.258544906586,0.0,0.0,0.0
2961000000,295,2961000000,,-0.0186957447063,-0.0136295820757,0.240455979943,0.0,0.0,0.0
2971000000,296,2971000000,,0.000215423578454,-0.00887677878558,0.259298681208,0.0,0.0,0.0
2981000000,297,2981000000,,0.00739404474481,-0.0159438090763,0.243685962252,0.0,0.0,0.0
2991000000,298,2991000000,,0.0222662201707,0.000776969585205,0.26479683525,0.0,0.0,0.0
3001000000,299,3001000000,,-0.00694271155379,0.00737354252222,0.237293358495,0.0,0.0,0.0
3011000000,300,3011000000,,-0.00431319554008,0.0145752161449,0.268217750488,0.0,0.0,0.0
3021000000,301,3021000000,,0.0152568840296,0.0120889398962,0.235180482721,0.0,0.0,0.0
3031000000,302,3031000000,,0.0346767297224,-0.015374836284,0.244658431741,0.0,0.0,0.0
3041000000,303,3041000000,,0.0287799879071,0.019651011927,0.203790863769,0.0,0.0,0.0
3052000000,304,3052000000,,-0.0153203328019,-0.0174498000506,0.243176666646,0.0,0.0,0.0
3062000000,305,3062000000,,0.0100415527969,0.020688655674,0.228327482197,0.0,0.0,0.0
3071000000,306,3071000000,,-0.0090005528859,-0.0157703350059,0.265697479407,0.0,0.0,0.0
3084000000,307,3084000000,,-0.0240997407951,0.00969438710916,0.221796040606,0.0,0.0,0.0
3093000000,308,3093000000,,-0.0135896440409,-0.0120737355559,0.235824435589,0.0,0.0,0.0
3101000000,309,3101000000,,0.0184597842017,0.0121954437633,0.26373668938,0.0,0.0,0.0
3114000000,310,3114000000,,0.00586189961646,0.00898982189866,0.20937069455,0.0,0.0,0.0
3123000000,311,3123000000,,0.0038229548458,-0.0392850515938,0.200862671261,0.0,0.0,0.0
3131000000,312,3131000000,,-0.0430868886746,-0.00601558903003,0.242084194982,0.0,0.0,0.0
3141000000,313,3141000000,,0.0174305921268,0.0278912614426,0.223864351368,0.0,0.0,0.0
3151000000,314,3151000000,,-0.00877979139537,-0.0445322965035,0.214856440917,0.0,0.0,0.0
3160000000,315,3160000000,,-0.00746453256229,0.0123149711701,0.189750344719,0.0,0.0,0.0
3171000000,316,3171000000,,-0.0304611293716,0.00690499751091,0.203847804556,0.0,0.0,0.0
3181000000,317,3181000000,,-0.0209525496878,0.0335510384683,0.20184585431,0.0,0.0,0.0
3191000000,318,3191000000,,-0.0089371722101,0.0204009664752,0.164801493914,0.0,0.0,0.0
3201000000,319,3201000000,,-0.0123921420373,-0.010865485512,0.228120542815,0.0,0.0,0.0
3212000000,320,3212000000,,-0.0120754750801,0.0244304568683,0.154347268227,0.0,0.0,0.0
3221000000,321,3221000000,,-0.00971075397976,0.0231777428446,0.219235772641,0.0,0.0,0.0
3231000000,322,3231000000,,-0.0124801132653,0.0110695944011,0.209139063456,0.0,0.0,0.0
3242000000,323,3242000000,,-0.00879923429948,-7.95664514076e-05,0.178381628437,0.0,0.0,0.0
3251000000,324,3251000000,,-0.0330460859242,-0.00150480866397,0.17554706654,0.0,0.0,0.0
3261000000,325,3261000000,,-0.0470877121653,-0.00711727712935,0.183405228641,0.0,0.0,0.0
3271000000,326,3271000000,,0.0129450714215,0.0220943694709,0.182572195808,0.0,0.0,0.0
3280000000,327,3280000000,,-0.0267507146582,-0.0194770763353,0.162026597683,0.0,0.0,0.0
3291000000,328,3291000000,,0.00646987931513,0.0115069653736,0.181834096914,0.0,0.0,0.0
3301000000,329,3301000000,,-0.0258969847087,-0.0261444559088,0.130401146204,0.0,0.0,0.0
3317000000,330,3317000000,,0.0172428247438,0.00421116226782,0.174901877226,0.0,0.0,0.0
3328000000,331,3328000000,,-0.00665026590942,0.0279755207541,0.152314005961,0.0,0.0,0.0
3340000000,332,3340000000,,0.01797171065,0.00659185749433,0.149654909648,0.0,0.0,0.0
3345000000,333,3345000000,,-0.00418042144323,-0.0172392819259,0.168880187162,0.0,0.0,0.0
3351000000,334,3351000000,,0.0155807638917,-0.0168953455459,0.169363622735,0.0,0.0,0.0
3362000000,335,3362000000,,0.0138034282554,-0.0242617833141,0.180426137356,0.0,0.0,0.0
3372000000,336,3372000000,,-0.0326500587689,0.0348193253216,0.177234011818,0.0,0.0,0.0
3382000000,337,3382000000,,0.0195677072281,0.0268534898213,0.118326029408,0.0,0.0,0.0
3391000000,338,3391000000,,-0.00969640429902,-0.02692773673,0.187647322778,0.0,0.0,0.0
3404000000,339,3404000000,,0.01475359754,-0.0144015046496,0.188100436556,0.0,0.0,0.0
3411000000,340,3411000000,,0.00930198691021,-0.0174981801477,0.134654990077,0.0,0.0,0.0
3421000000,341,3421000000,,0.000257516040299,0.0376244186035,0.174712915793,0.0,0.0,0.0
3432000000,342,3432000000,,-0.0513302833773,0.0050193895055,0.141959450766,0.0,0.0,0.0
3443000000,343,3443000000,,0.00931036071728,0.0101809070726,0.173369405993,0.0,0.0,0.0
3455000000,344,3455000000,,-0.0118265909118,-0.0125558683946,0.170649633869,0.0,0.0,0.0
3463000000,345,3463000000,,0.00543149101404,-0.0385560173059,0.158079154663,0.0,0.0,0.0
3472000000,346,3472000000,,-0.0127444867242,0.015036065138,0.140980339647,0.0,0.0,0.0
3482000000,347,3482000000,,-0.0263704873471,0.0391848658264,0.150816139282,0.0,0.0,0.0
3492000000,348,3492000000,,0.0131416256879,-0.0289444681994,0.119697615119,0.0,0.0,0.0
3502000000,349,3502000000,,-0.0101016345571,0.00784990042627,0.137227078666,0.0,0.0,0.0
3512000000,350,3512000000,,0.00649379042736,-0.00201057224741,0.13528546638,0.0,0.0,0.0
3522000000,351,3522000000,,0.0132499154774,0.0370457772346,0.151355006721,0.0,0.0,0.0
3531000000,352,3531000000,,0.0315539733196,0.0458955605575,0.10749994346,0.0,0.0,0.0
3541000000,353,3541000000,,-0.0196966893179,0.0132651636772,0.139239000054,0.0,0.0,0.0
3551000000,354,3551000000,,0.00229798120092,0.0333655078365,0.139333605646,0.0,0.0,0.0
3562000000,355,3562000000,,-0.0199151248779,-0.00543785195535,0.108212806249,0.0,0.0,0.0
3572000000,356,3572000000,,-0.0611545611411,0.00944054505149,0.142281945515,0.0,0.0,0.0
3583000000,357,3583000000,,-0.0148297964785,-0.0141742061608,0.129928452217,0.0,0.0,0.0
3593000000,358,3593000000,,0.000434088974364,0.0273529132261,0.098308019224,0.0,0.0,0.0
3603000000,359,3603000000,,0.00778247843058,-0.00645989975442,0.0813659316461,0.0,0.0,0.0
3611000000,360,3611000000,,-0.00252885837325,-0.0476872497989,0.117081369682,0.0,0.0,0.0
3622000000,361,3622000000,,0.0205537843671,-0.011682022304,0.090333039317,0.0,0.0,0.0
3631000000,362,3631000000,,-0.0456645909231,-0.0086841886354,0.0712427083281,0.0,0.0,0.0
3643000000,363,3643000000,,-0.044068315557,0.0202563858521,0.133080376447,0.0,0.0,0.0
3651000000,364,3651000000,,0.0373008155762,0.0263216323562,0.107469516135,0.0,0.0,0.0
3661000000,365,3661000000,,-0.00105215027243,-0.00943480854478,0.108080448643,0.0,0.0,0.0
3671000000,366,3671000000,,0.00750787810899,-0.001253031333,0.1197340552,0.0,0.0,0.0
3681000000,367,3681000000,,0.0254925954516,0.0409225083683,0.0960046766971,0.0,0.0,0.0
3691000000,368,3691000000,,0.0237214021975,0.0127189789966,0.118886302003,0.0,0.0,0.0
3701000000,369,3701000000,,-0.0348481103926,-0.012326515959,0.0932645066025,0.0,0.0,0.0
3712000000,370,3712000000,,-0.00527201606564,-0.0354696887759,0.0901235430477,0.0,0.0,0.0
3722000000,371,3722000000,,-0.00119784609891,-0.00412277546864,0.135403914306,0.0,0.0,0.0
3735000000,372,3735000000,,0.0100368059975,0.0134428788907,0.130136122924,0.0,0.0,0.0
3742000000,373,3742000000,,0.036714974175,0.026452206144,0.105978874953,0.0,0.0,0.0
3751000000,374,3751000000,,-0.0203211242835,-0.0182453800074,0.0836910368893,0.0,0.0,0.0
3762000000,375,3762000000,,0.00492123260959,-0.0416560985215,0.0740096133794,0.0,0.0,0.0
3771000000,376,3771000000,,-0.0288610194384,-0.0163327011521,0.0534880889027,0.0,0.0,0.0
3782000000,377,3782000000,,0.017834250476,-0.0169586715439,0.0850609501882,0.0,0.0,0.0
3791000000,378,3791000000,,-0.0286674382491,-0.0124508163724,0.0994273153754,0.0,0.0,0.0
3801000000,379,3801000000,,-0.00540006967351,0.00773024046859,0.0699154217432,0.0,0.0,0.0
3811000000,380,3811000000,,-0.00385374060378,0.0306712178204,0.113810960175,0.0,0.0,0.0
3821000000,381,3821000000,,0.000581775385044,0.01469321727,0.0771698042853,0.0,0.0,0.0
3832000000,382,3832000000,,0.00805061139632,0.0195588488355,0.0930685566643,0.0,0.0,0.0
3841000000,383,3841000000,,-0.0315491706056,-0.0312172943518,0.0870797926066,0.0,0.0,0.0
3851000000,384,3851000000,,0.0341276022419,-0.0243081335293,0.0721784826677,0.0,0.0,0.0
3861000000,385,3861000000,,-0.0188273605369,0.00267589508303,0.0743617363315,0.0,0.0,0.0
3871000000,386,3871000000,,-0.00651875048456,-0.00776663161907,0.0818896238985,0.0,0.0,0.0
3881000000,387,3881000000,,0.00874865632239,-0.000665609609187,0.0890950427542,0.0,0.0,0.0
3891000000,388,3891000000,,-0.00200285975358,0.00675762210751,0.0916921650025,0.0,0.0,0.0
3901000000,389,3901000000,,-0.0183313164523,-0.00281804689548,0.0953497868803,0.0,0.0,0.0
3911000000,390,3911000000,,-0.0165635644061,-0.0103156071884,0.0926646980341,0.0,0.0,0.0
3921000000,391,3921000000,,-0.0148177124893,0.0303036861826,0.0974593767806,0.0,0.0,0.0
3931000000,392,3931000000,,0.00489177039203,0.00365196032352,0.0833780867161,0.0,0.0,0.0
3941000000,393,3941000000,,0.0204476510239,0.0231004653073,0.0786363906259,0.0,0.0,0.0
3951000000,394,3951000000,,0.0140723619401,-0.0188367174814,0.0636334781933,0.0,0.0,0.0
3962000000,395,3962000000,,-0.017080552459,-0.0226403285765,0.0843045511789,0.0,0.0,0.0
3971000000,396,3971000000,,-0.0165167847747,-0.0256680892063,0.0954890798189,0.0,0.0,0.0
3981000000,397,3981000000,,-0.0204685412283,-0.0324857679251,0.0666187432436,0.0,0.0,0.0
3992000000,398,3992000000,,0.0248696883597,-0.0320976049644,0.0461238557399,0.0,0.0,0.0
4002000000,399,4002000000,,0.0239514785775,0.019042208864,0.0945809742635,0.0,0.0,0.0
4011000000,400,4011000000,,-0.0134757418928,0.0316563694699,0.0208023566093,0.0,0.0,0.0
4022000000,401,4022000000,,0.0333449430005,-0.0148838453791,0.100602897434,0.0,0.0,0.0
4032000000,402,4032000000,,0.0191647198437,-0.0038636957699,0.0594438808418,0.0,0.0,0.0
4042000000,403,4042000000,,0.00831324410684,-0.0339943759696,0.0556733507898,0.0,0.0,0.0
4052000000,404,4052000000,,0.00671088392147,0.0102300388851,0.0311177802981,0.0,0.0,0.0
4061000000,405,4061000000,,0.0108339040184,-0.01650682678,0.071051858004,0.0,0.0,0.0
4071000000,406,4071000000,,0.0294183751167,0.00174246321189,0.0728172378029,0.0,0.0,0.0
4082000000,407,4082000000,,0.0502578433477,-0.0277688165635,0.054397390276,0.0,0.0,0.0
4091000000,408,4091000000,,0.0144504150753,-0.0368177472707,0.0658009897164,0.0,0.0,0.0
4101000000,409,4101000000,,0.0137771606123,-0.0209126577945,0.0795278274547,0.0,0.0,0.0
4111000000,410,4111000000,,-0.033314964919,-0.00432970752357,0.0451305289446,0.0,0.0,0.0
4121000000,411,4121000000,,0.00512903293846,0.00427503813228,0.0378433673026,0.0,0.0,0.0
4132000000,412,4132000000,,0.001232791532,-0.00120200350796,0.0845330338964,0.0,0.0,0.0
4142000000,413,4142000000,,-0.00105590136628,0.0308658384481,0.0268726754944,0.0,0.0,0.0
4151000000,414,4151000000,,0.00824168796266,-0.0156449079257,0.0105715689548,0.0,0.0,0.0
4162000000,415,4162000000,,0.00567184157581,-0.000158243892733,0.081994940067,0.0,0.0,0.0
4171000000,416,4171000000,,-0.01425192393,-0.00335445422529,0.0528185449518,0.0,0.0,0.0
4182000000,417,4182000000,,-0.00148323013889,-0.00690109539205,0.0574531693386,0.0,0.0,0.0
4191000000,418,4191000000,,-0.00114805561566,-0.0267086796098,0.0284100095583,0.0,0.0,0.0
4201000000,419,4201000000,,0.0117588617298,0.0121648119572,0.0292023298807,0.0,0.0,0.0
4212000000,420,4212000000,,0.015268942475,0.0112201008802,0.0514936894724,0.0,0.0,0.0
4221000000,421,4221000000,,0.00520990271696,-0.00416624533603,0.04936796632,0.0,0.0,0.0
4231000000,422,4231000000,,-0.0290758486727,-0.01219912159,0.0216241929824,0.0,0.0,0.0
4241000000,423,4241000000,,-0.0051294175365,-0.00715116869566,0.055780103101,0.0,0.0,0.0
4251000000,424,4251000000,,6.0572546042e-05,-0.00904284060822,-0.0119753848544,0.0,0.0,0.0
4261000000,425,4261000000,,0.0214231779515,0.0109487484595,0.0378020515719,0.0,0.0,0.0
4271000000,426,4271000000,,-0.0143423907053,-0.0204784191114,0.0324927588099,0.0,0.0,0.0
4281000000,427,4281000000,,-0.0514931204506,0.0366227328944,0.0272265307421,0.0,0.0,0.0
4291000000,428,4291000000,,0.0227734829081,-0.0070824023243,0.0116272995833,0.0,0.0,0.0
4301000000,429,4301000000,,0.0132081819401,0.0238307324919,0.0300948428636,0.0,0.0,0.0
4311000000,430,4311000000,,-0.0441928782561,-0.0190153988485,0.0350670669406,0.0,0.0,0.0
4329000000,431,4329000000,,0.00205507402463,-0.0117783554904,0.0146864680496,0.0,0.0,0.0
4331000000,432,4331000000,,-0.0182908751865,-0.0267775966906,0.0253584137894,0.0,0.0,0.0
4343000000,433,4343000000,,-0.00118754938631,-0.015922932853,0.00558908732548,0.0,0.0,0.0
4351000000,434,4351000000,,0.0134952052342,-0.0137815360352,0.0318916177992,0.0,0.0,0.0
4361000000,435,4361000000,,-0.0277252731288,-0.0182416278513,0.0461629715719,0.0,0.0,0.0
4373000000,436,4373000000,,-0.0210316801902,-0.01121636766,0.0392582798465,0.0,0.0,0.0
4385000000,437,4385000000,,0.0519634424444,0.0145451794122,0.026524342312,0.0,0.0,0.0
4391000000,438,4391000000,,-0.0402576901187,-0.0169370469479,0.0486356221207,0.0,0.0,0.0
4401000000,439,4401000000,,0.020041549001,-0.0204531646033,0.00720232872525,0.0,0.0,0.0
4412000000,440,4412000000,,0.0209994380683,-0.00121962709137,-0.00663717284804,0.0,0.0,0.0
4421000000,441,4421000000,,-0.0131397073156,-0.00126010039035,0.020731535084,0.0,0.0,0.0
4432000000,442,4432000000,,0.0241350247982,0.0184324618031,0.0027838713688,0.0,0.0,0.0
4440000000,443,4440000000,,0.00698470416355,0.00197655529296,0.0285964624932,0.0,0.0,0.0
4451000000,444,4451000000,,-0.0249251328901,0.0301883036291,0.0233989215045,0.0,0.0,0.0
4461000000,445,4461000000,,-0.0041783075259,0.000503648017094,0.0469309286771,0.0,0.0,0.0
4471000000,446,4471000000,,0.0189249376636,0.0227215820896,0.0423238154943,0.0,0.0,0.0
4480000000,447,4480000000,,0.0375690908659,-0.00642301847833,0.0337020289148,0.0,0.0,0.0
4491000000,448,4491000000,,-0.00994794604513,0.00466074464443,0.0096201655336,0.0,0.0,0.0
4502000000,449,4502000000,,0.012479676221,-0.0155524496441,0.0443702966748,0.0,0.0,0.0
4511000000,450,4511000000,,0.0089848404038,0.00567367467577,0.0160088264599,0.0,0.0,0.0
4521000000,451,4521000000,,0.032522134401,-0.00586495881387,0.0249886352296,0.0,0.0,0.0
4531000000,452,4531000000,,-1.33793116037e-05,-0.0218881271202,0.011981603472,0.0,0.0,0.0
4541000000,453,4541000000,,0.00567293644918,-0.0146554781208,0.0152656511628,0.0,0.0,0.0
4551000000,454,4551000000,,-0.00742733860692,-0.0397611882094,0.0500680660872,0.0,0.0,0.0
4561000000,455,4561000000,,-0.0227725824414,-0.00399151055496,0.0455257685524,0.0,0.0,0.0
4571000000,456,4571000000,,0.0151937835142,0.00753438300335,0.0173259940745,0.0,0.0,0.0
4581000000,457,4581000000,,0.00174437989545,-0.00583264393654,0.0267701368653,0.0,0.0,0.0
4591000000,458,4591000000,,0.01284499835,-0.00659932928932,0.0806429132797,0.0,0.0,0.0
4610000000,459,4610000000,,0.0185790585192,0.00626420078176,-0.015613248644,0.0,0.0,0.0
4622000000,461,4622000000,,-0.0203623003791,-0.0188236431264,0.00901489967359,0.0,0.0,0.0
4632000000,462,4632000000,,-0.00652515864752,-0.0137528126274,-0.00535249341819,0.0,0.0,0.0
4644000000,463,4644000000,,0.0127593946497,-0.0407144252541,0.0158989258104,0.0,0.0,0.0
4651000000,464,4651000000,,0.0022004862227,-0.0293173992876,0.0110421246959,0.0,0.0,0.0
4662000000,465,4662000000,,-0.0147144749875,-0.00188902537397,0.0210673439377,0.0,0.0,0.0
4671000000,466,4671000000,,0.0165177055853,-0.0486289231043,-0.00215981581177,0.0,0.0,0.0
4681000000,467,4681000000,,0.0136560489091,0.00632539628826,0.00925308166191,0.0,0.0,0.0
4701000000,468,4701000000,,-0.00774292568592,-0.0106961899149,0.0313651364962,0.0,0.0,0.0
4701000000,469,4701000000,,-0.0140690647122,-0.025172044619,0.0356727470609,0.0,0.0,0.0
4713000000,470,4713000000,,0.0080246437587,0.00626337117008,0.0107564003243,0.0,0.0,0.0
4722000000,471,4722000000,,0.0055451551779,0.000833378057182,0.00949003636131,0.0,0.0,0.0
4732000000,472,4732000000,,0.0141198891182,-0.00950462657716,0.0159290895204,0.0,0.0,0.0
4741000000,473,4741000000,,-0.0233057396298,-0.0395037246555,0.0221204487822,0.0,0.0,0.0
4751000000,474,4751000000,,-0.0234834471023,-0.0261700934974,0.0378073479031,0.0,0.0,0.0
4760000000,475,4760000000,,0.0115686844631,0.011004120967,0.0133658428627,0.0,0.0,0.0
4771000000,476,4771000000,,0.0237450197223,0.023184671843,-0.0283653937122,0.0,0.0,0.0
4781000000,477,4781000000,,-0.0217482747251,0.0268764585824,0.000328638222156,0.0,0.0,0.0
4791000000,478,4791000000,,0.0119910629551,0.0236089731065,-0.0290311443043,0.0,0.0,0.0
4800000000,479,4800000000,,-0.00838617762001,0.00296461469305,0.00480008374641,0.0,0.0,0.0
4811000000,480,4811000000,,-0.0245740449529,-0.0206091391323,0.0207098859969,0.0,0.0,0.0
4821000000,481,4821000000,,0.0110153937804,-0.0135311554672,0.00169692648058,0.0,0.0,0.0
4831000000,482,4831000000,,0.00207931983044,0.0322225822639,0.00236227181372,0.0,0.0,0.0
4841000000,483,4841000000,,0.0125472841418,-0.00876765897842,0.0306220192905,0.0,0.0,0.0
4851000000,484,4851000000,,0.00720549073593,0.00602771826794,-0.00518402849583,0.0,0.0,0.0
4862000000,485,4862000000,,0.0125621265803,0.0611125011115,0.00923269025946,0.0,0.0,0.0
4872000000,486,4872000000,,0.0168831067845,-0.0224988620744,-0.0067278997371,0.0,0.0,0.0
4882000000,487,4882000000,,-0.0352669627695,-0.030521834355,-0.0182081599853,0.0,0.0,0.0
4892000000,488,4892000000,,0.00971298196948,-0.0114809170789,0.0479675711679,0.0,0.0,0.0
4902000000,489,4902000000,,-0.0348113128459,-0.024327020859,0.0408539029546,0.0,0.0,0.0
4911000000,490,4911000000,,0.0182695196636,0.00840860194772,0.0301208779139,0.0,0.0,0.0
4921000000,491,4921000000,,-0.0208757350943,0.00559904406516,0.0170450720578,0.0,0.0,0.0
4931000000,492,4931000000,,0.0228889311247,-0.0116645533835,0.028234693813,0.0,0.0,0.0
4942000000,493,4942000000,,0.00809423485612,-0.0134741305582,-0.00943932492542,0.0,0.0,0.0
4951000000,494,4951000000,,-0.0216571097354,0.00113672150235,0.00717934030383,0.0,0.0,0.0
4962000000,495,4962000000,,0.0128505770671,-0.0129183321023,0.0182061031401,0.0,0.0,0.0
4972000000,496,4972000000,,0.0020153860371,0.0136744250427,-0.0146075623716,0.0,0.0,0.0
4982000000,497,4982000000,,-0.0441542616778,-0.0405003080831,0.011290235277,0.0,0.0,0.0
4991000000,498,4991000000,,-0.0141802237561,-0.00336447447113,0.0214667793824,0.0,0.0,0.0
5002000000,499,5002000000,,-0.00726561613212,-0.0145519601198,0.0408747292811,0.0,0.0,0.0
5012000000,500,5012000000,,-0.0106238400642,0.00550293813828,0.0400479489873,0.0,0.0,0.0
5021000000,501,5021000000,,-0.01780735037,-0.0276939012019,-0.00728028978117,0.0,0.0,0.0
5031000000,502,5031000000,,0.00261466743922,-0.053373073308,0.0391892385397,0.0,0.0,0.0
5040000000,503,5040000000,,-0.0270026378417,-0.0404456406466,0.0424682534595,0.0,0.0,0.0
5051000000,504,5051000000,,-0.0123115434392,0.00583943815308,-0.00731691308727,0.0,0.0,0.0
5061000000,505,5061000000,,-0.00838987617435,-0.000442253225652,0.00167499771308,0.0,0.0,0.0
5071000000,506,5071000000,,-0.0256122309485,0.0146096455128,-0.0166172071163,0.0,0.0,0.0
5080000000,507,5080000000,,-0.000898089074784,0.0290497870872,0.00162566461894,0.0,0.0,0.0
5091000000,508,5091000000,,0.00428745868651,-0.0249383840433,0.0177947799437,0.0,0.0,0.0
5102000000,509,5102000000,,-0.00656295811967,0.00164257455285,-0.00259727704428,0.0,0.0,0.0
5111000000,510,5111000000,,0.0307990062821,0.0343647842445,-0.00322890596187,0.0,0.0,0.0
5121000000,511,5121000000,,-0.00206105850896,0.00879202863392,0.01897960623,0.0,0.0,0.0
5131000000,512,5131000000,,0.0167707387326,-0.022574209684,0.0259180603279,0.0,0.0,0.0
5141000000,513,5141000000,,0.00587504862236,-0.0037421429271,-0.008242040986,0.0,0.0,0.0
5151000000,514,5151000000,,0.0285440788104,-0.00699553708559,-0.0143853562892,0.0,0.0,0.0
5161000000,515,5161000000,,0.0111348579797,-0.00914439997401,-0.0204198737347,0.0,0.0,0.0
5171000000,516,5171000000,,0.025054604525,-0.00465439449537,0.0147636878713,0.0,0.0,0.0
5181000000,517,5181000000,,-0.0159914776438,0.0136584123257,0.0112945855612,0.0,0.0,0.0
5192000000,518,5192000000,,0.03731361334,-0.0177012048228,0.00684634979432,0.0,0.0,0.0
5201000000,519,5201000000,,0.0100657387961,0.0264491625687,0.0032554448156,0.0,0.0,0.0
5211000000,520,5211000000,,-0.00447297521908,-0.0580122596202,-0.0028072447419,0.0,0.0,0.0
5221000000,521,5221000000,,-0.0107223004087,0.0112028837997,-0.0274257713275,0.0,0.0,0.0
5231000000,522,5231000000,,-0.00159605580041,-0.0028752382465,-0.0418094241881,0.0,0.0,0.0
5242000000,523,5242000000,,0.0215693036006,0.00868482617367,-0.014425243829,0.0,0.0,0.0
5251000000,524,5251000000,,-0.0150906851313,-0.00854065589783,0.00325079995163,0.0,0.0,0.0
5261000000,525,5261000000,,0.00138602968548,-0.0214856086611,-0.0202863023209,0.0,0.0,0.0
5271000000,526,5271000000,,-0.00968342089223,-0.0367376938391,-0.0058724490194,0.0,0.0,0.0
5280000000,527,5280000000,,-0.00981225376644,0.00863530183274,-0.0105970872304,0.0,0.0,0.0
5291000000,528,5291000000,,-0.0194585000352,-0.0217691173976,-0.0069162316807,0.0,0.0,0.0
5301000000,529,5301000000,,0.00522078998507,0.0264692897875,0.0121155847543,0.0,0.0,0.0
5311000000,530,5311000000,,0.00469009849468,-0.0066892922143,-0.0204724908262,0.0,0.0,0.0
5320000000,531,5320000000,,-0.00958299458743,-0.0268480101227,0.0253493174628,0.0,0.0,0.0
5331000000,532,5331000000,,-0.0151192482317,-0.0206634682509,-0.0444502018715,0.0,0.0,0.0
5342000000,533,5342000000,,-0.0111722296447,0.0251157080815,0.00139156461331,0.0,0.0,0.0
5351000000,534,5351000000,,0.00425412395678,-0.00792463131367,-0.00998210420233,0.0,0.0,0.0
5361000000,535,5361000000,,-0.0044824296159,0.0114091306646,-0.0231786960994,0.0,0.0,0.0
5371000000,536,5371000000,,-0.0185988359607,-0.0561666360736,-0.00104453889588,0.0,0.0,0.0
5381000000,537,5381000000,,-0.0239991604459,-0.000371793980207,-0.0148410404495,0.0,0.0,0.0
5391000000,538,5391000000,,-0.00821961555282,0.00891870436354,-0.0228690305479,0.0,0.0,0.0
5402000000,539,5402000000,,0.010381158941,0.0391560016725,0.0335320477234,0.0,0.0,0.0
5412000000,540,5412000000,,-0.0040953005147,-0.0276420686207,-0.000554838554171,0.0,0.0,0.0
5422000000,541,5422000000,,-0.0274185515236,0.00212512271874,0.0119869094402,0.0,0.0,0.0
5432000000,542,5432000000,,0.00962584777215,-0.0339140394316,-0.0289143358198,0.0,0.0,0.0
5440000000,543,5440000000,,-0.0203643602829,-0.00912589986764,-0.0139521965431,0.0,0.0,0.0
5451000000,544,5451000000,,-0.00972007109434,-0.00557985782167,-0.00167812984598,0.0,0.0,0.0
5461000000,545,5461000000,,-0.00773093903202,0.00241564224444,0.0112265759833,0.0,0.0,0.0
5471000000,546,5471000000,,-0.0113465192386,0.0123913680726,0.0218491338122,0.0,0.0,0.0
5480000000,547,5480000000,,-0.00291693837305,0.00479506430986,0.00531866944113,0.0,0.0,0.0
5491000000,548,5491000000,,0.0346761924993,0.0022212388569,-0.000139332785642,0.0,0.0,0.0
5501000000,549,5501000000,,-0.0032047304479,-0.000504130698537,0.000280939720462,0.0,0.0,0.0
5511000000,550,5511000000,,-0.00865680067826,-0.0119717384332,0.00322252166879,0.0,0.0,0.0
5522000000,551,5522000000,,-0.0113008029656,0.033852489819,0.0388705442056,0.0,0.0,0.0
5532000000,552,5532000000,,0.00107357178215,0.0389098108741,0.0319898372481,0.0,0.0,0.0
5542000000,553,5542000000,,0.0039668498953,-0.0159997143453,-0.00133655117661,0.0,0.0,0.0
5552000000,554,5552000000,,0.0130196671837,0.0019927717098,0.0190923002433,0.0,0.0,0.0
5560000000,555,5560000000,,0.0285225252219,0.0196285533777,-0.003915964207,0.0,0.0,0.0
5571000000,556,5571000000,,-0.0206916222543,0.00936357734404,0.04355539196,0.0,0.0,0.0
5581000000,557,5581000000,,0.0167675087881,0.0207581685401,0.0251874442122,0.0,0.0,0.0
5591000000,558,5591000000,,0.00314201999774,0.00781159268858,-0.0212180069207,0.0,0.0,0.0
5601000000,559,5601000000,,-0.0129737668839,-0.0231656384939,0.00600084592486,0.0,0.0,0.0
5613000000,560,5613000000,,-0.012455748043,-0.00263890095535,0.0359292247448,0.0,0.0,0.0
5627000000,561,5627000000,,0.03652671739,0.0301663782649,0.0189507592034,0.0,0.0,0.0
5631000000,562,5631000000,,0.00294892558893,-0.0171167256872,0.0281792286745,0.0,0.0,0.0
5642000000,563,5642000000,,-0.00208735856074,0.0184700824007,0.00390161409044,0.0,0.0,0.0
5652000000,564,5652000000,,0.00457544254349,-0.0166104473619,0.0581620043194,0.0,0.0,0.0
5662000000,565,5662000000,,0.0175616153983,-0.041183398446,0.00668409146035,0.0,0.0,0.0
5673000000,566,5673000000,,-0.00570831633734,-0.00419544748088,0.0164856589277,0.0,0.0,0.0
5682000000,567,5682000000,,0.0137259512192,-0.0381779849382,-0.017472873008,0.0,0.0,0.0
5691000000,568,5691000000,,-0.00263936674632,0.0108567454063,-0.0152741505675,0.0,0.0,0.0
5701000000,569,5701000000,,-0.00727511670316,0.0054370254981,0.0310870568435,0.0,0.0,0.0
5711000000,570,5711000000,,0.00352953546959,-0.0327536789355,0.00610714366314,0.0,0.0,0.0
5722000000,571,5722000000,,0.0259691259175,-0.011252905251,0.0359802407798,0.0,0.0,0.0
5731000000,572,5731000000,,-0.00727150229846,-0.0282240058541,0.0112856716968,0.0,0.0,0.0
5742000000,573,5742000000,,-0.0109858392891,-0.0634107603977,0.00990568770204,0.0,0.0,0.0
5752000000,574,5752000000,,0.0291623852149,0.00911702638194,0.0232869297336,0.0,0.0,0.0
5764000000,575,5764000000,,0.000242982248535,-0.0112082069986,0.0207577463362,0.0,0.0,0.0
5771000000,576,5771000000,,-0.00398976374036,-0.0217964831256,0.017116183011,0.0,0.0,0.0
5782000000,577,5782000000,,0.0268354153281,-0.0367214589704,0.0473307883329,0.0,0.0,0.0
5792000000,578,5792000000,,0.0175382430934,0.00668222699212,0.0218229465368,0.0,0.0,0.0
5801000000,579,5801000000,,-0.00404829922334,-0.0167539251772,0.0140461790573,0.0,0.0,0.0
5811000000,580,5811000000,,-0.0336929759408,-0.0316184342147,-0.00924541337014,0.0,0.0,0.0
5821000000,581,5821000000,,-0.00852099960005,0.0326908791497,0.0116998901593,0.0,0.0,0.0
5831000000,582,5831000000,,-0.0209951861863,0.0562916302797,0.0258432321606,0.0,0.0,0.0
5842000000,583,5842000000,,-0.0015928998352,0.030008010773,0.0120072705754,0.0,0.0,0.0
5851000000,584,5851000000,,-0.0170871664025,-0.0253751545075,0.0149642537888,0.0,0.0,0.0
5861000000,585,5861000000,,-0.00347757451667,-0.017407500278,0.00805601565372,0.0,0.0,0.0
5871000000,586,5871000000,,-0.00604602391651,0.0228121348536,0.0862640881674,0.0,0.0,0.0
5881000000,587,5881000000,,0.0191617921163,-0.00565114028405,0.0064857750744,0.0,0.0,0.0
5892000000,588,5892000000,,0.00670044893895,0.0236553555491,0.0208207081989,0.0,0.0,0.0
5902000000,589,5902000000,,0.00727142141304,8.02570279231e-05,0.0172525710195,0.0,0.0,0.0
5911000000,590,5911000000,,-0.0382736602953,0.0247241671524,0.0390022962911,0.0,0.0,0.0
5922000000,591,5922000000,,-0.0186827569898,0.0139979186877,0.0122481699702,0.0,0.0,0.0
5931000000,592,5931000000,,-0.000379654325101,-0.00515240047264,0.044825254096,0.0,0.0,0.0
5941000000,593,5941000000,,0.0213876700761,0.00574580698522,0.0351851728311,0.0,0.0,0.0
5951000000,594,5951000000,,0.00626044899292,0.0152553354501,-0.00330011378197,0.0,0.0,0.0
5961000000,595,5961000000,,-0.000175551974995,-0.0302971420116,-0.032556458651,0.0,0.0,0.0
5972000000,596,5972000000,,0.012067478409,-0.0120179569416,0.0196381687632,0.0,0.0,0.0
5982000000,597,5982000000,,0.0164934536555,-0.037946545469,-0.0284050081096,0.0,0.0,0.0
5991000000,598,5991000000,,-0.000888257392069,-0.0145616899872,-0.00432778559037,0.0,0.0,0.0
6000000000,599,6000000000,,-0.0546795499516,-0.00951541583065,0.0231058223067,0.0,0.0,0.0
6011000000,600,6011000000,,-0.00475113678817,0.00977910609332,0.0114884910725,0.0,0.0,0.0
6021000000,601,6021000000,,-0.0170045871746,-0.0280445533965,0.0107209489174,0.0,0.0,0.0
6031000000,602,6031000000,,0.0337973933164,-0.00452511193899,-0.03301218776,0.0,0.0,0.0
6040000000,603,6040000000,,-0.0273408924163,0.055170454673,-0.023413446347,0.0,0.0,0.0
6051000000,604,6051000000,,-0.0267235769426,-0.0462237954414,-0.0179465479597,0.0,0.0,0.0
6061000000,605,6061000000,,-0.00225691724756,-0.017867639286,0.00718803051232,0.0,0.0,0.0
6071000000,606,6071000000,,0.00359864189052,0.00739424597221,-0.00132412675514,0.0,0.0,0.0
6082000000,607,6082000000,,0.0364105536506,-0.00626188845878,0.0225294633634,0.0,0.0,0.0
6091000000,608,6091000000,,0.00684273853957,-0.000858690180788,-0.0257009179762,0.0,0.0,0.0
6101000000,609,6101000000,,-0.0255995063307,-0.00385041013074,-0.00716741556449,0.0,0.0,0.0
6112000000,610,6112000000,,-0.0109128140644,-0.0103196635438,-0.00924724858731,0.0,0.0,0.0
6120000000,611,6120000000,,0.00230107316711,-0.0229569154222,-0.000827320004163,0.0,0.0,0.0
6131000000,612,6131000000,,-0.0111685112877,0.00117214675607,-0.0278490153702,0.0,0.0,0.0
6141000000,613,6141000000,,-0.0222901482276,0.0319553017526,0.0264728768582,0.0,0.0,0.0
6151000000,614,6151000000,,-0.0361400321458,0.00248431218732,-0.00869059101302,0.0,0.0,0.0
6160000000,615,6160000000,,-0.0120506201581,-0.00410559148157,-0.0227119158688,0.0,0.0,0.0
6171000000,616,6171000000,,0.0253182853185,-0.0379028452385,-0.0152773313428,0.0,0.0,0.0
6181000000,617,6181000000,,0.00330556680979,0.0165470434522,-0.00419578499461,0.0,0.0,0.0
6191000000,618,6191000000,,-0.000919456829117,0.00227657388252,-0.0198410881987,0.0,0.0,0.0
6201000000,619,6201000000,,-0.0173077243203,-0.00702130735683,-0.0017535222098,0.0,0.0,0.0
6211000000,620,6211000000,,-0.00287372260418,0.0185258275943,-0.0430090552053,0.0,0.0,0.0
6221000000,621,6221000000,,0.0238362781066,-0.00189590003701,0.00546842061724,0.0,0.0,0.0
6231000000,622,6231000000,,-0.0111635296706,0.000320144400046,0.0221755512269,0.0,0.0,0.0
6241000000,623,6241000000,,-0.00503659160331,-0.0246363745014,-0.0119169723351,0.0,0.0,0.0
6251000000,624,6251000000,,0.00299792756126,0.0161681985969,0.00562005329682,0.0,0.0,0.0
6261000000,625,6261000000,,-0.01276193618,-0.00378693306357,-0.00313355019022,0.0,0.0,0.0
6271000000,626,6271000000,,-0.014745760084,0.011956463368,-0.00391514580489,0.0,0.0,0.0
6280000000,627,6280000000,,-0.00458180617166,-0.00801590703164,-0.000593863046429,0.0,0.0,0.0
6291000000,628,6291000000,,-0.0059112948534,0.0112337153098,0.0251778929962,0.0,0.0,0.0
6301000000,629,6301000000,,-0.0257201128841,0.0171530616612,-0.000863313676957,0.0,0.0,0.0
6312000000,630,6312000000,,-0.0491329872081,-0.00675367864961,0.00578764674792,0.0,0.0,0.0
6320000000,631,6320000000,,0.0288367235232,0.00469628674666,0.03308282512,0.0,0.0,0.0
6332000000,632,6332000000,,-0.0047352708232,0.0373014219278,-0.00503671612884,0.0,0.0,0.0
6341000000,633,6341000000,,-0.0271669073246,0.0110433368469,-0.0138138786539,0.0,0.0,0.0
6352000000,634,6352000000,,0.0365430652685,-0.0477355645904,0.0403782613136,0.0,0.0,0.0
6361000000,635,6361000000,,0.000822129307074,0.00707953902468,0.0189658464738,0.0,0.0,0.0
6372000000,636,6372000000,,0.0265126504374,0.0114526572663,-0.0129378754564,0.0,0.0,0.0
6381000000,637,6381000000,,0.00674705688882,0.00499791530657,0.0565809902697,0.0,0.0,0.0
6391000000,638,6391000000,,0.00772038998644,-0.0088370557564,0.0518601131099,0.0,0.0,0.0
6401000000,639,6401000000,,-0.0234912592022,-0.022365016015,-0.00109750048468,0.0,0.0,0.0
6411000000,640,6411000000,,-0.0292189494706,-0.003118490665,-0.00394902463113,0.0,0.0,0.0
6421000000,641,6421000000,,0.025151089364,0.0184815300305,-0.0286951195138,0.0,0.0,0.0
6431000000,642,6431000000,,0.0282639475945,-0.0192506380133,-0.0130007412341,0.0,0.0,0.0
6441000000,643,6441000000,,0.00170937565442,-0.00445191154223,0.0367060305367,0.0,0.0,0.0
6452000000,644,6452000000,,0.0141767131574,-0.0107787561727,0.0134112757902,0.0,0.0,0.0
6461000000,645,6461000000,,-0.0109205160185,-0.00400175726461,0.0296956008765,0.0,0.0,0.0
6471000000,646,6471000000,,-0.0103048208544,0.0218453791656,0.00228104885601,0.0,0.0,0.0
6481000000,647,6481000000,,-0.0251571584465,0.0217103563827,-0.000514191518371,0.0,0.0,0.0
6491000000,648,6491000000,,-0.0170969705674,-0.0495567516953,0.0283333035755,0.0,0.0,0.0
6502000000,649,6502000000,,0.0287662204196,-0.00995708994476,-0.0607698965349,0.0,0.0,0.0
6511000000,650,6511000000,,-0.000610619358748,0.0294266176994,-0.00157479906368,0.0,0.0,0.0
6521000000,651,6521000000,,0.0265218338899,0.0093786071645,-0.0228260093017,0.0,0.0,0.0
6531000000,652,6531000000,,0.0205495508509,-0.0040602760309,-0.00328614571501,0.0,0.0,0.0
6541000000,653,6541000000,,-0.0309757624107,-0.0190017187794,-0.00984970865189,0.0,0.0,0.0
6551000000,654,6551000000,,-0.0105072429445,-0.00615198064789,-0.0286115118037,0.0,0.0,0.0
6561000000,655,6561000000,,-0.0021059126651,-0.00300520849632,-0.0232955405591,0.0,0.0,0.0
6571000000,656,6571000000,,0.0137468301383,0.0323880102602,-0.0138283047199,0.0,0.0,0.0
6581000000,657,6581000000,,-0.0245881395007,-0.0173556365588,-0.0220197102841,0.0,0.0,0.0
6593000000,658,6593000000,,-0.0163930092785,-0.0102086670365,0.00359201485409,0.0,0.0,0.0
6601000000,659,6601000000,,0.0311937695249,-0.00946025241975,-0.0488247814971,0.0,0.0,0.0
6611000000,660,6611000000,,0.0031464924235,-0.0134323194353,-0.0252752126185,0.0,0.0,0.0
6624000000,661,6624000000,,0.0123875028644,-0.0265775827828,-0.00192147678931,0.0,0.0,0.0
6631000000,662,6631000000,,0.0140674614381,-0.0129795957366,-0.00682798792764,0.0,0.0,0.0
6641000000,663,6641000000,,-0.013528463939,0.00229801714861,0.0126268176883,0.0,0.0,0.0
6655000000,664,6655000000,,-0.00443341776949,0.00244480181345,0.0210894449276,0.0,0.0,0.0
6662000000,665,6662000000,,-0.0017710365148,0.00409482284635,-0.017648371482,0.0,0.0,0.0
6672000000,666,6672000000,,0.00451347543605,0.0543191767866,-0.0471987594063,0.0,0.0,0.0
6682000000,667,6682000000,,-0.0362661395267,0.0273559436119,-0.03776144726,0.0,0.0,0.0
6691000000,668,6691000000,,0.0206930649872,0.0322924672741,-0.0396126025347,0.0,0.0,0.0
6702000000,669,6702000000,,-0.00817966164878,0.0142176223356,-0.0294721498495,0.0,0.0,0.0
6711000000,670,6711000000,,0.0204118122448,0.0200669710409,-0.0240549750885,0.0,0.0,0.0
6721000000,671,6721000000,,0.012013114585,0.0543988414905,-0.0185596435138,0.0,0.0,0.0
6731000000,672,6731000000,,0.035477989278,0.0481562787727,-0.0309021797959,0.0,0.0,0.0
6742000000,673,6742000000,,0.0100428107986,0.0222126801797,-0.0479219425666,0.0,0.0,0.0
6751000000,674,6751000000,,-0.0151412775579,0.0574598316174,-0.0170939795252,0.0,0.0,0.0
6766000000,675,6766000000,,-0.00771306439653,0.028220366121,-0.0105181999931,0.0,0.0,0.0
6772000000,676,6772000000,,-0.00332419172914,0.0379209964084,-0.0388980058863,0.0,0.0,0.0
6781000000,677,6781000000,,-0.00137428908809,0.051468686515,-0.00221603494794,0.0,0.0,0.0
6791000000,678,6791000000,,0.0154259309448,0.061234720214,0.00208975750255,0.0,0.0,0.0
6802000000,679,6802000000,,-0.00739529356898,0.0541405751219,-0.000792793543125,0.0,0.0,0.0
6812000000,680,6812000000,,-0.00345422967799,0.0455183361752,-0.0280748128297,0.0,0.0,0.0
6821000000,681,6821000000,,-0.00930068148426,0.0638372957258,-0.00736092031235,0.0,0.0,0.0
6832000000,682,6832000000,,-0.00300383549733,0.0607348668242,-0.0080142171114,0.0,0.0,0.0
6842000000,683,6842000000,,-0.00606062958342,0.0229505449459,-0.00726601758309,0.0,0.0,0.0
