%time,field.header.seq,field.header.stamp,field.header.frame_id,field.roll,field.pitch,field.jaw,field.roll_dot,field.pitch_dot,field.jaw_dot
43000000,0,43000000,,1.53075845556e-24,-4.41534788765e-23,3.02874664305e-24,0.0,0.0,0.0
88000000,1,88000000,,-8.12833681816e-20,-9.2810899037e-20,-1.48759405759e-24,0.0,0.0,0.0
127000000,2,127000000,,7.59357023901e-19,7.15931385911e-19,-7.58767439409e-24,0.0,0.0,0.0
160000000,3,160000000,,2.80040097014e-13,-2.51916028185e-13,-4.57022454278e-14,0.0,0.0,0.0
200000000,4,200000000,,-4.24160225521e-06,6.13853853793e-06,-8.88543399924e-06,-0.00473372871056,0.00655562756583,-0.00039502402069
258000000,5,258000000,,8.23746688638e-07,-9.11699444828e-08,-1.64185730682e-05,-0.0026947199367,0.000175580702489,5.61540400668e-05
280000000,6,280000000,,-1.19473895666e-07,-1.90484695395e-06,-1.3488116565e-05,0.00235766475089,0.00396652380005,5.54141006432e-05
320000000,7,320000000,,2.7956394888e-07,-3.83454135999e-07,-1.45416170199e-05,-0.00230074417777,0.00311918696389,-0.000173483102117
360000000,8,360000000,,2.47849879997e-06,1.54585461587e-06,-1.58136572281e-05,0.00271875038743,0.00155365292449,-6.976442819e-06
400000000,9,400000000,,1.91657113646e-06,-2.57472379417e-06,-1.76817538886e-05,0.00204435572959,-0.00278684380464,-0.000140187010402
440000000,10,440000000,,5.84985171415e-09,-3.7632324279e-07,-1.91410344996e-05,5.61525912574e-12,5.16745257695e-10,-5.42028704906e-12
480000000,11,480000000,,-7.20796033971e-10,-3.29303459501e-11,-1.96135006263e-05,7.63437503861e-14,4.91971350811e-12,-8.67155141359e-17
520000000,12,520000000,,-5.23180324308e-06,4.6188270062e-06,-1.95337015612e-05,-4.64474639306e-11,3.76846887029e-11,4.39892398766e-13
565000000,13,565000000,,-2.15796681005e-05,1.79946000571e-05,-1.93981923076e-05,-1.21076204618e-10,9.6230766411e-11,8.76799446849e-13
600000000,14,600000000,,-3.83286133001e-05,3.14988465107e-05,-1.92872703337e-05,-1.71033132101e-10,1.42823960991e-10,1.11313844427e-12
640000000,15,640000000,,-6.00153434789e-05,4.903336594e-05,-1.91557737708e-05,-2.0734097772e-10,1.60756255529e-10,1.13575880471e-12
680000000,16,680000000,,-8.2268830738e-05,6.65939369355e-05,-1.90386417671e-05,-2.12022732704e-10,1.65297539545e-10,1.04359674114e-12
720000000,17,720000000,,-0.000106862149551,8.4808030806e-05,-1.89324382518e-05,-2.1718908616e-10,1.63160929212e-10,9.06607525598e-13
760000000,18,760000000,,-0.000147184808156,0.000118311341794,-1.88457343029e-05,-0.00153184041847,0.00130894000176,1.93760160982e-06
800000000,19,800000000,,-0.000238432010519,0.000201575909159,-1.87789173651e-05,-0.0028342558071,0.00258502038196,1.2257240769e-06
840000000,20,840000000,,-0.000365394633263,0.000315092445817,-1.87456607819e-05,-0.00328498217277,0.00302362022921,5.28681425749e-07
880000000,21,880000000,,-0.000495722400956,0.000446301186457,-1.89529000636e-05,-0.00316877709702,0.0034911443945,-1.10714363473e-05
920000000,22,920000000,,-0.000606362824328,0.000598260900006,-1.96658766072e-05,-0.00250400207005,0.00392645411193,-2.33104128711e-05
960000000,23,960000000,,-0.000690703978762,0.000746128149331,-2.08020392165e-05,-0.00168552109972,0.00346826040186,-3.22771484207e-05
1000000000,24,1000000000,,-0.000740874384064,0.000873757060617,-2.22615399252e-05,-0.000858485291246,0.00267352792434,-3.80066085199e-05
1040000000,25,1040000000,,-0.000763645861298,0.000964578764979,-2.38674874709e-05,-0.00036522388109,0.00199984153733,-4.17788032792e-05
1080000000,26,1080000000,,-0.000773125153501,0.00103381136432,-2.55823779298e-05,-7.8445416829e-11,1.01108665884e-09,-3.12886556941e-11
1120000000,27,1120000000,,-0.000770522456151,0.00107365462463,-2.73506284429e-05,7.7541757737e-11,1.94112600993e-10,-1.43532928598e-11
1160000000,28,1160000000,,-0.000753781059757,0.0010858788155,-2.91651977022e-05,1.81943682342e-10,6.42063442344e-13,-1.39797748031e-11
1201000000,29,1201000000,,-0.000721154152416,0.00107448163908,-3.10616742354e-05,5.78848358135e-10,-3.18926968168e-10,-2.78808781617e-11
1240000000,30,1240000000,,-0.000670679786708,0.00104050128721,-3.30959519488e-05,1.3324794601e-09,-9.76651426399e-10,-4.61339542956e-11
1280000000,31,1280000000,,-0.000596043420956,0.000989408930764,-3.49944457412e-05,0.00237157032825,-0.00161837204359,-4.64385739178e-05
1324000000,32,1324000000,,-0.000485190452309,0.000916638527997,-3.66622189176e-05,0.00374429533258,-0.00234500598162,-4.64190306957e-05
1366000000,33,1366000000,,-0.000301358231809,0.000802099879365,-3.86046922358e-05,0.00456440076232,-0.00300202728249,-4.33884415543e-05
1400000000,34,1400000000,,-9.82499113888e-05,0.000664027407765,-4.03531230404e-05,0.00504102138802,-0.0033928421326,-3.98686897825e-05
1442000000,35,1442000000,,9.36866345e-05,0.000525164650753,-4.18258896389e-05,0.00494281155989,-0.00388002209365,-3.70679226762e-05
1480000000,36,1480000000,,0.000284078734694,0.00037180504296,-4.3208754505e-05,0.00485288584605,-0.0039801443927,-3.46805354638e-05
1521000000,37,1521000000,,0.000474243977806,0.000199471600354,-4.46013691544e-05,0.00431383028626,-0.00425168918446,-3.23848325934e-05
1561000000,38,1561000000,,0.000633696443401,3.73711955035e-05,-4.5826913265e-05,0.00381587282754,-0.00411486066878,-3.07565860567e-05
1600000000,39,1600000000,,0.000771371647716,-0.000128228915855,-4.70217819384e-05,0.00313763064332,-0.00408725580201,-2.90354855679e-05
1642000000,40,1642000000,,0.000883963250089,-0.000283083994873,-4.8148802307e-05,0.00245459144935,-0.00376284541562,-2.74921003438e-05
1680000000,41,1680000000,,0.000969309068751,-0.000436451140558,-4.91946229886e-05,0.00175962096546,-0.00369192124344,-2.35056359088e-05
1721000000,42,1721000000,,0.00102245493326,-0.000571787939407,-5.00304195157e-05,0.00114615471102,-0.00359034305438,-2.07365701499e-05
1764000000,43,1764000000,,0.00105698476546,-0.000714655907359,-5.0798891607e-05,0.000545513641555,-0.0033480389975,-1.73875778273e-05
1800000000,44,1800000000,,0.00106739555486,-0.000841872650199,-5.14367966389e-05,-2.60261385847e-05,-0.00297501403838,-1.411132871e-05
1840000000,45,1840000000,,0.00105573865585,-0.00095251534367,-5.19409986737e-05,-0.000524922972545,-0.00248677376658,-1.10573910206e-05
1881000000,46,1881000000,,0.00102520466316,-0.0010411941912,-5.23258458998e-05,-0.000958934077062,-0.00201724004,-8.32621844893e-06
1920000000,47,1920000000,,0.000978355179541,-0.00111154885963,-5.26094445377e-05,-0.00137363560498,-0.00147559354082,-5.93730874243e-06
1960000000,48,1960000000,,0.000920323247556,-0.00115833780728,-5.27950396645e-05,-1.62251456715e-09,-1.00133346059e-09,-3.91411209e-12
2000000000,49,2000000000,,0.000845284259412,-0.00118932360783,-5.28966629645e-05,-1.6818409998e-09,-3.54685614212e-10,-5.13989946525e-13
2040000000,50,2040000000,,0.000768424302805,-0.00119726720732,-5.28896380274e-05,-0.00202692113817,-3.4577002225e-05,8.14933514448e-07
2080000000,51,2080000000,,0.000673798786011,-0.00119306205306,-5.28673372173e-05,-0.00271569541655,0.000235585772316,2.28293941973e-07
2120000000,52,2120000000,,0.000563188514207,-0.00117833004333,-5.28580276296e-05,-0.00305005349219,0.000538055377547,4.10127682926e-07
2160000000,53,2160000000,,0.000435236666817,-0.00115031283349,-5.28293421667e-05,-0.00335150514729,0.000850926968269,9.10256233055e-07
2200000000,54,2200000000,,0.000298225728329,-0.00110720400698,-5.2779843827e-05,-0.00330093386583,0.00123167631682,1.60682327532e-06
2240000000,55,2240000000,,0.000165978024597,-0.00105212337803,-5.27067604708e-05,-0.00327886780724,0.00151684472803,2.00687782126e-06
2281000000,56,2281000000,,3.77621690859e-05,-0.000982427620329,-5.26146432094e-05,-0.00303604151122,0.00187066814397,2.33623313761e-06
2320000000,57,2320000000,,-7.82432034612e-05,-0.0009055796545,-5.25242794538e-05,-0.00284603261389,0.00206053047441,2.40338613366e-06
2360000000,58,2360000000,,-0.000184817487025,-0.000817351101432,-5.24260649399e-05,-0.00252597150393,0.00230176676996,2.47247930929e-06
2400000000,59,2400000000,,-0.000278556573903,-0.000726614845917,-5.23312191945e-05,-0.00223494833335,0.00239517586306,2.39847304329e-06
2440000000,60,2440000000,,-0.000360028469004,-0.000627226894721,-5.22345362697e-05,-0.00188766780775,0.002522849245,2.35221341427e-06
2480000000,61,2480000000,,-0.000429067586083,-0.00052716670325,-5.21415131516e-05,-0.00153282319661,0.00254868995398,2.28650424106e-06
2520000000,62,2520000000,,-0.000484162592329,-0.000421676406404,-5.20471112395e-05,-0.00119492947124,0.00253361347131,2.23947495215e-06
2560000000,63,2560000000,,-0.000523978844285,-0.000324019463733,-5.19596214872e-05,-0.000843829766382,0.00252306181937,2.2608553536e-06
2600000000,64,2600000000,,-0.000551836332306,-0.000222289425437,-5.18654487678e-05,-0.00053270184435,0.00238502328284,2.27267059927e-06
2641000000,65,2641000000,,-0.000566489878111,-0.000128015890368,-5.1772542065e-05,-0.00020891148597,0.0023530353792,2.37721451413e-06
2680000000,66,2680000000,,-0.000568896357436,-3.50841328327e-05,-5.16749169037e-05,7.45819052099e-05,0.00215191137977,2.42012129092e-06
2721000000,67,2721000000,,-0.000560903048608,4.74072730867e-05,-5.15781212016e-05,0.000328772002831,0.00208004261367,2.57125361713e-06
2760000000,68,2760000000,,-0.000540541135706,0.000124287573271,-5.14398780069e-05,7.14839631932e-10,1.85548187925e-09,4.65203960423e-12
2800000000,69,2800000000,,-0.000502589449752,0.000195649350644,-5.11827092851e-05,1.01623431892e-09,1.41525535735e-09,7.0224724473e-12
2840000000,70,2840000000,,-0.000456786568975,0.000248864846071,-5.08734810865e-05,1.3287180245e-09,1.3500996987e-09,8.89575912932e-12
2880000000,71,2880000000,,-0.000394426169805,0.000309359515086,-5.0457634643e-05,0.00161503406707,0.00149016431533,1.05800736492e-05
2920000000,72,2920000000,,-0.000319228798617,0.000373971590307,-5.0018516049e-05,0.00203961390071,0.00169273500796,1.14741296784e-05
2960000000,73,2960000000,,-0.000233429978834,0.000444122648332,-4.95367748954e-05,0.00223406217992,0.00173736177385,1.25595242935e-05
3000000000,74,3000000000,,-0.000142682838487,0.000508927972987,-4.90140882903e-05,0.00225172122009,0.00153972639237,1.35440159283e-05
3040000000,75,3040000000,,-5.52598467038e-05,0.000565162394196,-4.84532865812e-05,0.00215638009831,0.00124970939942,1.43458191815e-05
3080000000,76,3080000000,,2.73198184004e-05,0.000607193796895,-4.78664842376e-05,0.00192892272025,0.00088388012955,1.49823517859e-05
3120000000,77,3120000000,,0.000101333251223,0.000635121716186,-4.72415340482e-05,1.50032208879e-09,4.23180074316e-10,1.35980775251e-11
3161000000,78,3161000000,,0.00016392141697,0.000647338107228,-4.66006495117e-05,7.90614740342e-10,5.07366891556e-11,1.00694036442e-11
3206000000,79,3206000000,,0.000211023740121,0.000641848018859,-4.58836948383e-05,4.92443807953e-10,-1.28865376703e-10,8.26881445259e-12
3240000000,80,3240000000,,0.00023970392067,0.000628909212537,-4.5318298362e-05,3.91751242557e-10,-2.23325566373e-10,7.9317828347e-12
3281000000,81,3281000000,,0.000275905797025,0.000605661945883,-4.46222620667e-05,4.71196137664e-10,-3.43082229293e-10,8.91869217368e-12
3320000000,82,3320000000,,0.000308656919515,0.000576910621021,-4.3994790758e-05,5.3801729738e-10,-5.27068555467e-10,1.01188224466e-11
3360000000,83,3360000000,,0.000344276311807,0.000537960615475,-4.33223285654e-05,5.70172409287e-10,-7.08093583768e-10,1.10283370977e-11
3402000000,84,3402000000,,0.000377207034035,0.00048868561862,-4.26520055044e-05,5.92271232058e-10,-1.02009189984e-09,1.25084135758e-11
3440000000,85,3440000000,,0.000402390229283,0.000441181153292,-4.21013246523e-05,5.62929092229e-10,-1.22834697969e-09,1.32841368114e-11
3480000000,86,3480000000,,0.000428473256761,0.000369709712686,-4.14080132032e-05,4.94178475918e-10,-1.66341596053e-09,1.49476871852e-11
3520000000,87,3520000000,,0.00044691938092,0.000291198724881,-4.07369261666e-05,0.000347211782355,-0.00201909034513,1.58997590916e-05
3562000000,88,3562000000,,0.000457799789729,0.000202794341021,-4.013311991e-05,0.000209137520869,-0.0024274722673,1.5037770936e-05
3602000000,89,3602000000,,0.000461102114059,0.000102908823465,-3.95354691136e-05,-3.63940634998e-05,-0.0026219713036,1.48181279656e-05
3640000000,90,3640000000,,0.000454076565802,4.31844091509e-06,-3.89722772525e-05,-0.000333697273163,-0.00244749034755,1.49179413711e-05
3680000000,91,3680000000,,0.000433589739259,-9.16221033549e-05,-3.83533806598e-05,-0.000649171590339,-0.00224296050146,1.52948323375e-05
3721000000,92,3721000000,,0.00040714017814,-0.000161633826792,-3.78282747988e-05,-0.000906795379706,-0.00185348640662,1.55617908604e-05
3761000000,93,3761000000,,0.000357249838999,-0.000238814798649,-3.71101341443e-05,-1.22376742073e-09,-1.45825973519e-09,1.52766219813e-11
3800000000,94,3800000000,,0.00030171094113,-0.000288416311378,-3.64559127775e-05,-1.14390397155e-09,-7.27243709697e-10,1.36266831152e-11
3840000000,95,3840000000,,0.000243786780629,-0.000318506266922,-3.57884491677e-05,-1.31951549687e-09,-5.63550484056e-10,1.4067839775e-11
3881000000,96,3881000000,,0.000184244054253,-0.000339488324244,-3.52133538399e-05,-1.71487879452e-09,-5.28958155055e-10,1.54389157708e-11
3930000000,97,3930000000,,9.89772888715e-05,-0.00036259231274,-3.45002772519e-05,-0.00210180389695,-0.000485131837195,1.60706840688e-05
3962000000,98,3962000000,,3.12681459036e-06,-0.000381567515433,-3.38514801115e-05,-0.0026879219804,-0.000505084521137,1.53487399075e-05
4000000000,99,4000000000,,-9.45278734434e-05,-0.000397620315198,-3.33144744218e-05,-0.00302286655642,-0.000421072443714,1.50877149281e-05
4040000000,100,4040000000,,-0.000228530669119,-0.000411110086134,-3.26518384099e-05,-0.00294905365445,-0.000204151670914,1.51009271576e-05
4080000000,101,4080000000,,-0.000336775759934,-0.000414468580857,-3.20778344758e-05,-0.00281822029501,3.62544415111e-05,1.49231609612e-05
4121000000,102,4121000000,,-0.000448066741228,-0.000406679115258,-3.14414101013e-05,-0.0023302230984,0.000304240267724,1.48136268763e-05
4160000000,103,4160000000,,-0.000534773629624,-0.000389842374716,-3.08396593027e-05,-1.87102267013e-09,5.26852894644e-10,1.42329143263e-11
4200000000,104,4200000000,,-0.000592574011534,-0.000365784246242,-3.02646458294e-05,-8.12426736996e-10,4.7813658588e-10,1.021004635e-11
4240000000,105,4240000000,,-0.000632981944364,-0.0003355689405,-2.96741545753e-05,-5.24591536877e-10,5.03835140275e-10,8.79088121741e-12
4280000000,106,4280000000,,-0.00066214549588,-0.000300000538118,-2.91277174256e-05,-4.12172351805e-10,6.27802643205e-10,8.69358925126e-12
4321000000,107,4321000000,,-0.000682978250552,-0.000263177382294,-2.86527611024e-05,-3.58513219112e-10,7.42307104673e-10,8.83963215126e-12
4360000000,108,4360000000,,-0.00070407637395,-0.000201080722036,-2.80024851236e-05,-2.33043029318e-10,9.97086635479e-10,9.53288316341e-12
4400000000,109,4400000000,,-0.000712694600224,-0.000140747157275,-2.74624926533e-05,-6.68063868114e-11,1.26052290828e-09,1.03476003807e-11
4440000000,110,4440000000,,-0.000710577238351,-7.35614084988e-05,-2.69469292107e-05,1.61313309932e-10,1.4810208615e-09,1.10090452379e-11
4480000000,111,4480000000,,-0.000697535928339,-2.9768289096e-06,-2.64547670668e-05,4.75038619552e-10,1.89147852936e-09,1.23742916955e-11
4520000000,112,4520000000,,-0.000670482113492,7.77369205025e-05,-2.59476819338e-05,0.000840838765725,0.00197209627368,1.23165837067e-05
4560000000,113,4560000000,,-0.000627185392659,0.000166995218024,-2.54823225987e-05,0.001279797405,0.00233311788179,1.14708273031e-05
4600000000,114,4600000000,,-0.00056810490787,0.000257961481111,-2.5047276722e-05,0.00167075952049,0.0022258143872,1.1264683053e-05
4640000000,115,4640000000,,-0.000498175621033,0.000340695929481,-2.46007602982e-05,0.00196027918719,0.00202159490436,1.14579997899e-05
4680000000,116,4680000000,,-0.000411696237279,0.000413481815485,-2.41263878706e-05,0.00219907611609,0.0015634407755,1.17274230433e-05
4720000000,117,4720000000,,-0.000321110157529,0.000467055593617,-2.36510222749e-05,0.00234397430904,0.0011022555409,1.19716305562e-05
4762000000,118,4762000000,,-0.000220604313654,0.000501814181916,-2.31453195738e-05,0.00238799327053,0.000592617201619,1.20982394947e-05
4800000000,119,4800000000,,-0.000126688551973,0.000515694497153,-2.26738320634e-05,0.00242700846866,0.000148724488099,1.20517979667e-05
4846000000,120,4846000000,,-1.98300367629e-05,0.00051214848645,-2.21338941628e-05,0.00229303725064,-0.000285645102849,1.20151598821e-05
4880000000,121,4880000000,,5.52318160771e-05,0.000497978820931,-2.17415818042e-05,0.00226371525787,-0.000551387725864,1.17191038953e-05
4921000000,122,4921000000,,0.000137570052175,0.000471254286822,-2.13010462176e-05,0.00205734791234,-0.000827678712085,1.15763268695e-05
4960000000,123,4960000000,,0.00020712557307,0.000439908209955,-2.08984074561e-05,0.0019179409137,-0.000928310037125,1.14263075375e-05
5000000000,124,5000000000,,0.000293917400995,0.000386344443541,-2.03504241654e-05,0.00164264382329,-0.00120649242308,1.10357968879e-05
5040000000,125,5040000000,,0.000355247844709,0.000337503908668,-1.99144851649e-05,1.34282951425e-09,-1.22406873526e-09,1.02105615629e-11
5081000000,126,5081000000,,0.000396613584599,0.000292813754641,-1.95147276827e-05,8.63162485931e-10,-1.04112729549e-09,9.10828010237e-12
5120000000,127,5120000000,,0.000438215152826,0.000238362350501,-1.90440368897e-05,7.07991609783e-10,-1.04903630227e-09,8.60165844802e-12
5160000000,128,5160000000,,0.000467735982966,0.000190482722246,-1.86814013432e-05,7.33029414945e-10,-1.25993726563e-09,8.93962768395e-12
5200000000,129,5200000000,,0.000506551470608,0.000119487565826,-1.82114526979e-05,7.44947881159e-10,-1.53755785881e-09,9.25809168911e-12
5240000000,130,5240000000,,0.000538230931852,4.87904108013e-05,-1.78178597707e-05,7.59618701274e-10,-1.77644188248e-09,9.48580710508e-12
5280000000,131,5280000000,,0.000565927359276,-2.29555389524e-05,-1.74563574546e-05,0.000681335979607,-0.0020050201565,9.38458742894e-06
5320000000,132,5320000000,,0.000592795549892,-0.000111299501441,-1.70719595189e-05,0.000664373103064,-0.00230789207853,8.47653882374e-06
5361000000,133,5361000000,,0.000617204234004,-0.000214034065721,-1.67275720742e-05,0.000466741010314,-0.00244463491254,8.2299566202e-06
5400000000,134,5400000000,,0.000629592512269,-0.000301178020891,-1.64142802532e-05,0.000185469805729,-0.00216742861085,8.21326284495e-06
5440000000,135,5440000000,,0.000629693677183,-0.000384096027119,-1.60716954269e-05,-1.56804361162e-10,-1.70574565583e-09,7.87667587404e-12
5480000000,136,5480000000,,0.000615302938968,-0.00044277307461,-1.5709476429e-05,-3.33442023992e-10,-7.05142777502e-10,6.02676849398e-12
5520000000,137,5520000000,,0.000587715941947,-0.00048111518845,-1.53166438395e-05,-5.01822361443e-10,-4.74577599441e-10,5.78879695914e-12
5561000000,138,5561000000,,0.000545297807548,-0.000509230361786,-1.4917106455e-05,-7.87186593687e-10,-4.02775646169e-10,6.42445601926e-12
5600000000,139,5600000000,,0.000494290608913,-0.000529892859049,-1.45535223055e-05,-1.21101761952e-09,-3.73798131337e-10,7.50189407123e-12
5641000000,140,5641000000,,0.000428317754995,-0.000544864975382,-1.41888176586e-05,-1.68935188061e-09,-2.91853707868e-10,8.62407367741e-12
5681000000,141,5681000000,,0.000349842070136,-0.000553194142412,-1.38251944009e-05,-0.00222970475443,-0.0001279253338,9.16386579775e-06
5721000000,142,5721000000,,0.000248177180765,-0.000553724064957,-1.34427464218e-05,-0.00281579652801,6.67411077302e-05,8.48553645483e-06
5760000000,143,5760000000,,0.000147863014718,-0.000548376119696,-1.31855995278e-05,-0.00327313458547,0.000269431126071,7.97071061243e-06
5800000000,144,5800000000,,-5.0817598094e-06,-0.000526422867551,-1.27966723085e-05,-0.00309607433155,0.00063880108064,8.20563400339e-06
5841000000,145,5841000000,,-0.000131794746267,-0.000493065686896,-1.24552998386e-05,-0.00285070366226,0.000936908647418,8.12483722257e-06
5880000000,146,5880000000,,-0.000232497855905,-0.000451689003967,-1.21483753901e-05,-0.00249247183092,0.0012018836569,7.99379904493e-06
5921000000,147,5921000000,,-0.000327103043674,-0.000399132200982,-1.18247799037e-05,-0.00207955739461,0.00139369326644,7.75702574174e-06
5960000000,148,5960000000,,-0.000401193246944,-0.000340353610227,-1.15146449389e-05,-0.00167941721156,0.00154179451056,7.49794571675e-06
6001000000,149,6001000000,,-0.00045869348105,-0.000278794468613,-1.12258630907e-05,-0.00125276553445,0.00166010833345,7.25147310732e-06
6040000000,150,6040000000,,-0.000501973205246,-0.000210632308153,-1.09278716991e-05,-8.23641876924e-10,1.54848489586e-09,6.67349552355e-12
6080000000,151,6080000000,,-0.000525888463017,-0.000148016697494,-1.06273291749e-05,-2.82252249351e-10,1.18096221691e-09,6.12928067675e-12
6120000000,152,6120000000,,-0.000534798833542,-8.81812229636e-05,-1.03137954284e-05,-8.72760960724e-11,1.12558218301e-09,5.79297243855e-12
6160000000,153,6160000000,,-0.000535507162567,-2.58530253632e-05,-1.00207180367e-05,5.90114623833e-11,1.44619227704e-09,6.2631943902e-12
6200000000,154,6200000000,,-0.000529419980012,4.47683742095e-05,-9.73738679022e-06,2.17886028664e-10,1.67132818696e-09,6.35364417328e-12
6240000000,155,6240000000,,-0.00051615270786,0.000123117890325,-9.46766976995e-06,0.000437692215201,0.00204493827187,6.66390724291e-06
6283000000,156,6283000000,,-0.000491417536978,0.000213876424823,-9.17834950087e-06,0.000679126533214,0.00212427531369,6.529267921e-06
6320000000,157,6320000000,,-0.000460898561869,0.000304957880871,-8.97253539733e-06,0.000985625316389,0.00264304876328,5.43115083929e-06
6364000000,158,6364000000,,-0.000410586799262,0.000417661911342,-8.72451619216e-06,0.00118713942356,0.00234516779892,5.77743185204e-06
6400000000,159,6400000000,,-0.000365628075087,0.000494623789564,-8.50738797453e-06,0.00136046961416,0.00192682212219,6.05689228905e-06
6441000000,160,6441000000,,-0.000307054579025,0.000562321627513,-8.25645292934e-06,0.0014512425987,0.00141732010525,6.3099196268e-06
6480000000,161,6480000000,,-0.000250142329605,0.000605545297731,-8.01297665021e-06,1.35264055512e-09,7.63818619465e-10,5.69985204868e-12
6520000000,162,6520000000,,-0.000192576335394,0.000628048321232,-7.73668489273e-06,9.11812125803e-10,1.7931021945e-10,5.06093084107e-12
6560000000,163,6560000000,,-0.000137266557431,0.000630927213933,-7.44257113183e-06,1.00280173054e-09,-6.39859970564e-11,5.19848530542e-12
6600000000,164,6600000000,,-7.82592105679e-05,0.00062181224348,-7.15449823474e-06,1.24185728367e-09,-2.83684659097e-10,5.66535403659e-12
6640000000,165,6640000000,,-9.48167053139e-06,0.000602998246904,-6.87352621753e-06,1.64414293291e-09,-5.2296528219e-10,6.20534656645e-12
6680000000,166,6680000000,,6.26587861916e-05,0.000575866433792,-6.61668991597e-06,0.00195912248455,-0.00080828886712,6.4144960561e-06
6720000000,167,6720000000,,0.000153156826855,0.000536647916306,-6.38533492747e-06,0.00228550215252,-0.00110019370914,5.67366305404e-06
6760000000,168,6760000000,,0.000245388568146,0.000487372628413,-6.17516025159e-06,0.002331700176,-0.00133202061988,5.31343903276e-06
6801000000,169,6801000000,,0.000339813355822,0.000428751751315,-5.95802521275e-06,0.00207998137921,-0.00148114061449,5.13021859661e-06
6840000000,170,6840000000,,0.000416785973357,0.000367592583643,-5.7552774706e-06,0.00178350997157,-0.00152242800687,4.94926098327e-06
6880000000,171,6880000000,,0.000478859525174,0.000306812726194,-5.54878943149e-06,0.00140106666368,-0.0015962588368,5.72703902435e-06
6920000000,172,6920000000,,0.000528357806616,0.00024371931795,-5.30666238774e-06,1.00182684371e-09,-1.41893907735e-09,5.90298036146e-12
6960000000,173,6960000000,,0.000559740874451,0.000185466255061,-5.00872738485e-06,4.12016920581e-10,-1.04782760246e-09,5.87419826323e-12
7000000000,174,7000000000,,0.000574730453081,0.000133275098051,-4.70251552542e-06,1.78893844183e-10,-9.56703161137e-10,5.74674726209e-12
7042000000,175,7042000000,,0.00058017851552,7.25833015167e-05,-4.36220034317e-06,1.38996704771e-11,-1.23430021759e-09,6.57514407504e-12
7082000000,176,7082000000,,0.000576372432988,1.1347853615e-05,-4.04500542572e-06,-1.76892361869e-10,-1.41733302872e-09,7.0569700257e-12
7120000000,177,7120000000,,0.000562373781577,-6.45781110507e-05,-3.69338317796e-06,-4.55598170301e-10,-1.83203019422e-09,8.17118508273e-12
7160000000,178,7160000000,,0.000537625106517,-0.000141229087603,-3.35679533237e-06,-0.00075653498061,-0.00198146607727,8.51483673614e-06
7200000000,179,7200000000,,0.000499491172377,-0.000228718592552,-3.02937542074e-06,-0.00115603464656,-0.00228785257787,7.91966613178e-06
7240000000,180,7240000000,,0.000447515281849,-0.000317702884786,-2.7202822821e-06,-0.00145544437692,-0.00229785800911,8.02318118076e-06
7280000000,181,7280000000,,0.000383424659958,-0.000404754042393,-2.39076803155e-06,-0.00174633134156,-0.00196611927822,8.45077283884e-06
7331000000,182,7331000000,,0.000308554066578,-0.000477535737446,-2.03478384719e-06,-0.00186004315037,-0.00158333720174,9.02851661522e-06
7360000000,183,7360000000,,0.000231117242947,-0.000529895303771,-1.66741313024e-06,-0.0019969525747,-0.00104011339135,9.31839258556e-06
7400000000,184,7400000000,,0.000151558982907,-0.000562004686799,-1.28998908622e-06,-0.00198106025346,-0.000578820588998,9.57985230343e-06
7442000000,185,7442000000,,7.32309636078e-05,-0.000575045763981,-9.17094212127e-07,-1.97794847168e-09,-1.23950308351e-10,9.5564658617e-12
7480000000,186,7480000000,,7.9967281863e-07,-0.00057079072576,-4.97984331105e-07,-1.45298739707e-09,2.43313785786e-10,8.92838407374e-12
7520000000,187,7520000000,,-6.94218178978e-05,-0.000553188496269,-7.41283585626e-08,-1.54757939796e-09,5.12831610511e-10,9.26371045845e-12
7563000000,188,7563000000,,-0.000144149293192,-0.000523715047166,3.49305082636e-07,-0.00187316001393,0.000814773549791,9.865310858e-06
7602000000,189,7602000000,,-0.000222840521019,-0.000487074139528,6.91659863605e-07,-0.00217831181362,0.00111728371121,9.02615829546e-06
7640000000,190,7640000000,,-0.000307946000248,-0.000439812400145,1.04113644284e-06,-0.00233238143846,0.00132345082238,8.53866004036e-06
7680000000,191,7680000000,,-0.000401690020226,-0.000381567660952,1.38487075674e-06,-0.0021887300536,0.00152262486517,8.27426356409e-06
7720000000,192,7720000000,,-0.000483700016048,-0.000319744809531,1.71313865849e-06,-0.0019014304271,0.00152205419727,8.18476928544e-06
7760000000,193,7760000000,,-0.000548209471162,-0.000259213673417,2.03093600248e-06,-0.00141848565545,0.00155986216851,8.21532466944e-06
7800000000,194,7800000000,,-0.000596833124291,-0.000196867156774,2.3630434498e-06,-8.41578418065e-10,1.28436894453e-09,7.09839218654e-12
7840000000,195,7840000000,,-0.000621225277428,-0.000144416757394,2.69964266408e-06,-2.57091931077e-10,8.66830107693e-10,5.94585145008e-12
7880000000,196,7880000000,,-0.000629830348771,-9.27097134991e-05,3.05855405713e-06,-3.11740841474e-11,8.10303268928e-10,5.52214307267e-12
7920000000,197,7920000000,,-0.000626142136753,-3.71545356757e-05,3.40698829859e-06,1.53562176863e-10,1.01311492529e-09,5.92764682825e-12
7960000000,198,7960000000,,-0.00061287736753,1.98412362806e-05,3.75335071112e-06,3.41857708808e-10,1.12728537616e-09,6.97985636303e-12
8002000000,199,8002000000,,-0.00059251813218,7.36055881134e-05,4.09746598962e-06,5.59462809413e-10,1.22383059242e-09,8.12743188722e-12
8040000000,200,8040000000,,-0.000556826649699,0.000138623305247,4.54150494988e-06,8.94971874388e-10,1.44929057644e-09,9.90357362091e-12
8082000000,201,8082000000,,-0.000512717640959,0.000201160015422,4.97177097714e-06,0.00129149493296,0.00159098289441,1.13037249321e-05
8125000000,202,8125000000,,-0.000461553659989,0.000259423046373,5.39039410796e-06,0.00154080044013,0.00165741890669,1.19474289022e-05
8160000000,203,8160000000,,-0.000374905997887,0.000343684485415,5.93211734667e-06,0.0021920830477,0.0019473626744,1.1649552107e-05
8201000000,204,8201000000,,-0.000291766657028,0.000413513625972,6.35905189483e-06,0.00237117707729,0.00185530132148,1.22126748465e-05
8244000000,205,8244000000,,-0.000207304517971,0.000470872706501,6.79610820953e-06,0.00241862051189,0.00142261793371,1.27895737023e-05
8281000000,206,8281000000,,-9.67365776887e-05,0.000525796262082,7.43052942198e-06,0.00226410664618,0.000842552050017,1.3391036191e-05
8321000000,207,8321000000,,-3.76909565603e-06,0.000548908370547,7.99511417426e-06,0.00209979922511,0.00030764110852,1.35781947392e-05
8360000000,208,8360000000,,7.0303954999e-05,0.000551796518266,8.49948628456e-06,1.84622872546e-09,-1.00872706021e-10,1.31435340042e-11
8400000000,209,8400000000,,0.000139249605127,0.000540008768439,9.07688172447e-06,1.10711073642e-09,-3.56402740653e-10,1.10067181064e-11
8440000000,210,8440000000,,0.000196083768969,0.000514814280905,9.66917559708e-06,1.06168596137e-09,-5.61461876991e-10,1.10980929308e-11
8480000000,211,8480000000,,0.000249471544521,0.000481727183796,1.02216381492e-05,1.15484255492e-09,-8.3158241404e-10,1.18620989767e-11
8520000000,212,8520000000,,0.000308071583277,0.000436781760072,1.0788929103e-05,1.38863642807e-09,-1.1061483951e-09,1.28629606966e-11
8561000000,213,8561000000,,0.000365969812265,0.00038499198854,1.13155456347e-05,0.00150503183249,-0.00146593374666,1.3401594515e-05
8600000000,214,8600000000,,0.000430878251791,0.000319693266647,1.1832542441e-05,0.00171978597064,-0.00180194585118,1.24709258671e-05
8640000000,215,8640000000,,0.000500591646414,0.000238527994952,1.23322215586e-05,0.00162806187291,-0.00204738951288,1.20964214148e-05
8680000000,216,8680000000,,0.000560423533898,0.000158457129146,1.28138426589e-05,0.00134449382313,-0.00202010455541,1.19205633382e-05
8727000000,217,8727000000,,0.000611411349382,6.63771570544e-05,1.33619196276e-05,0.000878326944076,-0.00188020663336,1.19735786939e-05
8760000000,218,8760000000,,0.00063336599851,7.39043753128e-06,1.37569668368e-05,4.21782497817e-10,-1.55088875076e-09,1.07796375992e-11
8800000000,219,8800000000,,0.000641225662548,-5.43236965314e-05,1.42756307469e-05,-3.23237409061e-11,-8.68295269019e-10,8.53710765275e-12
8840000000,220,8840000000,,0.000632263021544,-0.000101399476989,1.47693981489e-05,-2.55610171918e-10,-7.87993503781e-10,8.34698109242e-12
8880000000,221,8880000000,,0.000609009992331,-0.000151785599883,1.52942920977e-05,-5.22570986483e-10,-8.45909620129e-10,8.89939597709e-12
8920000000,222,8920000000,,0.000573333527427,-0.000201730974368,1.57924368978e-05,-8.58642712487e-10,-1.08639286456e-09,1.02759294129e-11
8960000000,223,8960000000,,0.000526759889908,-0.000252750120126,1.62790820468e-05,-1.2559123741e-09,-1.20242737989e-09,1.18346122832e-11
9000000000,224,9000000000,,0.000468086887849,-0.000306286296109,1.67960770341e-05,-0.00159830215853,-0.00136233726516,1.32028408188e-05
9040000000,225,9040000000,,0.000389661377994,-0.00036426805309,1.73297521542e-05,-0.00214855652303,-0.00143310008571,1.30144153445e-05
9080000000,226,9080000000,,0.000299418548821,-0.000419990275986,1.78427380888e-05,-0.00244655180722,-0.00135809206404,1.33712383104e-05
9120000000,227,9120000000,,0.00019162875833,-0.000469402730232,1.84140044439e-05,-0.00259537948295,-0.00102624157444,1.38462355608e-05
9160000000,228,9160000000,,8.51737495395e-05,-0.000503714021761,1.89910133486e-05,-0.00260898889974,-0.000630804512184,1.42471617437e-05
9200000000,229,9200000000,,-1.2286409401e-05,-0.0005193874822,1.9536135369e-05,-0.00245193531737,-0.000232592545217,1.44903342516e-05
9240000000,230,9240000000,,-0.000107202991785,-0.000520231144037,2.01179136639e-05,-0.00230798125267,0.000158770184498,1.45830827023e-05
9280000000,231,9280000000,,-0.00019346375484,-0.000506165961269,2.07004450203e-05,-0.00199361867271,0.000515232037287,1.46286502059e-05
9320000000,232,9320000000,,-0.000268646603217,-0.000479386915686,2.12813138205e-05,-1.70096170482e-09,7.55382645323e-10,1.39677366895e-11
9362000000,233,9362000000,,-0.000329653412336,-0.000444701086963,2.18490185944e-05,-9.3112800803e-10,7.20539128363e-10,1.17066105074e-11
9400000000,234,9400000000,,-0.000374798546545,-0.000403210753575,2.24686991714e-05,-7.06034786191e-10,7.87288401138e-10,1.10076999599e-11
9440000000,235,9440000000,,-0.000412891386077,-0.000354201998562,2.30633777392e-05,-7.95693955169e-10,1.11843034833e-09,1.20782906246e-11
9480000000,236,9480000000,,-0.000453542685136,-0.000296250596875,2.36369851336e-05,-9.3838736781e-10,1.45321410461e-09,1.32623799096e-11
9520000000,237,9520000000,,-0.000493972213008,-0.000227703203564,2.42029382207e-05,-0.0010091625154,0.00181675865315,1.404669365e-05
9561000000,238,9561000000,,-0.000538103864528,-0.000146080550621,2.47357329499e-05,-0.00109139631968,0.00219865748659,1.28739729917e-05
9601000000,239,9601000000,,-0.000581038708333,-5.12181504746e-05,2.52655718214e-05,-0.00102112418972,0.00231670984067,1.20826643979e-05
9640000000,240,9640000000,,-0.000615186698269,3.6397621443e-05,2.57174724538e-05,-0.000762602430768,0.00231655570678,1.17228701129e-05
9681000000,241,9681000000,,-0.000639272562694,0.00012682567467,2.61939221673e-05,-0.000419634568971,0.00203608651645,1.15537495731e-05
9720000000,242,9720000000,,-0.000647243345156,0.000201793911401,2.66435181402e-05,-7.88978691407e-12,1.62146873706e-09,1.04465602835e-11
9762000000,243,9762000000,,-0.000637734308839,0.000262158951955,2.71591579803e-05,2.77249861957e-10,8.25396750948e-10,8.16836702444e-12
9800000000,244,9800000000,,-0.000614589778706,0.000307982845698,2.76404480246e-05,5.07089314983e-10,7.29301175006e-10,8.2359691983e-12
9840000000,245,9840000000,,-0.000577145023271,0.000349425827153,2.81255524897e-05,8.14410427985e-10,7.36385452615e-10,8.88032789664e-12
9880000000,246,9880000000,,-0.000527969386894,0.000388232874684,2.85868627543e-05,1.24270105317e-09,8.46151371192e-10,1.01299194727e-11
9920000000,247,9920000000,,-0.000461073563201,0.000426602928201,2.90584794129e-05,0.0017952787457,0.000904964865185,1.14172698886e-05
9962000000,248,9962000000,,-0.000374765368178,0.000464358774479,2.95288919006e-05,0.00242836680263,0.000925076194108,1.06164816316e-05
10000000000,249,10000000000,,-0.000278922001598,0.000495819549542,2.99200928566e-05,0.00276025524363,0.000809981254861,1.03868751467e-05
10040000000,250,10040000000,,-0.000166652534972,0.000522541056853,3.03255146719e-05,0.00296362279914,0.000533176178578,1.04100854514e-05
10080000000,251,10080000000,,-4.77322973893e-05,0.000536711129826,3.07635564241e-05,0.002852125559,0.000155245870701,1.08669992187e-05
10120000000,252,10120000000,,6.75913106534e-05,0.000534060760401,3.12128941005e-05,0.00273247295991,-0.000244796479819,1.10714290713e-05
10160000000,253,10160000000,,0.000169748309418,0.000516185536981,3.16592231684e-05,0.00242148945108,-0.00063713704003,1.11890785774e-05
10202000000,254,10202000000,,0.000257213949226,0.00048641464673,3.20801227645e-05,0.00214908435009,-0.000892999989446,1.10807168312e-05
10250000000,255,10250000000,,0.000334924756316,0.000444928591605,3.25240944221e-05,0.00178268819582,-0.0011648851214,1.10415703602e-05
10285000000,256,10285000000,,0.00039952332736,0.000396815768909,3.29655667883e-05,1.36164612918e-09,-1.20098886391e-09,1.05299709924e-11
10321000000,257,10321000000,,0.000442554883193,0.00035068843863,3.33397438226e-05,1.03596842216e-09,-1.31950339544e-09,9.96136419879e-12
10361000000,258,10361000000,,0.000476737041026,0.000290613941615,3.38613317581e-05,4.29118351963e-10,-1.02704067473e-09,8.71668796171e-12
10401000000,259,10401000000,,0.00049813935766,0.000231752477703,3.430628567e-05,4.291847433e-10,-1.33977062777e-09,9.35029918075e-12
10449000000,260,10449000000,,0.000516432977747,0.000166261816048,3.47334134858e-05,4.20236317966e-10,-1.72500680407e-09,1.00756113522e-11
10482000000,261,10482000000,,0.000533338577952,8.40916472953e-05,3.51755006704e-05,0.00035962680704,-0.00201143953018,1.03253405541e-05
10521000000,262,10521000000,,0.000547181465663,-1.77926012839e-05,3.56051896233e-05,0.000240622393903,-0.00248804013245,9.58581858868e-06
10560000000,263,10560000000,,0.00055222021183,-0.000117660361866,3.59669174941e-05,-3.40491237694e-06,-0.00249484600499,9.29298767005e-06
10600000000,264,10600000000,,0.00054537091637,-0.000218261193368,3.63369836123e-05,-0.000319737620885,-0.00245499517769,9.33804585657e-06
10640000000,265,10640000000,,0.000526030024048,-0.000306486850604,3.67019092664e-05,-0.000646536122076,-0.00208408967592,9.45389547269e-06
10680000000,266,10680000000,,0.000494544045068,-0.000383113976568,3.70856541849e-05,-9.0123997154e-10,-1.67548641627e-09,9.46688734349e-12
10725000000,267,10725000000,,0.000454237480881,-0.000436178030213,3.74990922865e-05,-8.19170453692e-10,-8.05019328975e-10,8.13196038285e-12
10760000000,268,10760000000,,0.000408452207921,-0.00047178476234,3.79226730729e-05,-9.85841741574e-10,-5.94949645105e-10,8.21709020271e-12
10800000000,269,10800000000,,0.000349140638718,-0.000499589019455,3.8362621126e-05,-1.30461785819e-09,-5.24096210874e-10,8.90972365331e-12
10841000000,270,10841000000,,0.000276958657196,-0.000523493043147,3.88035186916e-05,-1.86575843664e-09,-4.73492911546e-10,1.01670182689e-11
10880000000,271,10880000000,,0.000202697818168,-0.000538835476618,3.91856665374e-05,-0.00209715589881,-0.000355294701876,1.03339616544e-05
10920000000,272,10920000000,,0.00010752799426,-0.000550873926841,3.95995921281e-05,-0.0027607078664,-0.000259603053564,9.37341337703e-06
10961000000,273,10961000000,,-1.813299491e-06,-0.000557499879505,3.99499294872e-05,-0.00304621970281,-9.04278713278e-05,8.96098208614e-06
11000000000,274,11000000000,,-0.000129969848786,-0.00055459846044,4.03253361583e-05,-0.00299401138909,0.00022747645562,8.92153093446e-06
11040000000,275,11040000000,,-0.000239329368924,-0.000539183616638,4.06738327001e-05,-0.00264861644246,0.000551594072022,8.90496357897e-06
11080000000,276,11080000000,,-0.000338300626026,-0.00051128823543,4.1025592509e-05,-0.0022469481919,0.000838457606733,8.71885004017e-06
11120000000,277,11120000000,,-0.000420873140683,-0.000470259925351,4.13921115978e-05,-0.00174739782233,0.00111713504884,8.48319450597e-06
11160000000,278,11160000000,,-0.000480054528452,-0.000422481651185,4.17146875407e-05,-1.16497544944e-09,1.20758092415e-09,7.51268665333e-12
11200000000,279,11200000000,,-0.000516548461746,-0.000370927969925,4.20710093749e-05,-5.32790533914e-10,9.75040936879e-10,6.6676321582e-12
11240000000,280,11240000000,,-0.000538543798029,-0.000313448661473,4.24185309384e-05,-3.1534413969e-10,1.25200916301e-09,6.28254349586e-12
11282000000,281,11282000000,,-0.000621790881269,-0.00024693692103,4.25241269113e-05,-0.00308969989419,0.00180073152296,-8.50670119235e-07
11320000000,282,11320000000,,-0.000815600971691,-0.00016019056784,4.21153417847e-05,-0.00427738251165,0.00232998142019,-1.37568986247e-05
11360000000,283,11360000000,,-0.000933922361583,-6.46460466669e-05,4.14417445427e-05,-0.00209662108682,0.00244781794026,-2.22630278586e-05
11400000000,284,11400000000,,-0.000906742352527,3.02577682305e-05,4.05836362916e-05,0.00487215491012,0.00248559378088,-2.09543522942e-05
11441000000,285,11441000000,,-0.000396925432142,0.000130357104354,3.98813790525e-05,0.019814485684,0.00219120155089,-1.15597658805e-05
11482000000,286,11482000000,,0.000675120565575,0.00020924207638,3.96893265133e-05,0.0376366712153,0.00192298355978,2.5613516641e-07
11520000000,287,11520000000,,0.00265248166397,0.000277307350188,3.99224736611e-05,0.0601781792939,0.00154327461496,1.06507968667e-05
11560000000,288,11560000000,,0.0055765369907,0.000332275172696,4.0458427975e-05,0.0861218348145,0.00117316609249,1.85264398169e-05
11600000000,289,11600000000,,0.00912794936448,0.000368650449673,4.11376931879e-05,0.10915376246,0.000870259827934,2.39279361267e-05
11640000000,290,11640000000,,0.014766767621,0.00039936369285,4.21696422563e-05,0.142398163676,0.000492903054692,2.06642671401e-05
11680000000,291,11680000000,,0.0207936000079,0.000414514652221,4.28564853792e-05,0.165791749954,0.000277963670669,1.38074983624e-05
11722000000,292,11722000000,,0.0286645870656,0.000420320226112,4.31978296547e-05,0.196851208806,4.23432102252e-05,3.96594396079e-06
11760000000,293,11760000000,,0.0365118645132,0.000418547511799,4.31070147897e-05,0.215506017208,-0.000124266545754,-6.96697088642e-06
11800000000,294,11800000000,,0.0454355031252,0.000410077627748,4.26000660809e-05,0.237741470337,-0.000261090812273,-1.66826739587e-05
11840000000,295,11840000000,,0.0548253692687,0.000397773721488,4.18143099523e-05,0.250815540552,-0.000390458590118,-3.06607580569e-05
11880000000,296,11880000000,,0.0658759772778,0.000378342840122,4.01963043259e-05,0.265294283628,-0.000478834146634,-4.06950675824e-05
11920000000,297,11920000000,,0.0757873654366,0.000358962221071,3.84166633012e-05,0.2706784904,-0.000560869812034,-5.19267123309e-05
11960000000,298,11960000000,,0.0873285606503,0.000334221083904,3.59886835213e-05,0.270138829947,-0.000589836155996,-5.92759424762e-05
12000000000,299,12000000000,,0.0981353074312,0.000309242168441,3.33286443492e-05,0.271945208311,-0.000675607298035,-7.374179404e-05
12040000000,300,12040000000,,0.108890004456,0.00028329397901,3.03129363601e-05,0.259893417358,-0.000646422151476,-7.71970153437e-05
12082000000,301,12082000000,,0.117629341781,0.000260742381215,2.75800703093e-05,0.256293177605,-0.000701845216099,-8.66494956426e-05
12120000000,302,12120000000,,0.129385948181,0.000229871075135,2.34672788793e-05,0.239390924573,-0.000653269467875,-8.99675578694e-05
12160000000,303,12160000000,,0.138814270496,0.000204032563488,1.98018024093e-05,0.228529423475,-0.000595975841861,-8.64038593136e-05
12207000000,304,12207000000,,0.147059619427,0.000182298506843,1.66192730831e-05,0.208254158497,-0.000555155333132,-8.24137605377e-05
12243000000,305,12243000000,,0.152360796928,0.000167787336977,1.4435072444e-05,0.199569806457,-0.000539033790119,-8.21431021905e-05
12289000000,306,12289000000,,0.164057478309,0.000135873167892,9.44317889662e-06,0.165106132627,-0.000494735781103,-8.00965426606e-05
12320000000,307,12320000000,,0.167693674564,0.000125439313706,7.74691034167e-06,0.150365099311,-0.000432758883107,-7.07530925865e-05
12360000000,308,12360000000,,0.173557445407,0.000107156236481,4.69735050501e-06,0.125522658229,-0.000418730138335,-7.06307691871e-05
12400000000,309,12400000000,,0.178499206901,9.01216335478e-05,1.81306393188e-06,0.0978126004338,-0.000364220293704,-6.20530336164e-05
12440000000,310,12440000000,,0.181878238916,7.63809657656e-05,-5.12655105922e-07,0.0771084725857,-0.000334826443577,-5.65836089663e-05
12480000000,311,12480000000,,0.184549897909,6.37673583697e-05,-2.61623517872e-06,0.0514013171196,-0.000284452660708,-4.70974664495e-05
12521000000,312,12521000000,,0.186222180724,5.30711367901e-05,-4.36335585619e-06,0.0295228753239,-0.000224927483941,-3.48259272869e-05
12560000000,313,12560000000,,0.186944052577,4.50901279692e-05,-5.56112536287e-06,0.00906297191978,-0.000192189530935,-2.69950996881e-05
12600000000,314,12600000000,,0.186889395118,3.83764199796e-05,-6.42592794975e-06,-0.0103749725968,-0.0001390963007,-1.64982757269e-05
12640000000,315,12640000000,,0.186170890927,3.37713427143e-05,-6.89688158673e-06,-0.0268044248223,-0.000101182442449,-8.13511996967e-06
12681000000,316,12681000000,,0.184639543295,3.09097558784e-05,-6.9543148129e-06,-0.0431116484106,-4.49864237453e-05,2.98444410873e-06
12720000000,317,12720000000,,0.18283188343,3.01409672829e-05,-6.62829461362e-06,-0.0557264909148,-6.25253164799e-08,1.24560792756e-05
12760000000,318,12760000000,,0.180803984404,3.11135445372e-05,-6.01948204348e-06,-0.065501883626,4.19544594479e-05,2.08995606954e-05
12801000000,319,12801000000,,0.177194163203,3.46725973941e-05,-4.74434136777e-06,-0.0781954824924,0.000116388568131,3.37343772117e-05
12840000000,320,12840000000,,0.174043044448,3.95179486077e-05,-3.39612779499e-06,-0.0848348587751,0.000147659549839,4.06444778491e-05
12883000000,321,12883000000,,0.171002775431,4.54451583209e-05,-1.83791360087e-06,-0.0936108604074,0.000204728799872,5.1304763474e-05
12920000000,322,12920000000,,0.16677698493,5.47769159311e-05,4.38817664872e-07,-0.0950132980943,0.000224784569582,5.32001577085e-05
12960000000,323,12960000000,,0.162871643901,6.47674387437e-05,2.72488136943e-06,-0.09749558568,0.000251956196735,5.60716689506e-05
13000000000,324,13000000000,,0.159058824182,7.50962863094e-05,4.95600670547e-06,-0.0960630103946,0.000275982863968,5.9232545027e-05
13040000000,325,13040000000,,0.155178427696,8.70055955602e-05,7.47840022086e-06,-0.0940413400531,0.000291237171041,6.04716478847e-05
13080000000,326,13080000000,,0.151433393359,9.9271783256e-05,9.98381074169e-06,-0.0894867703319,0.000304845452774,6.06730536674e-05
13120000000,327,13120000000,,0.148141413927,0.000110852153739,1.22545197883e-05,-0.082546800375,0.000300771207549,5.85265770496e-05
13160000000,328,13160000000,,0.144888222218,0.00012332314509,1.46453076013e-05,-0.0774480625987,0.000316885532811,5.95826168137e-05
13203000000,329,13203000000,,0.141701966524,0.000136827176902,1.7182501324e-05,-0.0673526227474,0.000300058483845,5.6377324654e-05
13252000000,330,13252000000,,0.138605520129,0.000151206622832,1.98884408746e-05,-0.0580072328448,0.000281052954961,5.33503225597e-05
13280000000,331,13280000000,,0.137117922306,0.00015914310643,2.13573202927e-05,-0.0527444630861,0.000299884093693,5.4847314459e-05
13323000000,332,13323000000,,0.134959474206,0.000172315980308,2.37547319557e-05,-0.0444849357009,0.000285697635263,5.30616234755e-05
13360000000,333,13360000000,,0.133511349559,0.000182322895853,2.56489365711e-05,-0.0369023606181,0.000277091283351,5.21903166373e-05
13403000000,334,13403000000,,0.13221283257,0.000193038431462,2.76571809081e-05,-0.029208201915,0.000261294975644,5.03499577462e-05
13440000000,335,13440000000,,0.131440490484,0.000200703856535,2.9147555324e-05,-0.0228868536651,0.000246404204518,4.89865924465e-05
13481000000,336,13481000000,,0.130529865623,0.000212079670746,3.15385732392e-05,-0.0132407201454,0.000211246093386,4.65341800009e-05
13520000000,337,13520000000,,0.130178049207,0.000219391746214,3.32170748152e-05,-0.00604365067557,0.000184761665878,4.35751353507e-05
13560000000,338,13560000000,,0.13009648025,0.000226934556849,3.50962000084e-05,0.00209269509651,0.000155879068188,4.16384791606e-05
13600000000,339,13600000000,,0.130332916975,0.000232536069234,3.66770473192e-05,0.00914433598518,0.000126333150547,3.92522379116e-05
13641000000,340,13641000000,,0.130845218897,0.000237014362938,3.82161852031e-05,0.0153548968956,9.02228130144e-05,3.66423810192e-05
13680000000,341,13680000000,,0.131589248776,0.000239884873736,3.96209652536e-05,0.0212812591344,5.91271309531e-05,3.49122055923e-05
13722000000,342,13722000000,,0.132281929255,0.000241224974161,4.06267790822e-05,0.0248425751925,3.19442187902e-05,3.23451422446e-05
13761000000,343,13761000000,,0.133757472038,0.00024259609927,4.21650547651e-05,0.0328229926527,6.29810674582e-05,3.00802767015e-05
13800000000,344,13800000000,,0.135137677193,0.000247809919529,4.30509353464e-05,0.0371280126274,0.000159550996614,2.93956545647e-05
13845000000,345,13845000000,,0.136550530791,0.000254654674791,4.39074792666e-05,0.0367209389806,0.000200832088012,2.81659467873e-05
13880000000,346,13880000000,,0.138017848134,0.000263357040239,4.50798397651e-05,0.0287053212523,0.000176771893166,2.69991887762e-05
13921000000,347,13921000000,,0.138982757926,0.000270396936685,4.6095563448e-05,0.0126833980903,0.000134493297082,2.87904658762e-05
13960000000,348,13960000000,,0.139073058963,0.000274108431768,4.73755135317e-05,-0.00477338023484,7.60573821026e-05,2.3317801606e-05
14000000000,349,14000000000,,0.138449326158,0.000275595637504,4.83023395645e-05,-0.0267136059701,-2.02621276912e-06,2.31246503972e-05
14040000000,350,14040000000,,0.136876270175,0.000274210935459,4.92990002385e-05,-0.0535324513912,-6.43933235551e-05,2.88670271402e-05
14082000000,351,14082000000,,0.13418571651,0.000269897427643,5.05412754137e-05,-0.0811093002558,-0.000146213482367,3.30044022121e-05
14120000000,352,14120000000,,0.130196005106,0.000263129884843,5.20606845384e-05,-0.111898489296,-0.000203717529075,3.95488677896e-05
14162000000,353,14162000000,,0.125275060534,0.000253568112385,5.38109816262e-05,-0.139929950237,-0.000267279567197,4.6537428716e-05
14200000000,354,14200000000,,0.11974093318,0.000243907881668,5.56427112315e-05,-0.165088653564,-0.000300987798255,5.45218063053e-05
14240000000,355,14240000000,,0.111891441047,0.00022942146461,5.82077045692e-05,-0.193363279104,-0.00032578970422,6.2398998125e-05
14280000000,356,14280000000,,0.10374764353,0.000215979089262,6.06880057603e-05,-0.213468417525,-0.000374419701984,7.31890104362e-05
14321000000,357,14321000000,,0.095605917275,0.000202143375645,6.37107004877e-05,-0.237608343363,-0.00035194287193,8.98339276318e-05
14361000000,358,14361000000,,0.0855988562107,0.000186570134247,6.75102855894e-05,-0.245629057288,-0.000406916573411,8.96196434041e-05
14400000000,359,14400000000,,0.0746550410986,0.000169835257111,7.15017085895e-05,-0.261905252934,-0.000371505564544,9.59665339906e-05
14440000000,360,14440000000,,0.0639288425446,0.000153491826495,7.55921937525e-05,-0.263189971447,-0.00040646045818,0.000103649428638
14481000000,361,14481000000,,0.0530125498772,0.000138248244184,7.97188768047e-05,-0.264719903469,-0.00037433905527,9.60953329923e-05
14520000000,362,14520000000,,0.0428898669779,0.000123236066429,8.42149893288e-05,-0.266851067543,-0.000392298214138,0.000123627105495
14560000000,363,14560000000,,0.0321909412742,0.000108817162982,8.93722244655e-05,-0.260145455599,-0.000370023073629,0.000124824146042
14600000000,364,14600000000,,0.0218105949461,9.36352153076e-05,9.4567949418e-05,-0.249594137073,-0.00034341373248,0.000125985010527
14640000000,365,14640000000,,0.0125408973545,8.12333455542e-05,9.94901420199e-05,-0.232292488217,-0.000339851569152,0.000126360595459
14686000000,366,14686000000,,0.00334926997311,6.77814823575e-05,0.000104699764051,-0.21902307868,-0.000281414948404,0.000126413826365
14721000000,367,14721000000,,-0.00532345846295,5.53792633582e-05,0.000110041975859,-0.1937546134,-0.000301359687001,0.000127719948068
14760000000,368,14760000000,,-0.0124137215316,4.47367929155e-05,0.000114931346616,-0.178881660104,-0.000254704151303,0.000127944513224
14801000000,369,14801000000,,-0.0185700245202,3.49301990354e-05,0.000119739735965,-0.154948696494,-0.000267211638857,0.000129875712446
14840000000,370,14840000000,,-0.0246696639806,2.46577619691e-05,0.000125177350128,-0.134219869971,-0.000233815662796,0.000129861131427
14880000000,371,14880000000,,-0.0296200346202,1.49566540131e-05,0.000130531465402,-0.10996273905,-0.000231035694014,0.000131399880047
14920000000,372,14920000000,,-0.0337045118213,6.43508474241e-06,0.000135886235512,-0.0882589444518,-0.000201596820261,0.000131431617774
14961000000,373,14961000000,,-0.0366306677461,-1.06910658815e-06,0.000140856049256,-0.0681361854076,-0.000187883488252,0.000131828899612
15001000000,374,15001000000,,-0.0391002967954,-8.25316055852e-06,0.00014655047562,-0.0456105843186,-0.000163870980032,0.000132346598548
15041000000,375,15041000000,,-0.0405094102025,-1.4564941921e-05,0.000151840853505,-0.0259316358715,-0.000144342280691,0.00013171529281
15080000000,376,15080000000,,-0.041106376797,-1.95159718714e-05,0.000156675625476,-0.00728574348614,-0.000134612346301,0.000131789944135
15120000000,377,15120000000,,-0.0409748069942,-2.48895812547e-05,0.000161993695656,0.0149308657274,-0.000118232142995,0.00012083465117
15160000000,378,15160000000,,-0.0398996062577,-2.94891869999e-05,0.000166324418387,0.0333363823593,-0.000115398419439,0.000110987377411
15200000000,379,15200000000,,-0.0383067764342,-3.39203106705e-05,0.000170840066858,0.0486955009401,-9.79578326223e-05,0.000102470039565
15240000000,380,15240000000,,-0.0363001637161,-3.76458774554e-05,0.0001743050816,0.0547306239605,-0.000100218196167,9.99960393528e-05
15280000000,381,15280000000,,-0.0338568538427,-4.17298142565e-05,0.000178485264769,0.052423171699,-8.53390738484e-05,0.000109314067231
15320000000,382,15320000000,,-0.0320052579045,-4.51792366221e-05,0.000182926640264,0.0429941117764,-9.0335663117e-05,0.000117067203973
15368000000,383,15368000000,,-0.0307372454554,-4.80915005028e-05,0.000187064186321,0.0316568687558,-8.28892734717e-05,0.000122843615827
15401000000,384,15401000000,,-0.0300129391253,-5.09593191964e-05,0.000191463986994,0.0130053209141,-8.97424833965e-05,0.000142421791679
15440000000,385,15440000000,,-0.0299406759441,-5.58346364414e-05,0.000199004323804,-0.0149347707629,-9.12712785066e-05,0.000145590078318
15480000000,386,15480000000,,-0.0310678593814,-5.95729834458e-05,0.0002050234325,-0.0426056832075,-9.07861976884e-05,0.00016138672072
15520000000,387,15520000000,,-0.0333360992372,-6.32085284451e-05,0.000211765727727,-0.0693946927786,-9.89168547676e-05,0.000174719141796
15560000000,388,15560000000,,-0.0368070453405,-6.72150636092e-05,0.000219121895498,-0.0996857434511,-9.02080792002e-05,0.000184641772648
15600000000,389,15600000000,,-0.0412749908864,-7.12688852218e-05,0.000226711767027,-0.124112851918,-0.000109365180833,0.000195748842089
15640000000,390,15640000000,,-0.0468490570784,-7.55902947276e-05,0.000234758277657,-0.150466963649,-0.000105103885289,0.000201662754989
15681000000,391,15681000000,,-0.0531089901924,-8.01355636213e-05,0.000242920476012,-0.169327512383,-0.000120507524116,0.000208629062399
15729000000,392,15729000000,,-0.0619630850852,-8.5598177975e-05,0.000252934667515,-0.18707332015,-0.000114003174531,0.000201283532078
15761000000,393,15761000000,,-0.0684340000153,-8.96615019883e-05,0.000259879045188,-0.206236034632,-0.000128374245833,0.000214923391468
15800000000,394,15800000000,,-0.0768351182342,-9.43570339587e-05,0.00026862998493,-0.220545083284,-0.000128604006022,0.00023397456971
15840000000,395,15840000000,,-0.0856260508299,-9.95135924313e-05,0.000277837418253,-0.232125490904,-0.000129161213408,0.000236450898228
15880000000,396,15880000000,,-0.0951378494501,-0.000104497776192,0.000287431292236,-0.227584943175,-0.000123302583233,0.000230275370996
15920000000,397,15920000000,,-0.103822641075,-0.000109131979116,0.000296048267046,-0.231480777264,-0.000118103489513,0.000226074116654
15962000000,398,15962000000,,-0.112841464579,-0.000113565300126,0.000305007415591,-0.220384702086,-0.000114455797302,0.000225368756219
16000000000,399,16000000000,,-0.121632441878,-0.000118153533549,0.000313983095111,-0.217445597053,-0.000103314043372,0.00022133551829
16045000000,400,16045000000,,-0.129184618592,-0.000121972436318,0.000321979634464,-0.203995838761,-0.000109862361569,0.000223303883104
16080000000,401,16080000000,,-0.137794956565,-0.000126752100186,0.000331547635142,-0.193265154958,-0.000101614015875,0.000218924498768
16120000000,402,16120000000,,-0.145669505,-0.000131437525852,0.000341023085639,-0.176037117839,-0.000113882088044,0.000220171146793
16160000000,403,16160000000,,-0.152130901814,-0.000135757945827,0.000349410402123,-0.160392254591,-0.00010911931895,0.000218370187213
16201000000,404,16201000000,,-0.158582866192,-0.000140754709719,0.000358814228093,-0.142968654633,-0.000124088604935,0.000219520297833
16246000000,405,16246000000,,-0.164498403668,-0.000145804704516,0.000368494394934,-0.119097962976,-0.000112970876216,0.000213499894016
16280000000,406,16280000000,,-0.168225765228,-0.000149970030179,0.000375694013201,-0.107292331755,-0.000131453198264,0.000218199769733
16321000000,407,16321000000,,-0.170997932553,-0.000153674554895,0.000381853984436,-0.0912723615766,-0.000136911534355,0.000220748930587
16367000000,408,16367000000,,-0.175115481019,-0.000160833413247,0.000393257505493,-0.0683196783066,-0.000124621976283,0.000215497115278
16400000000,409,16400000000,,-0.177645802498,-0.000166461104527,0.000402717472753,-0.0525828227401,-0.000145473706652,0.00023504847195
16440000000,410,16440000000,,-0.179346591234,-0.000172288651811,0.000412149092881,-0.0319309867918,-0.000143121622386,0.000236624793615
16480000000,411,16480000000,,-0.180107265711,-0.000178190195584,0.000421289238147,-0.00727960001677,-0.000160954761668,0.000238770473516
16520000000,412,16520000000,,-0.179765254259,-0.000184438642464,0.000430641695857,0.023818783462,-0.000160884010256,0.000232394129853
16560000000,413,16560000000,,-0.178027018905,-0.000191502360394,0.000440276024165,0.0590045638382,-0.00017141472199,0.00022738975531
16600000000,414,16600000000,,-0.175055444241,-0.000197864574147,0.000448975799372,0.0914070084691,-0.000176836387254,0.000224467061344
16640000000,415,16640000000,,-0.170807570219,-0.000204802418011,0.000457665504655,0.127213642001,-0.000155650443048,0.000217128894292
16680000000,416,16680000000,,-0.164876922965,-0.000211602513446,0.000466510769911,0.16031076014,-0.000178952876013,0.000215160223888
16720000000,417,16720000000,,-0.157621964812,-0.000217979817535,0.000474865693832,0.200912177563,-0.000139022566145,0.000202972267289
16760000000,418,16760000000,,-0.14904910326,-0.00022425109637,0.000482991541503,0.232995405793,-0.000161567906616,0.000195310276467
16800000000,419,16800000000,,-0.138595536351,-0.000229515877436,0.000490720791277,0.272122770548,-0.000139075098559,0.000187131634448
16841000000,420,16841000000,,-0.127262666821,-0.000234974839259,0.000498110079207,0.30019068718,-0.000120543139928,0.000178058602614
16880000000,421,16880000000,,-0.114654645324,-0.000238159380388,0.00050496449694,0.32402408123,-9.8989905382e-05,0.000171058476553
16920000000,422,16920000000,,-0.101306252182,-0.000241476969677,0.000511616584845,0.345042645931,-2.18619916268e-05,0.000158998882398
16960000000,423,16960000000,,-0.0879712626338,-0.000241883361014,0.000517578737345,0.350399821997,-3.05578178086e-05,0.000157376081916
17001000000,424,17001000000,,-0.0731192976236,-0.000241500878474,0.000524105853401,0.363178551197,0.000113309972221,0.000145819591125
17040000000,425,17040000000,,-0.0592628084123,-0.00023989759211,0.000530136690941,0.353920698166,3.80077799491e-05,0.000152246808284
17080000000,426,17080000000,,-0.0449801199138,-0.000236165811657,0.000535950763151,0.357740551233,0.000139045572723,0.000144001824083
17120000000,427,17120000000,,-0.0311610978097,-0.000232497477555,0.000541826011613,0.33451500535,9.67458181549e-05,0.000148908657138
17161000000,428,17161000000,,-0.0173901878297,-0.000226105708862,0.000548134325072,0.318997174501,0.000127836246975,0.000150516905705
17200000000,429,17200000000,,-0.0055158501491,-0.0002212858235,0.000553992926143,0.293691545725,0.000137924609589,0.000150839419803
17240000000,430,17240000000,,0.00530760362744,-0.000214107421925,0.000559775216971,0.270677477121,0.000165288671269,0.000154494744493
17280000000,431,17280000000,,0.0156829953194,-0.000206930999411,0.00056617957307,0.240412980318,0.000202426177566,0.000157797723659
17320000000,432,17320000000,,0.0247648153454,-0.000197477507754,0.000572598190047,0.209153920412,0.000216851592995,0.000161859206855
17361000000,433,17361000000,,0.0324919633567,-0.000188086458365,0.000579148239922,0.181137725711,0.000284213660052,0.000165956982528
17400000000,434,17400000000,,0.0390707328916,-0.000177059439011,0.000585877452977,0.146764665842,0.000265489710728,0.000169121281942
17442000000,435,17442000000,,0.0442467033863,-0.000165850127814,0.000592525640968,0.120221629739,0.000323804211803,0.000172605505213
17480000000,436,17480000000,,0.0483541972935,-0.000153884888277,0.000599451479502,0.0871410444379,0.000301680935081,0.000173769818502
17520000000,437,17520000000,,0.0513382814825,-0.000140918709803,0.000606603513006,0.058468233794,0.000315078301355,0.00017464645498
17560000000,438,17560000000,,0.0530527457595,-0.000128206855152,0.000613617827184,0.0295035839081,0.000324061256833,0.000175635825144
17600000000,439,17600000000,,0.053689558059,-0.000114965558168,0.000620686856564,0.003769751871,0.000332689960487,0.000176347632078
17640000000,440,17640000000,,0.053321827203,-0.000100927238236,0.000627946981695,-0.0203974843025,0.00034585481626,0.000176768080564
17680000000,441,17680000000,,0.0521081984043,-8.74010584084e-05,0.000634807976894,-0.0417218357325,0.000359067664249,0.000177397727384
17720000000,442,17720000000,,0.0500371083617,-7.27333972463e-05,0.000641911348794,-0.0615726672113,0.000358382967534,0.000176403351361
17760000000,443,17760000000,,0.0472377613187,-5.82513566769e-05,0.000648896268103,-0.07801079005,0.000379900040571,0.00017596615362
