%time,field.header.seq,field.header.stamp,field.header.frame_id,field.angular_velocities0,field.angular_velocities1,field.angular_velocities2,field.angular_velocities3
43000000,0,43000000,,-1.17006864749e-15,-1.1732255047e-15,-1.17322549052e-15,-1.1700686333e-15
50000000,1,50000000,,-2.3596973617e-15,-2.36165175972e-15,-2.36165396685e-15,-2.35969960805e-15
91000000,2,91000000,,-3.5547265534e-15,-3.55628142477e-15,-3.556433443e-15,-3.55487854755e-15
130000000,3,130000000,,-4.74916422633e-15,-4.75131505792e-15,-4.75153144206e-15,-4.74938057047e-15
163000000,4,163000000,,4.38126326928e-15,5.53144628612e-15,-1.6042469806e-14,-1.71928520882e-14
208000000,5,208000000,,-8.80184034507e-05,-6.35488752227e-05,8.80184034372e-05,6.35488752091e-05
272000000,6,272000000,,-5.05540930921e-05,-7.07733394341e-05,5.05540930769e-05,7.0773339419e-05
292000000,7,292000000,,-5.93076078697e-05,7.86882545524e-06,5.93076078534e-05,-7.86882547162e-06
328000000,8,328000000,,-6.44477300511e-05,-2.46284931878e-05,6.4447730034e-05,2.46284931707e-05
374000000,9,374000000,,-4.84896457973e-05,2.61888303872e-05,4.84896457796e-05,-2.61888304049e-05
408000000,10,408000000,,1.32354904148e-05,3.57593852741e-05,-1.32354904329e-05,-3.57593852923e-05
461000000,11,461000000,,-1.84879308817e-06,1.15700382839e-05,1.84879306981e-06,-1.15700383022e-05
487000000,12,487000000,,-9.16420707724e-06,2.4335535989e-06,9.1642070589e-06,-2.43355361726e-06
565000000,13,565000000,,-1.09908116375e-05,7.54272686444e-07,1.09908116194e-05,-7.54272704592e-07
599000000,14,599000000,,-1.1036426958e-05,3.74843216761e-07,1.10364269402e-05,-3.74843234531e-07
616000000,15,616000000,,-1.0596902062e-05,-9.32436899714e-08,1.05969020448e-05,9.32436726896e-08
649000000,16,649000000,,-1.09434303016e-05,-1.5437703762e-06,1.09434302849e-05,1.54377035952e-06
692000000,17,692000000,,-1.20235474156e-05,-3.76887238276e-06,1.20235473995e-05,3.76887236673e-06
738000000,18,738000000,,-1.36624935409e-05,-6.45572564702e-06,1.36624935256e-05,6.4557256317e-06
777000000,19,777000000,,-6.70402666108e-05,-6.37650711489e-05,6.70402665961e-05,6.37650711343e-05
815000000,20,815000000,,-0.000103279044576,-0.000102449158048,0.000103279044562,0.000102449158034
860000000,21,860000000,,-0.000124439040447,-0.000125539368842,0.000124439040434,0.000125539368829
888000000,22,888000000,,-0.00017423673178,-0.000138408700607,0.000174236731767,0.000138408700594
931000000,23,931000000,,-0.000202256438135,-0.000141731799764,0.000202256438122,0.000141731799751
969000000,24,969000000,,-0.000214341063563,-0.000140555446667,0.000214341063551,0.000140555446655
1008000000,25,1008000000,,-0.000217845855163,-0.000136963031537,0.000217845855151,0.000136963031524
1051000000,26,1051000000,,-0.000231529742865,-0.000147476728538,0.000231529742853,0.000147476728525
1097000000,27,1097000000,,-0.000217680115064,-0.000150490033316,0.000217680115051,0.000150490033303
1144000000,28,1144000000,,-0.000219004048816,-0.000154794642499,0.000219004048803,0.000154794642485
1172000000,29,1172000000,,-0.000220406717187,-0.000156682375389,0.000220406717173,0.000156682375375
1220000000,30,1220000000,,-0.000225406279058,-0.000159537139416,0.000225406279044,0.000159537139402
1258000000,31,1258000000,,-0.000230439510501,-0.000162006793766,0.000230439510486,0.000162006793752
1290000000,32,1290000000,,-0.00021243607855,-0.000108500016015,0.000212436078535,0.000108500016
1330000000,33,1330000000,,-0.000198611908658,-7.27937636257e-05,0.000198611908643,7.27937636111e-05
1372000000,34,1372000000,,-0.000184386646577,-4.67815475707e-05,0.000184386646563,4.6781547556e-05
1433000000,35,1433000000,,-0.00017173988643,-2.45747368198e-05,0.000171739886415,2.4574736805e-05
1464000000,36,1464000000,,-0.000156878892732,-8.43238310045e-06,0.000156878892717,8.43238308562e-06
1492000000,37,1492000000,,-0.000145174609951,6.38567745221e-06,0.000145174609936,-6.38567746707e-06
1540000000,38,1540000000,,-0.000130470158661,1.6465509746e-05,0.000130470158646,-1.64655097608e-05
1577000000,39,1577000000,,-0.000119519305124,2.50840154807e-05,0.000119519305109,-2.50840154956e-05
1611000000,40,1611000000,,-0.000107451840829,3.07173845702e-05,0.000107451840814,-3.07173845851e-05
1665000000,41,1665000000,,-9.81754650005e-05,3.46077421975e-05,9.81754649856e-05,-3.46077422125e-05
1684000000,42,1684000000,,-7.60930942456e-05,3.69189357212e-05,7.60930942306e-05,-3.69189357362e-05
1739000000,43,1739000000,,-6.09430996088e-05,3.86250330199e-05,6.09430995937e-05,-3.8625033035e-05
1781000000,44,1781000000,,-4.8662503018e-05,3.92503341485e-05,4.86625030027e-05,-3.92503341638e-05
1810000000,45,1810000000,,-3.89998331786e-05,3.88596378548e-05,3.89998331632e-05,-3.88596378702e-05
1855000000,46,1855000000,,-3.18495148495e-05,3.70543764601e-05,3.18495148338e-05,-3.70543764758e-05
1894000000,47,1894000000,,-2.53816091218e-05,3.54276527797e-05,2.5381609106e-05,-3.54276527955e-05
1938000000,48,1938000000,,-2.03739375939e-05,3.31308111407e-05,2.03739375779e-05,-3.31308111568e-05
1983000000,49,1983000000,,-2.9134566701e-05,5.34918115284e-05,2.91345666848e-05,-5.34918115447e-05
2018000000,50,2018000000,,-2.41853339893e-05,6.32264372271e-05,2.41853339729e-05,-6.32264372436e-05
2061000000,51,2061000000,,-1.42869818546e-05,4.11057149994e-05,1.4286981838e-05,-4.11057150161e-05
2095000000,52,2095000000,,-7.59312050487e-06,2.40020290393e-05,7.59312048808e-06,-2.40020290562e-05
2141000000,53,2141000000,,-3.22945810362e-06,1.29910957445e-05,3.22945808669e-06,-1.29910957614e-05
2169000000,54,2169000000,,-4.10039530936e-07,2.63267978691e-06,4.1003951388e-07,-2.632679804e-06
2220000000,55,2220000000,,3.31265728332e-07,-4.48002537475e-06,-3.31265745506e-07,4.48002535754e-06
2264000000,56,2264000000,,8.34174742878e-07,-1.20014981418e-05,-8.34174760161e-07,1.20014981244e-05
2290000000,57,2290000000,,-5.99366398738e-07,-1.75697435264e-05,5.99366381348e-07,1.7569743509e-05
2333000000,58,2333000000,,-1.25365687953e-06,-2.31973324068e-05,1.25365686203e-06,2.31973323892e-05
2376000000,59,2376000000,,-3.412134118e-06,-2.73852937173e-05,3.41213410041e-06,2.73852936997e-05
2418000000,60,2418000000,,-4.92756762156e-06,-3.13542429763e-05,4.92756760389e-06,3.13542429586e-05
2455000000,61,2455000000,,-7.61110741887e-06,-3.43581365918e-05,7.61110740114e-06,3.4358136574e-05
2499000000,62,2499000000,,-1.00467387528e-05,-3.6673783982e-05,1.0046738735e-05,3.66737839641e-05
2530000000,63,2530000000,,-1.2691212757e-05,-3.86178505821e-05,1.26912127391e-05,3.86178505642e-05
2582000000,64,2582000000,,-1.5744785063e-05,-3.97970633999e-05,1.5744785045e-05,3.97970633819e-05
2619000000,65,2619000000,,-1.80771744623e-05,-4.07805103105e-05,1.80771744442e-05,4.07805102924e-05
2658000000,66,2658000000,,-2.17502967225e-05,-4.10370991568e-05,2.17502967043e-05,4.10370991386e-05
2700000000,67,2700000000,,-2.41491926693e-05,-4.10148667127e-05,2.4149192651e-05,4.10148666943e-05
2739000000,68,2739000000,,-2.78640744486e-05,-4.07359953175e-05,2.78640744301e-05,4.0735995299e-05
2781000000,69,2781000000,,-5.5138704908e-06,-4.0009889167e-05,5.51387047218e-06,4.00098891484e-05
2817000000,70,2817000000,,-9.87315979411e-07,-4.25815200543e-05,9.87315960661e-07,4.25815200355e-05
2862000000,71,2862000000,,-3.02179867152e-06,-4.55713414684e-05,3.02179865265e-06,4.55713414495e-05
2893000000,72,2893000000,,-2.72211739918e-05,-2.59866686437e-05,2.72211739728e-05,2.59866686247e-05
2933000000,73,2933000000,,-4.26761005843e-05,-1.27961211995e-05,4.26761005652e-05,1.27961211803e-05
2979000000,74,2979000000,,-5.34401397784e-05,-4.01124394077e-06,5.34401397593e-05,4.01124392157e-06
3021000000,75,3021000000,,-6.01917818827e-05,2.11376899876e-06,6.01917818635e-05,-2.11376901804e-06
3051000000,76,3051000000,,-6.48143091736e-05,6.66229914692e-06,6.48143091542e-05,-6.66229916626e-06
3094000000,77,3094000000,,-6.76633258488e-05,9.36847652267e-06,6.76633258294e-05,-9.36847654207e-06
3161000000,78,3161000000,,-6.26577816118e-05,-1.10606491375e-05,6.26577815923e-05,1.10606491181e-05
3206000000,79,3206000000,,-6.34849745305e-05,-2.04000031872e-05,6.3484974511e-05,2.04000031677e-05
3218000000,80,3218000000,,-6.96344480763e-05,-1.71754834659e-05,6.96344480568e-05,1.71754834463e-05
3251000000,81,3251000000,,-7.61301502573e-05,-1.08038609175e-05,7.61301502377e-05,1.08038608978e-05
3309000000,82,3309000000,,-8.12946372493e-05,-6.01713149398e-06,8.12946372296e-05,6.01713147425e-06
3341000000,83,3341000000,,-8.56079400136e-05,-1.94350044424e-06,8.56079399938e-05,1.94350042444e-06
3381000000,84,3381000000,,-8.91064829713e-05,2.25121264509e-06,8.91064829515e-05,-2.25121266495e-06
3402000000,85,3402000000,,-9.1829504814e-05,7.47458542177e-06,9.18295047941e-05,-7.47458544169e-06
3450000000,86,3450000000,,-9.41140356856e-05,1.19887599692e-05,9.41140356656e-05,-1.19887599891e-05
3501000000,87,3501000000,,-9.50670670577e-05,1.72177796708e-05,9.50670670377e-05,-1.72177796909e-05
3539000000,88,3539000000,,-6.78965851105e-05,2.73532917524e-05,6.78965850904e-05,-2.73532917725e-05
3581000000,89,3581000000,,-5.05592301588e-05,3.27603028865e-05,5.05592301387e-05,-3.27603029066e-05
3612000000,90,3612000000,,-3.87748422379e-05,3.4721129162e-05,3.87748422178e-05,-3.47211291822e-05
3656000000,91,3656000000,,-3.27761523474e-05,3.44683880685e-05,3.27761523272e-05,-3.44683880888e-05
3691000000,92,3691000000,,-2.80405926197e-05,3.26137185807e-05,2.80405925994e-05,-3.2613718601e-05
3738000000,93,3738000000,,-2.57281287472e-05,2.92132055859e-05,2.57281287269e-05,-2.92132056063e-05
3781000000,94,3781000000,,-4.44725849962e-05,4.04718541268e-05,4.44725849758e-05,-4.04718541472e-05
3802000000,95,3802000000,,-4.71935988792e-05,4.6472241693e-05,4.71935988588e-05,-4.64722417134e-05
3854000000,96,3854000000,,-4.41066906318e-05,4.8099754215e-05,4.41066906113e-05,-4.80997542355e-05
3881000000,97,3881000000,,-4.01003152008e-05,4.8024181411e-05,4.01003151803e-05,-4.80241814316e-05
3949000000,98,3949000000,,-2.89954675636e-05,1.7614730327e-05,2.8995467543e-05,-1.76147303476e-05
3982000000,99,3982000000,,-2.24492486821e-05,-4.52568235337e-06,2.24492486615e-05,4.52568233273e-06
4012000000,100,4012000000,,-1.86027302113e-05,-2.05734719566e-05,1.86027301907e-05,2.05734719359e-05
4057000000,101,4057000000,,-1.71341045339e-05,-3.17027156951e-05,1.71341045133e-05,3.17027156744e-05
4085000000,102,4085000000,,-1.68627365937e-05,-4.13411780088e-05,1.6862736573e-05,4.13411779881e-05
4153000000,103,4153000000,,-1.76641277085e-05,-4.6678426232e-05,1.76641276878e-05,4.66784262113e-05
4174000000,104,4174000000,,-1.26459055681e-05,-2.61646511291e-05,1.26459055473e-05,2.61646511082e-05
4202000000,105,4202000000,,-8.24586528528e-06,-2.52740778482e-05,8.24586526442e-06,2.52740778273e-05
4242000000,106,4242000000,,-5.480212069e-06,-3.13580756405e-05,5.48021204809e-06,3.13580756196e-05
4285000000,107,4285000000,,-3.68053238862e-06,-3.87546683636e-05,3.68053236767e-06,3.87546683426e-05
4327000000,108,4327000000,,-2.47727661353e-06,-4.65352272822e-05,2.47727659253e-06,4.65352272611e-05
4377000000,109,4377000000,,-2.57711386764e-06,-5.34647544412e-05,2.57711384659e-06,5.34647544201e-05
4416000000,110,4416000000,,-3.49616930725e-06,-6.04440466244e-05,3.49616928617e-06,6.04440466033e-05
4454000000,111,4454000000,,-5.33734283029e-06,-6.72795312536e-05,5.33734280919e-06,6.72795312324e-05
4490000000,112,4490000000,,-8.08607376718e-06,-7.398291518e-05,8.08607374606e-06,7.39829151589e-05
4530000000,113,4530000000,,-3.83286042887e-05,-6.87162974639e-05,3.83286042675e-05,6.87162974427e-05
4567000000,114,4567000000,,-5.83437422239e-05,-6.36098107092e-05,5.83437422027e-05,6.3609810688e-05
4620000000,115,4620000000,,-6.91443550957e-05,-5.82967358328e-05,6.91443550745e-05,5.82967358116e-05
4654000000,116,4654000000,,-7.64560975597e-05,-5.29710077729e-05,7.64560975385e-05,5.29710077516e-05
4694000000,117,4694000000,,-7.94903907834e-05,-4.71131323187e-05,7.94903907622e-05,4.71131322974e-05
4740000000,118,4740000000,,-8.07219059407e-05,-4.12840356465e-05,8.07219059195e-05,4.12840356252e-05
4773000000,119,4773000000,,-8.00660243368e-05,-3.56150145331e-05,8.00660243155e-05,3.56150145118e-05
4817000000,120,4817000000,,-7.86404736373e-05,-2.96708645301e-05,7.86404736161e-05,2.96708645088e-05
4862000000,121,4862000000,,-7.60072505459e-05,-2.47097708573e-05,7.60072505246e-05,2.4709770836e-05
4886000000,122,4886000000,,-7.42970345355e-05,-1.93491854481e-05,7.42970345142e-05,1.93491854268e-05
4927000000,123,4927000000,,-7.20260031596e-05,-1.5560762332e-05,7.20260031383e-05,1.55607623107e-05
4971000000,124,4971000000,,-6.99496787725e-05,-1.09888868385e-05,6.99496787512e-05,1.09888868172e-05
5012000000,125,5012000000,,-6.6792894906e-05,-7.82061830983e-06,6.67928948847e-05,7.8206182885e-06
5043000000,126,5043000000,,-8.02981406345e-05,-2.34037164242e-05,8.02981406132e-05,2.34037164028e-05
5095000000,127,5095000000,,-8.64814980643e-05,-2.50014654317e-05,8.64814980429e-05,2.50014654103e-05
5133000000,128,5133000000,,-8.81058749802e-05,-2.13349491388e-05,8.81058749588e-05,2.13349491174e-05
5168000000,129,5168000000,,-8.83110105862e-05,-1.64305796691e-05,8.83110105648e-05,1.64305796477e-05
5215000000,130,5215000000,,-8.70605259112e-05,-1.07648645179e-05,8.70605258897e-05,1.07648644964e-05
5256000000,131,5256000000,,-8.49560274347e-05,-4.81530675025e-06,8.49560274132e-05,4.81530672871e-06
5305000000,132,5305000000,,-5.53304747802e-05,1.05040912093e-05,5.53304747586e-05,-1.05040912309e-05
5327000000,133,5327000000,,-3.62095821267e-05,2.06102318689e-05,3.62095821051e-05,-2.06102318905e-05
5383000000,134,5383000000,,-2.30913194364e-05,2.61445357738e-05,2.30913194148e-05,-2.61445357954e-05
5416000000,135,5416000000,,-1.62670030585e-05,2.90973146492e-05,1.62670030369e-05,-2.90973146709e-05
5461000000,136,5461000000,,-3.61279034626e-05,3.21728289397e-05,3.6127903441e-05,-3.21728289613e-05
5492000000,137,5492000000,,-3.75191756248e-05,3.72213366946e-05,3.75191756032e-05,-3.72213367163e-05
5535000000,138,5535000000,,-3.22583820059e-05,4.22886493618e-05,3.22583819843e-05,-4.22886493835e-05
5577000000,139,5577000000,,-2.57108355034e-05,4.64648195146e-05,2.57108354818e-05,-4.64648195363e-05
5610000000,140,5610000000,,-1.9446850679e-05,4.96560457435e-05,1.94468506574e-05,-4.96560457651e-05
5652000000,141,5652000000,,-1.35607933018e-05,5.15854182274e-05,1.35607932802e-05,-5.1585418249e-05
5701000000,142,5701000000,,-5.49581742213e-06,2.21354091852e-05,5.49581740055e-06,-2.21354092068e-05
5723000000,143,5723000000,,-1.139036954e-06,-6.51951884688e-06,1.13903693243e-06,6.51951882528e-06
5773000000,144,5773000000,,-1.54800193041e-07,-1.69815860307e-05,1.54800171475e-07,1.69815860091e-05
5812000000,145,5812000000,,-1.95814048207e-06,-2.45885309459e-05,1.95814046049e-06,2.45885309242e-05
5854000000,146,5854000000,,-4.38227254773e-06,-3.10593455017e-05,4.38227252614e-06,3.10593454801e-05
5903000000,147,5903000000,,-7.23304569957e-06,-3.56405632296e-05,7.23304567797e-06,3.5640563208e-05
5942000000,148,5942000000,,-1.02175065722e-05,-3.90475267527e-05,1.02175065506e-05,3.9047526731e-05
5981000000,149,5981000000,,-1.4734850611e-05,-4.17015398308e-05,1.47348505894e-05,4.17015398091e-05
6038000000,150,6038000000,,-1.7436473479e-05,-4.29181332076e-05,1.74364734573e-05,4.29181331859e-05
6057000000,151,6057000000,,1.20600750761e-06,-3.15345792541e-05,-1.20600752931e-06,3.15345792324e-05
6089000000,152,6089000000,,7.61663141834e-06,-3.24007495618e-05,-7.61663144006e-06,3.240074954e-05
6144000000,153,6144000000,,8.06960925972e-06,-3.66556667851e-05,-8.06960928146e-06,3.66556667633e-05
6169000000,154,6169000000,,6.48563827304e-06,-4.13416487927e-05,-6.48563829481e-06,4.13416487709e-05
6203000000,155,6203000000,,3.85789750728e-06,-4.56943800793e-05,-3.85789752906e-06,4.56943800575e-05
6283000000,156,6283000000,,-2.70414400168e-05,-4.38421769461e-05,2.7041439995e-05,4.38421769242e-05
6306000000,157,6306000000,,-5.16858988689e-05,-4.05430234121e-05,5.16858988471e-05,4.05430233903e-05
6325000000,158,6325000000,,-6.4805598307e-05,-3.81980601674e-05,6.48055982852e-05,3.81980601456e-05
6388000000,159,6388000000,,-7.1995201156e-05,-3.54732571185e-05,7.19952011342e-05,3.54732570967e-05
6410000000,160,6410000000,,-7.70624495288e-05,-3.12770525222e-05,7.70624495069e-05,3.12770525004e-05
6452000000,161,6452000000,,-7.87770783463e-05,-2.9202026837e-05,7.87770783245e-05,2.92020268151e-05
6499000000,162,6499000000,,-6.73914658724e-05,-4.68210320915e-05,6.73914658506e-05,4.68210320697e-05
6542000000,163,6542000000,,-6.89226431767e-05,-5.21965899708e-05,6.89226431549e-05,5.2196589949e-05
6571000000,164,6571000000,,-7.43399363226e-05,-5.26091369707e-05,7.43399363008e-05,5.26091369489e-05
6617000000,165,6617000000,,-7.99980111859e-05,-5.12534923371e-05,7.99980111641e-05,5.12534923153e-05
6659000000,166,6659000000,,-8.49409183065e-05,-4.8904687883e-05,8.49409182848e-05,4.89046878612e-05
6684000000,167,6684000000,,-7.83746246388e-05,-1.96332858064e-05,7.8374624617e-05,1.96332857846e-05
6724000000,168,6724000000,,-7.38760246109e-05,-9.79190345257e-07,7.38760245891e-05,9.79190323481e-07
6768000000,169,6768000000,,-7.03068992728e-05,1.12263836681e-05,7.03068992511e-05,-1.12263836899e-05
6821000000,170,6821000000,,-6.72709862952e-05,1.86646473266e-05,6.72709862734e-05,-1.86646473484e-05
6850000000,171,6850000000,,-6.52044981053e-05,2.41310924359e-05,6.52044980835e-05,-2.41310924577e-05
6900000000,172,6900000000,,-6.26817150933e-05,3.03772118396e-05,6.26817150715e-05,-3.03772118614e-05
6930000000,173,6930000000,,-8.16496570428e-05,2.00630077139e-05,8.1649657021e-05,-2.00630077357e-05
6972000000,174,6972000000,,-8.71941798348e-05,2.14597637025e-05,8.7194179813e-05,-2.14597637244e-05
7005000000,175,7005000000,,-8.79452280464e-05,2.64976875889e-05,8.79452280245e-05,-2.64976876108e-05
7057000000,176,7057000000,,-8.68394297592e-05,3.20505311013e-05,8.68394297373e-05,-3.20505311232e-05
7088000000,177,7088000000,,-8.49858659714e-05,3.72810319946e-05,8.49858659496e-05,-3.72810320166e-05
7122000000,178,7122000000,,-8.19954705558e-05,4.19604928127e-05,8.19954705339e-05,-4.19604928346e-05
7178000000,179,7178000000,,-5.16144269209e-05,3.59789395593e-05,5.1614426899e-05,-3.59789395812e-05
7215000000,180,7215000000,,-3.2013719451e-05,3.01836778278e-05,3.20137194291e-05,-3.01836778497e-05
7252000000,181,7252000000,,-1.97140735732e-05,2.51065369813e-05,1.97140735514e-05,-2.51065370032e-05
7289000000,182,7289000000,,-1.33500446513e-05,1.9366548964e-05,1.33500446295e-05,-1.93665489859e-05
7338000000,183,7338000000,,-9.30308530509e-06,1.46555702106e-05,9.30308528329e-06,-1.46555702324e-05
7371000000,184,7371000000,,-8.388905716e-06,9.1283602632e-06,8.38890569421e-06,-9.12836028503e-06
7413000000,185,7413000000,,-8.22331657404e-06,4.71269829102e-06,8.22331655224e-06,-4.71269831284e-06
7448000000,186,7448000000,,-1.08271465565e-05,2.63933147078e-05,1.08271465346e-05,-2.63933147297e-05
7490000000,187,7490000000,,-7.76923926432e-06,3.12035788971e-05,7.76923924251e-06,-3.1203578919e-05
7522000000,188,7522000000,,-3.57232769284e-06,2.9711968635e-05,3.57232767103e-06,-2.97119686569e-05
7569000000,189,7569000000,,-1.07097142762e-05,1.0254615694e-06,1.07097142544e-05,-1.02546159125e-06
7630000000,190,7630000000,,-1.57324685674e-05,-1.72371107619e-05,1.57324685456e-05,1.72371107401e-05
7650000000,191,7650000000,,-2.15195199384e-05,-3.4966581066e-05,2.15195199166e-05,3.49665810441e-05
7691000000,192,7691000000,,-2.42860097673e-05,-4.1361527021e-05,2.42860097454e-05,4.13615269991e-05
7724000000,193,7724000000,,-2.59355733854e-05,-4.65806962813e-05,2.59355733636e-05,4.65806962594e-05
7763000000,194,7763000000,,-2.82295571264e-05,-4.91150103559e-05,2.82295571046e-05,4.91150103341e-05
7811000000,195,7811000000,,-1.00001074483e-05,-3.7972294841e-05,1.00001074265e-05,3.79722948191e-05
7854000000,196,7854000000,,-4.78088039887e-06,-3.96327208442e-05,4.78088037702e-06,3.96327208224e-05
7897000000,197,7897000000,,-4.42084539365e-06,-4.5102605356e-05,4.42084537181e-06,4.51026053341e-05
7937000000,198,7937000000,,-5.75630503484e-06,-5.09402021397e-05,5.75630501301e-06,5.09402021179e-05
7975000000,199,7975000000,,-4.039172369e-06,-5.62120164486e-05,4.03917234719e-06,5.62120164267e-05
8009000000,200,8009000000,,-5.55526435381e-06,-6.09161512806e-05,5.55526433201e-06,6.09161512588e-05
8052000000,201,8052000000,,-9.13158607309e-06,-6.48044597329e-05,9.1315860513e-06,6.4804459711e-05
8094000000,202,8094000000,,-3.48900893241e-05,-5.08047686625e-05,3.48900893023e-05,5.08047686407e-05
8145000000,203,8145000000,,-5.55762830727e-05,-3.888144895e-05,5.55762830509e-05,3.88814489282e-05
8166000000,204,8166000000,,-7.08462693524e-05,-2.58960095577e-05,7.08462693306e-05,2.58960095359e-05
8210000000,205,8210000000,,-7.55619243402e-05,-2.14290995128e-05,7.55619243184e-05,2.1429099491e-05
8271000000,206,8271000000,,-7.7468486866e-05,-1.68385464733e-05,7.74684868442e-05,1.68385464515e-05
8289000000,207,8289000000,,-7.71113712834e-05,-1.1273919236e-05,7.71113712616e-05,1.12739192142e-05
8327000000,208,8327000000,,-7.61404378788e-05,-8.09449503101e-06,7.6140437857e-05,8.09449500918e-06
8375000000,209,8375000000,,-7.64060121934e-05,-3.06511952056e-05,7.64060121717e-05,3.06511951838e-05
8412000000,210,8412000000,,-8.01026488876e-05,-3.49050896859e-05,8.01026488658e-05,3.49050896641e-05
8449000000,211,8449000000,,-8.40847344279e-05,-3.25569709565e-05,8.40847344062e-05,3.25569709347e-05
8490000000,212,8490000000,,-8.74607336298e-05,-2.84760736436e-05,8.74607336081e-05,2.84760736218e-05
8537000000,213,8537000000,,-8.99015430373e-05,-2.3690790304e-05,8.99015430156e-05,2.36907902823e-05
8573000000,214,8573000000,,-7.20005037044e-05,1.66290949763e-06,7.20005036828e-05,-1.66290951933e-06
8608000000,215,8608000000,,-6.05354105573e-05,1.85303933975e-05,6.05354105356e-05,-1.85303934191e-05
8659000000,216,8659000000,,-5.19048071796e-05,2.87251140447e-05,5.19048071579e-05,-2.87251140664e-05
8687000000,217,8687000000,,-4.67136618313e-05,3.48963789901e-05,4.67136618097e-05,-3.48963790118e-05
8730000000,218,8730000000,,-4.30987440401e-05,3.75410705836e-05,4.30987440185e-05,-3.75410706053e-05
8772000000,219,8772000000,,-6.37142605688e-05,3.27300917391e-05,6.37142605471e-05,-3.27300917608e-05
8813000000,220,8813000000,,-6.79378458763e-05,3.6241828918e-05,6.79378458546e-05,-3.62418289397e-05
8855000000,221,8855000000,,-6.65010367427e-05,4.19243907281e-05,6.6501036721e-05,-4.19243907498e-05
8898000000,222,8898000000,,-6.3323256011e-05,4.73333761427e-05,6.33232559893e-05,-4.73333761644e-05
8937000000,223,8937000000,,-5.96814951273e-05,5.17906153134e-05,5.96814951057e-05,-5.17906153351e-05
8971000000,224,8971000000,,-5.56281186322e-05,5.73632992524e-05,5.56281186106e-05,-5.73632992741e-05
9014000000,225,9014000000,,-3.27887779647e-05,3.89179350166e-05,3.27887779431e-05,-3.89179350383e-05
9046000000,226,9046000000,,-1.93371572748e-05,2.43493639657e-05,1.93371572532e-05,-2.43493639874e-05
9097000000,227,9097000000,,-1.08762393508e-05,1.37544055533e-05,1.08762393291e-05,-1.3754405575e-05
9130000000,228,9130000000,,-6.94385860647e-06,4.73867020951e-06,6.94385858488e-06,-4.73867023114e-06
9174000000,229,9174000000,,-5.49822829136e-06,-2.95634261493e-06,5.49822826979e-06,2.95634259333e-06
9209000000,230,9209000000,,-5.46908021048e-06,-8.49649455476e-06,5.46908018894e-06,8.49649453319e-06
9251000000,231,9251000000,,-6.53482745607e-06,-1.40015014074e-05,6.53482743456e-06,1.40015013858e-05
9291000000,232,9291000000,,-8.46037053214e-06,-1.74334248149e-05,8.46037051064e-06,1.74334247933e-05
9340000000,233,9340000000,,-7.77965468491e-09,2.37264501584e-06,7.77963320293e-09,-2.37264503736e-06
9382000000,234,9382000000,,6.21221812863e-06,1.05940613551e-05,-6.2122181501e-06,-1.05940613766e-05
9416000000,235,9416000000,,8.05302628876e-06,3.49617457889e-06,-8.05302631022e-06,-3.49617460039e-06
9442000000,236,9442000000,,9.22811576423e-06,-3.08439148642e-06,-9.22811578569e-06,3.08439146493e-06
9487000000,237,9487000000,,9.79599634539e-06,-9.69356748373e-06,-9.79599636686e-06,9.69356746222e-06
9528000000,238,9528000000,,-1.47443615347e-05,-2.91478576782e-05,1.47443615132e-05,2.91478576566e-05
9590000000,239,9590000000,,-3.05323664381e-05,-4.32929661966e-05,3.05323664166e-05,4.32929661751e-05
9619000000,240,9619000000,,-4.11852601165e-05,-5.24598514613e-05,4.1185260095e-05,5.24598514398e-05
9657000000,241,9657000000,,-4.87323024992e-05,-5.7411808214e-05,4.87323024777e-05,5.74118081925e-05
9686000000,242,9686000000,,-5.29585483074e-05,-6.02045852957e-05,5.29585482859e-05,6.02045852741e-05
9723000000,243,9723000000,,-3.25009828344e-05,-6.06178123295e-05,3.25009828129e-05,6.0617812308e-05
9782000000,244,9782000000,,-3.02168870524e-05,-6.51574538759e-05,3.02168870309e-05,6.51574538543e-05
9807000000,245,9807000000,,-3.32286799897e-05,-7.0163410186e-05,3.32286799682e-05,7.01634101645e-05
9853000000,246,9853000000,,-3.7955396931e-05,-7.45260763645e-05,3.79553969095e-05,7.4526076343e-05
9889000000,247,9889000000,,-4.30152954438e-05,-7.79002462797e-05,4.30152954223e-05,7.79002462581e-05
9949000000,248,9949000000,,-6.0359440056e-05,-5.6008949889e-05,6.03594400345e-05,5.60089498675e-05
9986000000,249,9986000000,,-7.09500383432e-05,-3.87837415473e-05,7.09500383218e-05,3.87837415259e-05
10010000000,250,10010000000,,-7.74428016455e-05,-2.62927926176e-05,7.7442801624e-05,2.62927925962e-05
10066000000,251,10066000000,,-8.0462687481e-05,-1.59338513138e-05,8.04626874596e-05,1.59338512924e-05
10092000000,252,10092000000,,-7.9833535683e-05,-8.49135262804e-06,7.98335356616e-05,8.49135260663e-06
10143000000,253,10143000000,,-7.83925648453e-05,-1.4615213539e-06,7.83925648239e-05,1.46152133252e-06
10172000000,254,10172000000,,-7.59091496785e-05,3.31500963929e-06,7.59091496571e-05,-3.31500966065e-06
10211000000,255,10211000000,,-7.4047966653e-05,7.61116761843e-06,7.40479666317e-05,-7.61116763978e-06
10278000000,256,10278000000,,-7.11327362536e-05,1.04839728369e-05,7.11327362323e-05,-1.04839728583e-05
10286000000,257,10286000000,,-8.4806175686e-05,-6.37273336401e-06,8.48061756647e-05,6.37273334268e-06
10336000000,258,10336000000,,-9.46555161225e-05,-1.298892433e-05,9.46555161013e-05,1.29889243087e-05
10365000000,259,10365000000,,-9.49158058115e-05,-5.63820162774e-06,9.49158057902e-05,5.63820160642e-06
10421000000,260,10421000000,,-9.44677825509e-05,8.2894000564e-07,9.44677825296e-05,-8.28940026956e-07
10457000000,261,10457000000,,-9.35339974683e-05,6.47228856367e-06,9.3533997447e-05,-6.47228858498e-06
10490000000,262,10490000000,,-6.47373931053e-05,1.6566930307e-05,6.4737393084e-05,-1.65669303283e-05
10527000000,263,10527000000,,-4.46282233421e-05,2.21415551022e-05,4.46282233208e-05,-2.21415551235e-05
10572000000,264,10572000000,,-3.12380644957e-05,2.25727520966e-05,3.12380644744e-05,-2.25727521179e-05
10612000000,265,10612000000,,-2.15502375165e-05,2.21301710281e-05,2.15502374952e-05,-2.21301710494e-05
10657000000,266,10657000000,,-1.68333309684e-05,2.07073087805e-05,1.68333309472e-05,-2.07073088017e-05
10692000000,267,10692000000,,-3.64413081113e-05,3.11465504016e-05,3.644130809e-05,-3.11465504229e-05
10729000000,268,10729000000,,-3.79869795839e-05,3.67142660488e-05,3.79869795627e-05,-3.671426607e-05
10786000000,269,10786000000,,-3.34875273219e-05,3.98285781859e-05,3.34875273007e-05,-3.98285782071e-05
10809000000,270,10809000000,,-2.77295789499e-05,4.13970206648e-05,2.77295789287e-05,-4.1397020686e-05
10880000000,271,10880000000,,-2.20415610291e-05,4.16633525548e-05,2.20415610079e-05,-4.1663352576e-05
10912000000,272,10912000000,,-1.11564764166e-05,1.25480932092e-05,1.11564763955e-05,-1.25480932304e-05
10941000000,273,10941000000,,-3.56642177987e-06,-1.70725398896e-05,3.56642175877e-06,1.70725398685e-05
10979000000,274,10979000000,,-1.51790819009e-06,-2.75569600125e-05,1.51790816902e-06,2.75569599914e-05
11015000000,275,11015000000,,-1.6086108161e-06,-3.62607324045e-05,1.60861079505e-06,3.62607323834e-05
11055000000,276,11055000000,,-2.82799272526e-06,-4.16659596125e-05,2.82799270422e-06,4.16659595914e-05
11109000000,277,11109000000,,-4.56249613972e-06,-4.5796254599e-05,4.56249611868e-06,4.57962545779e-05
11127000000,278,11127000000,,-8.52105744071e-06,-4.83029232967e-05,8.52105741968e-06,4.83029232756e-05
11165000000,279,11165000000,,7.09900139107e-06,-3.23472088972e-05,-7.09900141211e-06,3.23472088761e-05
11202000000,280,11202000000,,1.3226570855e-05,-3.20446788405e-05,-1.3226570876e-05,3.20446788194e-05
11256000000,281,11256000000,,1.22943055885e-05,-0.000393351249131,-1.22943056096e-05,0.00039335124911
11289000000,282,11289000000,,-1.20967440952e-05,-0.000934799056225,1.20967440742e-05,0.000934799056204
11343000000,283,11343000000,,-2.94791636092e-05,-0.00152478757937,2.94791635882e-05,0.00152478757935
11374000000,284,11374000000,,-4.00642783929e-05,-0.00210688013216,4.00642783719e-05,0.00210688013214
11412000000,285,11412000000,,-4.80438871406e-05,-0.00262729843547,4.80438871196e-05,0.00262729843545
11452000000,286,11452000000,,-5.21996485455e-05,-0.00302311567127,5.21996485246e-05,0.00302311567125
11495000000,287,11495000000,,-5.53903786374e-05,-0.00332771892857,5.53903786165e-05,0.00332771892855
11523000000,288,11523000000,,-5.68309773781e-05,-0.00350450162638,5.68309773572e-05,0.00350450162636
11570000000,289,11570000000,,-5.7185106688e-05,-0.00356745282773,5.71851066671e-05,0.00356745282771
11607000000,290,11607000000,,-5.72632627035e-05,-0.00353253182154,5.72632626827e-05,0.00353253182152
11652000000,291,11652000000,,-5.68807565003e-05,-0.00324479363879,5.68807564795e-05,0.00324479363877
11692000000,292,11692000000,,-5.71547743372e-05,-0.00293442211176,5.71547743165e-05,0.00293442211173
11733000000,293,11733000000,,-5.69287645353e-05,-0.00240079491418,5.69287645145e-05,0.00240079491416
11776000000,294,11776000000,,-5.69940684092e-05,-0.00189054495603,5.69940683884e-05,0.00189054495601
11813000000,295,11813000000,,-5.71804867728e-05,-0.00123940525233,5.71804867521e-05,0.00123940525231
11844000000,296,11844000000,,-5.66855732484e-05,-0.00044756427507,5.66855732276e-05,0.00044756427505
11884000000,297,11884000000,,-5.72516743984e-05,0.000283385633014,5.72516743776e-05,-0.000283385633035
11921000000,298,11921000000,,-5.75935159784e-05,0.00102618869294,5.75935159576e-05,-0.00102618869296
11965000000,299,11965000000,,-5.81901393358e-05,0.00183129431676,5.81901393151e-05,-0.00183129431678
12005000000,300,12005000000,,-5.79790123291e-05,0.00273174799213,5.79790123084e-05,-0.00273174799215
12055000000,301,12055000000,,-5.88297952186e-05,0.00354220939058,5.88297951979e-05,-0.0035422093906
12088000000,302,12088000000,,-5.8799613242e-05,0.00448811018837,5.87996132213e-05,-0.00448811018839
12128000000,303,12128000000,,-5.96779760428e-05,0.00532408080295,5.96779760221e-05,-0.00532408080297
12176000000,304,12176000000,,-6.18672136284e-05,0.00624285188876,6.18672136078e-05,-0.00624285188878
12212000000,305,12212000000,,-6.3254079445e-05,0.00707406815018,6.32540794244e-05,-0.0070740681502
12247000000,306,12247000000,,-6.44036769782e-05,0.00797228812387,6.44036769577e-05,-0.00797228812389
12312000000,307,12312000000,,-6.47741759254e-05,0.00879227908433,6.47741759049e-05,-0.00879227908435
12327000000,308,12327000000,,-6.59636425725e-05,0.00960368777038,6.5963642552e-05,-0.0096036877704
12368000000,309,12368000000,,-6.66711258187e-05,0.0103761811808,6.66711257982e-05,-0.0103761811808
12410000000,310,12410000000,,-6.76002412106e-05,0.0110890257568,6.76002411902e-05,-0.0110890257568
12457000000,311,12457000000,,-6.8345783824e-05,0.0118287756406,6.83457838037e-05,-0.0118287756406
12506000000,312,12506000000,,-6.92854202013e-05,0.0124938370211,6.92854201809e-05,-0.0124938370212
12542000000,313,12542000000,,-7.04528002923e-05,0.0131446663061,7.0452800272e-05,-0.0131446663061
12573000000,314,12573000000,,-7.12575456849e-05,0.0137756535983,7.12575456646e-05,-0.0137756535983
12615000000,315,12615000000,,-7.23989516513e-05,0.0143795927478,7.2398951631e-05,-0.0143795927478
12655000000,316,12655000000,,-7.35475008248e-05,0.0149742997078,7.35475008045e-05,-0.0149742997078
12686000000,317,12686000000,,-7.5006523984e-05,0.0155220919844,7.50065239637e-05,-0.0155220919844
12725000000,318,12725000000,,-7.65153093906e-05,0.0160782704525,7.65153093704e-05,-0.0160782704526
12785000000,319,12785000000,,-7.81041683427e-05,0.0166487403446,7.81041683225e-05,-0.0166487403447
12829000000,320,12829000000,,-8.03137341326e-05,0.0170967559281,8.03137341124e-05,-0.0170967559281
12848000000,321,12848000000,,-8.22824727537e-05,0.0175363283066,8.22824727335e-05,-0.0175363283066
12898000000,322,12898000000,,-8.45534271176e-05,0.0180188943983,8.45534270975e-05,-0.0180188943983
12928000000,323,12928000000,,-8.66860203632e-05,0.0184996501482,8.66860203432e-05,-0.0184996501482
12991000000,324,12991000000,,-8.89633425306e-05,0.0189513121573,8.89633425106e-05,-0.0189513121573
13004000000,325,13004000000,,-9.17408497079e-05,0.0193598337875,9.1740849688e-05,-0.0193598337875
13042000000,326,13042000000,,-9.39987258021e-05,0.0198551103841,9.39987257822e-05,-0.0198551103841
13099000000,327,13099000000,,-9.6518833415e-05,0.0203386094386,9.65188333952e-05,-0.0203386094386
13141000000,328,13141000000,,-9.89930142119e-05,0.0208432504905,9.89930141921e-05,-0.0208432504906
13169000000,329,13169000000,,-0.000101820974198,0.0213174767057,0.000101820974178,-0.0213174767058
13252000000,330,13252000000,,-0.000104461276323,0.0218327168234,0.000104461276303,-0.0218327168234
13267000000,331,13267000000,,-0.000107472664845,0.022329621695,0.000107472664826,-0.022329621695
13285000000,332,13285000000,,-0.000110303027755,0.0228429127384,0.000110303027735,-0.0228429127385
13352000000,333,13352000000,,-0.000113164880429,0.0233562855128,0.00011316488041,-0.0233562855128
13367000000,334,13367000000,,-0.000116419949598,0.0238751917475,0.000116419949579,-0.0238751917475
13408000000,335,13408000000,,-0.000119246459361,0.0244030948468,0.000119246459341,-0.0244030948469
13449000000,336,13449000000,,-0.000122159351923,0.0249295923664,0.000122159351903,-0.0249295923665
13481000000,337,13481000000,,-0.000125095217116,0.0254904196697,0.000125095217097,-0.0254904196698
13536000000,338,13536000000,,-0.000128037805534,0.0260518909259,0.000128037805514,-0.0260518909259
13565000000,339,13565000000,,-0.00013099828278,0.0266362938268,0.000130998282761,-0.0266362938268
13612000000,340,13612000000,,-0.000133921584187,0.0272293701729,0.000133921584168,-0.027229370173
13656000000,341,13656000000,,-0.000136744974768,0.0278300860613,0.000136744974748,-0.0278300860613
13693000000,342,13693000000,,-0.000139565728547,0.0284456815028,0.000139565728528,-0.0284456815029
13725000000,343,13725000000,,-0.000142386009393,0.029395256053,0.000142386009374,-0.029395256053
13764000000,344,13764000000,,-0.000150495279619,0.0305622113226,0.0001504952796,-0.0305622113226
13803000000,345,13803000000,,-0.000156375041151,0.0317712973376,0.000156375041132,-0.0317712973376
13849000000,346,13849000000,,-0.00016106640976,0.0329637165872,0.000161066409741,-0.0329637165872
13883000000,347,13883000000,,-0.000164662769033,0.0340848424492,0.000164662769014,-0.0340848424492
13952000000,348,13952000000,,-0.000167835400688,0.0350773458291,0.000167835400669,-0.0350773458292
13970000000,349,13970000000,,-0.000170782812988,0.0360842673577,0.000170782812969,-0.0360842673578
14010000000,350,14010000000,,-0.000173117293227,0.0368327266283,0.000173117293208,-0.0368327266283
14055000000,351,14055000000,,-0.000175438823452,0.0374685058921,0.000175438823433,-0.0374685058922
14099000000,352,14099000000,,-0.000177347047186,0.0380008194496,0.000177347047167,-0.0380008194496
14128000000,353,14128000000,,-0.00017906395157,0.0383499502137,0.000179063951551,-0.0383499502137
14183000000,354,14183000000,,-0.000180926493981,0.0386590469066,0.000180926493962,-0.0386590469066
14211000000,355,14211000000,,-0.000182931392096,0.0388929667864,0.000182931392077,-0.0388929667865
14271000000,356,14271000000,,-0.000184832862204,0.0389257896176,0.000184832862185,-0.0389257896177
14288000000,357,14288000000,,-0.000186184119823,0.0387944057964,0.000186184119804,-0.0387944057964
14327000000,358,14327000000,,-0.00018851797793,0.0387478621732,0.000188517977911,-0.0387478621732
14372000000,359,14372000000,,-0.000189879090921,0.0386879683655,0.000189879090902,-0.0386879683655
14414000000,360,14414000000,,-0.000191947450893,0.0383986246297,0.000191947450875,-0.0383986246297
14481000000,361,14481000000,,-0.000193287237553,0.0381642942768,0.000193287237534,-0.0381642942768
14493000000,362,14493000000,,-0.000195013999532,0.0377586484522,0.000195013999513,-0.0377586484522
14527000000,363,14527000000,,-0.000196551289445,0.0374815111058,0.000196551289426,-0.0374815111058
14570000000,364,14570000000,,-0.000198315795609,0.0371782553098,0.00019831579559,-0.0371782553098
14605000000,365,14605000000,,-0.000200107147246,0.0368537511168,0.000200107147227,-0.0368537511168
14647000000,366,14647000000,,-0.000201634116874,0.0365966252513,0.000201634116856,-0.0365966252513
14693000000,367,14693000000,,-0.000203690910778,0.0362538830367,0.00020369091076,-0.0362538830367
14730000000,368,14730000000,,-0.000204899332586,0.0360264048846,0.000204899332567,-0.0360264048846
14762000000,369,14762000000,,-0.000206687465131,0.0357204202202,0.000206687465112,-0.0357204202202
14810000000,370,14810000000,,-0.000207893029108,0.0355090489748,0.000207893029089,-0.0355090489748
14842000000,371,14842000000,,-0.000209421547171,0.035263398973,0.000209421547152,-0.0352633989731
14883000000,372,14883000000,,-0.000210647541258,0.0350707154362,0.00021064754124,-0.0350707154362
14922000000,373,14922000000,,-0.000212106207946,0.0348784025761,0.000212106207927,-0.0348784025762
14983000000,374,14983000000,,-0.000213434893552,0.0346962792995,0.000213434893534,-0.0346962792995
15019000000,375,15019000000,,-0.000214823210934,0.0345611302686,0.000214823210916,-0.0345611302686
15050000000,376,15050000000,,-0.000216176500536,0.0344390431431,0.000216176500518,-0.0344390431431
15107000000,377,15107000000,,-0.000217410023836,0.034694728634,0.000217410023818,-0.034694728634
15128000000,378,15128000000,,-0.000218647852841,0.0351807069628,0.000218647852823,-0.0351807069628
15176000000,379,15176000000,,-0.00021971509813,0.0357340272839,0.000219715098112,-0.0357340272839
15205000000,380,15205000000,,-0.000220892311274,0.0363432362877,0.000220892311256,-0.0363432362877
15243000000,381,15243000000,,-0.000221857616592,0.0368727298044,0.000221857616574,-0.0368727298044
15290000000,382,15290000000,,-0.00022293217153,0.0373278126755,0.000222932171512,-0.0373278126755
15320000000,383,15320000000,,-0.000223779389135,0.0376881597263,0.000223779389117,-0.0376881597263
15372000000,384,15372000000,,-0.000224704827537,0.0379827330863,0.000224704827519,-0.0379827330863
15401000000,385,15401000000,,-0.00022540352642,0.0382367074903,0.000225403526402,-0.0382367074903
15443000000,386,15443000000,,-0.000226083303021,0.0381507637913,0.000226083303003,-0.0381507637913
15496000000,387,15496000000,,-0.000226744698557,0.0379858786495,0.000226744698539,-0.0379858786495
15534000000,388,15534000000,,-0.000227251371986,0.0377478688904,0.000227251371968,-0.0377478688904
15560000000,389,15560000000,,-0.000227874789802,0.0373624464771,0.000227874789784,-0.0373624464771
15610000000,390,15610000000,,-0.000228148218414,0.0369287936137,0.000228148218396,-0.0369287936137
15643000000,391,15643000000,,-0.000228561864068,0.0363739348411,0.00022856186405,-0.0363739348412
15728000000,392,15728000000,,-0.000228716820498,0.0357995035276,0.000228716820481,-0.0357995035276
15756000000,393,15756000000,,-0.00022878410643,0.0349759263455,0.000228784106412,-0.0349759263455
15792000000,394,15792000000,,-0.000228748749721,0.0341282616819,0.000228748749703,-0.0341282616819
15817000000,395,15817000000,,-0.000228800419028,0.0332757266077,0.00022880041901,-0.0332757266077
15853000000,396,15853000000,,-0.000229048626827,0.0325209490028,0.000229048626809,-0.0325209490028
15897000000,397,15897000000,,-0.000229195576646,0.0317851725292,0.000229195576628,-0.0317851725292
15921000000,398,15921000000,,-0.000229255959221,0.0309067507466,0.000229255959204,-0.0309067507466
15975000000,399,15975000000,,-0.000229241307707,0.030112599019,0.000229241307689,-0.0301125990191
16009000000,400,16009000000,,-0.00022926967537,0.0292054964861,0.000229269675352,-0.0292054964862
16050000000,401,16050000000,,-0.000229073914913,0.0283973306728,0.000229073914896,-0.0283973306728
16092000000,402,16092000000,,-0.000228926848684,0.0275083089404,0.000228926848666,-0.0275083089404
16129000000,403,16129000000,,-0.000228488026025,0.026658529592,0.000228488026008,-0.026658529592
16178000000,404,16178000000,,-0.000228144622421,0.0258198734759,0.000228144622403,-0.025819873476
16210000000,405,16210000000,,-0.000227501895434,0.0249757458074,0.000227501895417,-0.0249757458074
16246000000,406,16246000000,,-0.000226795186277,0.0241940116174,0.00022679518626,-0.0241940116174
16286000000,407,16286000000,,-0.000225909449933,0.0233718144793,0.000225909449916,-0.0233718144793
16338000000,408,16338000000,,-0.000225384160226,0.0222245524934,0.000225384160209,-0.0222245524934
16372000000,409,16372000000,,-0.000224601662574,0.0209094256178,0.000224601662556,-0.0209094256178
16419000000,410,16419000000,,-0.000223626293739,0.0196400426136,0.000223626293721,-0.0196400426137
16445000000,411,16445000000,,-0.000222653341175,0.0183875016458,0.000222653341158,-0.0183875016458
16500000000,412,16500000000,,-0.000221371381596,0.0172110239256,0.000221371381579,-0.0172110239256
16543000000,413,16543000000,,-0.000220120049425,0.0160590211857,0.000220120049408,-0.0160590211857
16584000000,414,16584000000,,-0.000218658159711,0.0149923961892,0.000218658159693,-0.0149923961892
16616000000,415,16616000000,,-0.000217155900214,0.0140278737961,0.000217155900197,-0.0140278737961
16659000000,416,16659000000,,-0.000215923064534,0.0132747340178,0.000215923064517,-0.0132747340178
16696000000,417,16696000000,,-0.000214129475851,0.012700668113,0.000214129475834,-0.012700668113
16754000000,418,16754000000,,-0.000212920790909,0.0123840545964,0.000212920790892,-0.0123840545964
16779000000,419,16779000000,,-0.000210854410463,0.01228057284,0.000210854410446,-0.01228057284
16825000000,420,16825000000,,-0.000209431037367,0.0122291114987,0.00020943103735,-0.0122291114987
16863000000,421,16863000000,,-0.000207960234437,0.0122867091773,0.00020796023442,-0.0122867091773
16888000000,422,16888000000,,-0.000206550963623,0.0124584629772,0.000206550963606,-0.0124584629772
16938000000,423,16938000000,,-0.000205876415906,0.0127469774016,0.000205876415889,-0.0127469774016
16987000000,424,16987000000,,-0.000204409091562,0.012973703647,0.000204409091545,-0.012973703647
17037000000,425,17037000000,,-0.000204694607338,0.0134302218932,0.000204694607321,-0.0134302218932
17055000000,426,17055000000,,-0.000203074852264,0.0139158818317,0.000203074852247,-0.0139158818318
17092000000,427,17092000000,,-0.000202648223271,0.0142985777861,0.000202648223254,-0.0142985777861
17149000000,428,17149000000,,-0.000201059705134,0.0145403667718,0.000201059705118,-0.0145403667718
17173000000,429,17173000000,,-0.00019990646595,0.0149981790062,0.000199906465934,-0.0149981790062
17211000000,430,17211000000,,-0.000199093913646,0.015256227519,0.000199093913629,-0.015256227519
17253000000,431,17253000000,,-0.000198506905667,0.0155589254142,0.000198506905651,-0.0155589254142
17283000000,432,17283000000,,-0.000198145333696,0.0158217789768,0.000198145333679,-0.0158217789768
17325000000,433,17325000000,,-0.000197686670483,0.0160517523701,0.000197686670466,-0.0160517523701
17372000000,434,17372000000,,-0.000197953905209,0.0162997327801,0.000197953905193,-0.0162997327802
17416000000,435,17416000000,,-0.000197475911074,0.0164558591007,0.000197475911057,-0.0164558591008
17447000000,436,17447000000,,-0.000197824888375,0.0166500739845,0.000197824888359,-0.0166500739846
17498000000,437,17498000000,,-0.000197524625838,0.0167494756856,0.000197524625822,-0.0167494756857
17534000000,438,17534000000,,-0.00019756738897,0.0168370734089,0.000197567388954,-0.0168370734089
17571000000,439,17571000000,,-0.000197751230897,0.0168743437729,0.000197751230881,-0.0168743437729
17615000000,440,17615000000,,-0.000198070199043,0.0168921136926,0.000198070199027,-0.0168921136926
17665000000,441,17665000000,,-0.000198606469125,0.0168747676268,0.000198606469109,-0.0168747676268
17696000000,442,17696000000,,-0.000199289159983,0.0168335434609,0.000199289159967,-0.0168335434609
17745000000,443,17745000000,,-0.000199956706948,0.0167599093793,0.000199956706932,-0.0167599093793
17770000000,444,17770000000,,-0.000201008017941,0.016664425783,0.000201008017925,-0.016664425783
17813000000,445,17813000000,,-0.000201648123846,0.0165625691912,0.00020164812383,-0.0165625691913
17879000000,446,17879000000,,-0.000203007747306,0.0164166461097,0.00020300774729,-0.0164166461097
17899000000,447,17899000000,,-0.000203583168248,0.0162332712396,0.000203583168232,-0.0162332712396
17945000000,448,17945000000,,-0.000205153875717,0.0160437876815,0.000205153875701,-0.0160437876815
17981000000,449,17981000000,,-0.000206276238322,0.015817948648,0.000206276238306,-0.015817948648
18017000000,450,18017000000,,-0.000207635485509,0.0156256034384,0.000207635485493,-0.0156256034384
18044000000,451,18044000000,,-0.000208730544418,0.0154230269238,0.000208730544402,-0.0154230269238
18092000000,452,18092000000,,-0.000209831517396,0.0151654270354,0.00020983151738,-0.0151654270354
18132000000,453,18132000000,,-0.000210941801293,0.0150174446996,0.000210941801277,-0.0150174446996
18165000000,454,18165000000,,-0.000211488707006,0.0148534044304,0.000211488706991,-0.0148534044304
18230000000,455,18230000000,,-0.000212758501241,0.0147318023673,0.000212758501225,-0.0147318023673
18261000000,456,18261000000,,-0.000213325772536,0.0145651339788,0.00021332577252,-0.0145651339788
18302000000,457,18302000000,,-0.000214563424739,0.0144620718956,0.000214563424723,-0.0144620718956
18332000000,458,18332000000,,-0.000215521406227,0.0143398503257,0.000215521406212,-0.0143398503257
18367000000,459,18367000000,,-0.000216460740375,0.0142540216411,0.000216460740359,-0.0142540216411
18411000000,460,18411000000,,-0.000217319900867,0.0141687607317,0.000217319900851,-0.0141687607317
18448000000,461,18448000000,,-0.000217965955068,0.014108022004,0.000217965955053,-0.014108022004
18523000000,462,18523000000,,-0.000218762740656,0.0140441573134,0.000218762740641,-0.0140441573135
18562000000,463,18562000000,,-0.000219186693027,0.0140328630297,0.000219186693011,-0.0140328630297
18580000000,464,18580000000,,-0.000221035407509,0.0140260986256,0.000221035407494,-0.0140260986256
18616000000,465,18616000000,,-0.000220973592105,0.0140190591172,0.000220973592089,-0.0140190591172
18654000000,466,18654000000,,-0.000220908593162,0.0140241659817,0.000220908593146,-0.0140241659817
18697000000,467,18697000000,,-0.000221289489828,0.0140506054418,0.000221289489812,-0.0140506054418
18747000000,468,18747000000,,-0.000221261601788,0.014072659754,0.000221261601772,-0.014072659754
18782000000,469,18782000000,,-0.000221519967548,0.0141221700361,0.000221519967533,-0.0141221700362
18808000000,470,18808000000,,-0.000221521806657,0.0141618124832,0.000221521806641,-0.0141618124833
18868000000,471,18868000000,,-0.000221806683065,0.0142123966988,0.000221806683049,-0.0142123966988
18896000000,472,18896000000,,-0.000221892936469,0.0142742982383,0.000221892936453,-0.0142742982383
18929000000,473,18929000000,,-0.00022195337036,0.0143369619939,0.000221953370344,-0.0143369619939
18984000000,474,18984000000,,-0.00022242756914,0.0144051739426,0.000222427569125,-0.0144051739426
19018000000,475,19018000000,,-0.000222326766399,0.0144552792221,0.000222326766384,-0.0144552792222
19053000000,476,19053000000,,-0.000222804895559,0.014527299255,0.000222804895544,-0.014527299255
19095000000,477,19095000000,,-0.000222574113707,0.014569747786,0.000222574113692,-0.014569747786
19126000000,478,19126000000,,-0.00022299569598,0.0146262620419,0.000222995695965,-0.0146262620419
19174000000,479,19174000000,,-0.000222738530051,0.0146609840842,0.000222738530036,-0.0146609840842
19205000000,480,19205000000,,-0.000222798995618,0.0147007235125,0.000222798995602,-0.0147007235125
19257000000,481,19257000000,,-0.000222754959968,0.0147295087386,0.000222754959952,-0.0147295087386
19297000000,482,19297000000,,-0.00022287085582,0.014754827488,0.000222870855805,-0.014754827488
19324000000,483,19324000000,,-0.000223041127691,0.0147749909038,0.000223041127676,-0.0147749909038
19371000000,484,19371000000,,-0.000223162463443,0.0147880038551,0.000223162463428,-0.0147880038551
19408000000,485,19408000000,,-0.000223497020463,0.0147963381733,0.000223497020448,-0.0147963381733
19448000000,486,19448000000,,-0.000223604774638,0.0147956930544,0.000223604774623,-0.0147956930544
19482000000,487,19482000000,,-0.000223547800946,0.0147657332499,0.000223547800931,-0.0147657332499
19523000000,488,19523000000,,-0.000223521675392,0.0147969494637,0.000223521675377,-0.0147969494637
19568000000,489,19568000000,,-0.000223359515984,0.0147754239239,0.000223359515969,-0.0147754239239
19607000000,490,19607000000,,-0.000223290273816,0.0147559010333,0.000223290273801,-0.0147559010333
19681000000,491,19681000000,,-0.000223494096267,0.0147284661714,0.000223494096252,-0.0147284661714
19726000000,492,19726000000,,-0.000223694280411,0.0146867560805,0.000223694280396,-0.0146867560805
19752000000,493,19752000000,,-0.000224172856542,0.0146405677972,0.000224172856527,-0.0146405677972
19769000000,494,19769000000,,-0.000224486778925,0.0145876862989,0.00022448677891,-0.0145876862989
19807000000,495,19807000000,,-0.000225036240885,0.0145655257367,0.000225036240871,-0.0145655257367
19851000000,496,19851000000,,-0.00022541407694,0.0145308093892,0.000225414076925,-0.0145308093892
19900000000,497,19900000000,,-0.0002260453614,0.0145014081692,0.000226045361385,-0.0145014081692
19926000000,498,19926000000,,-0.000226638280133,0.0144611344782,0.000226638280119,-0.0144611344782
19968000000,499,19968000000,,-0.000227225839302,0.0144275493584,0.000227225839287,-0.0144275493584
20022000000,500,20022000000,,-0.000227789719434,0.0143908689354,0.000227789719419,-0.0143908689354
20057000000,501,20057000000,,-0.000228307332782,0.0143581903833,0.000228307332767,-0.0143581903833
20082000000,502,20082000000,,-0.000228863577393,0.0143260627528,0.000228863577379,-0.0143260627529
20136000000,503,20136000000,,-0.000229316222038,0.0142964375881,0.000229316222023,-0.0142964375881
20197000000,504,20197000000,,-0.000229842019477,0.0142686332489,0.000229842019462,-0.0142686332489
20212000000,505,20212000000,,-0.000230172155937,0.0142417746023,0.000230172155922,-0.0142417746023
20247000000,506,20247000000,,-0.000230711682138,0.0142225151909,0.000230711682124,-0.0142225151909
20290000000,507,20290000000,,-0.0002312360567,0.0142012173647,0.000231236056686,-0.0142012173647
20342000000,508,20342000000,,-0.000231695363632,0.0141842518399,0.000231695363617,-0.0141842518399
20382000000,509,20382000000,,-0.000232180955377,0.0141685791886,0.000232180955363,-0.0141685791887
20439000000,510,20439000000,,-0.000231973939452,0.0141767924879,0.000231973939437,-0.0141767924879
20444000000,511,20444000000,,-0.000232112171633,0.0141630772834,0.000232112171619,-0.0141630772834
20486000000,512,20486000000,,-0.000232717101359,0.0141244446342,0.000232717101345,-0.0141244446342
20530000000,513,20530000000,,-0.00023361010634,0.0141204405994,0.000233610106325,-0.0141204405995
20572000000,514,20572000000,,-0.000234283188169,0.0141165563099,0.000234283188155,-0.0141165563099
20600000000,515,20600000000,,-0.000234910438256,0.0141195935319,0.000234910438242,-0.0141195935319
20645000000,516,20645000000,,-0.000235493938995,0.0141165647725,0.000235493938981,-0.0141165647725
20683000000,517,20683000000,,-0.000235828751435,0.0141125482685,0.000235828751421,-0.0141125482685
20722000000,518,20722000000,,-0.000236290546552,0.0141111441709,0.000236290546537,-0.014111144171
20790000000,519,20790000000,,-0.000236554218865,0.0141083338892,0.000236554218851,-0.0141083338893
20824000000,520,20824000000,,-0.000236864040935,0.0141122259486,0.000236864040921,-0.0141122259486
20876000000,521,20876000000,,-0.000237118446186,0.0141096372096,0.000237118446172,-0.0141096372096
20899000000,522,20899000000,,-0.0002379544598,0.0141094705725,0.000237954459786,-0.0141094705725
20926000000,523,20926000000,,-0.000238538190649,0.0141091165614,0.000238538190635,-0.0141091165614
20968000000,524,20968000000,,-0.000238994247543,0.0141070679953,0.000238994247529,-0.0141070679954
21007000000,525,21007000000,,-0.000239475904181,0.0141096207171,0.000239475904167,-0.0141096207171
21055000000,526,21055000000,,-0.000239715278856,0.0141055559638,0.000239715278842,-0.0141055559639
21095000000,527,21095000000,,-0.000240074490555,0.0141035035724,0.000240074490542,-0.0141035035725
21148000000,528,21148000000,,-0.000240219743172,0.0140992745665,0.000240219743158,-0.0140992745666
21188000000,529,21188000000,,-0.000240478100941,0.0140995259597,0.000240478100927,-0.0140995259597
21210000000,530,21210000000,,-0.000240605805246,0.0140969159112,0.000240605805232,-0.0140969159112
21268000000,531,21268000000,,-0.000251186352242,0.0140930459747,0.000251186352229,-0.0140930459747
21312000000,532,21312000000,,-0.000259554528251,0.0140870344931,0.000259554528238,-0.0140870344931
21341000000,533,21341000000,,-0.000258088038716,0.014060849047,0.000258088038703,-0.014060849047
21382000000,534,21382000000,,-0.000256073414665,0.0140546428995,0.000256073414651,-0.0140546428995
21424000000,535,21424000000,,-0.000256300906208,0.0140543595818,0.000256300906194,-0.0140543595819
21455000000,536,21455000000,,-0.000257541968645,0.0140550153766,0.000257541968631,-0.0140550153766
21484000000,537,21484000000,,-0.00025911095913,0.01405506759,0.000259110959116,-0.0140550675901
21534000000,538,21534000000,,-0.000260741154127,0.0140544634295,0.000260741154113,-0.0140544634295
21567000000,539,21567000000,,-0.00026237306158,0.0140471670442,0.000262373061566,-0.0140471670442
21613000000,540,21613000000,,-0.000265959779447,0.0140128993282,0.000265959779433,-0.0140128993282
21663000000,541,21663000000,,-0.000267912907839,0.0139806997892,0.000267912907826,-0.0139806997893
21695000000,542,21695000000,,-0.000268290400361,0.0139575950889,0.000268290400348,-0.0139575950889
21724000000,543,21724000000,,-0.000268008126189,0.0139381714783,0.000268008126176,-0.0139381714783
21774000000,544,21774000000,,-0.000265738571674,0.0139216658426,0.000265738571661,-0.0139216658426
21806000000,545,21806000000,,-0.000263487446409,0.0139045323047,0.000263487446396,-0.0139045323047
21867000000,546,21867000000,,-0.000254949100628,0.0138974210464,0.000254949100615,-0.0138974210464
21886000000,547,21886000000,,-0.000249218304411,0.0138875591337,0.000249218304397,-0.0138875591338
21977000000,548,21977000000,,-0.000244988600778,0.0138787363351,0.000244988600765,-0.0138787363352
22024000000,549,22024000000,,-0.000241401169058,0.0138706017883,0.000241401169044,-0.0138706017883
22046000000,550,22046000000,,-0.000250666737511,0.0138819014509,0.000250666737498,-0.0138819014509
22082000000,551,22082000000,,-0.000256513003856,0.0138820744882,0.000256513003843,-0.0138820744882
22110000000,552,22110000000,,-0.000256569452328,0.0138699832734,0.000256569452315,-0.0138699832735
22138000000,553,22138000000,,-0.000253588308237,0.0138530589956,0.000253588308224,-0.0138530589956
22176000000,554,22176000000,,-0.000251083816774,0.0138384138864,0.000251083816761,-0.0138384138864
22211000000,555,22211000000,,-0.000248575419782,0.0138241036785,0.00024857541977,-0.0138241036785
22248000000,556,22248000000,,-0.000246637838887,0.0138108729831,0.000246637838874,-0.0138108729831
22292000000,557,22292000000,,-0.000244268183095,0.0137969277625,0.000244268183082,-0.0137969277625
22337000000,558,22337000000,,-0.000241513051034,0.0137824152695,0.000241513051021,-0.0137824152695
22376000000,559,22376000000,,-0.0002385336203,0.0137675880538,0.000238533620287,-0.0137675880538
22412000000,560,22412000000,,-0.000235247596095,0.0137524752953,0.000235247596082,-0.0137524752953
22453000000,561,22453000000,,-0.000231406752168,0.0137368661691,0.000231406752155,-0.0137368661691
22487000000,562,22487000000,,-0.000228384279885,0.0137225082999,0.000228384279873,-0.0137225082999
22525000000,563,22525000000,,-0.000225248117896,0.0137083707418,0.000225248117883,-0.0137083707418
22576000000,564,22576000000,,-0.00022222084786,0.0136947817616,0.000222220847847,-0.0136947817616
22613000000,565,22613000000,,-0.000219415248058,0.0136818906766,0.000219415248045,-0.0136818906767
22643000000,566,22643000000,,-0.000216679541036,0.0136698423916,0.000216679541023,-0.0136698423916
22699000000,567,22699000000,,-0.000214847341811,0.0136589315108,0.000214847341799,-0.0136589315109
22722000000,568,22722000000,,-0.000213452979364,0.0136492700438,0.000213452979351,-0.0136492700438
22777000000,569,22777000000,,-0.000224774818118,0.0136697736301,0.000224774818106,-0.0136697736301
22834000000,570,22834000000,,-0.000234131522603,0.0136830420665,0.00023413152259,-0.0136830420665
22853000000,571,22853000000,,-0.00024114755697,0.0136913422274,0.000241147556958,-0.0136913422274
22910000000,572,22910000000,,-0.000246163769168,0.0136928809251,0.000246163769155,-0.0136928809251
22924000000,573,22924000000,,-0.000250962131593,0.0136938492799,0.000250962131581,-0.0136938492799
22966000000,574,22966000000,,-0.000252965108963,0.0136896734502,0.00025296510895,-0.0136896734502
23037000000,575,23037000000,,-0.000254855663648,0.0136832361592,0.000254855663635,-0.0136832361592
23069000000,576,23069000000,,-0.000243577348348,0.0136554829392,0.000243577348335,-0.0136554829392
23095000000,577,23095000000,,-0.000241964572596,0.0136459358194,0.000241964572584,-0.0136459358194
23126000000,578,23126000000,,-0.000244097062278,0.0136425331756,0.000244097062266,-0.0136425331756
23163000000,579,23163000000,,-0.000247121430688,0.0136400180298,0.000247121430676,-0.0136400180298
23211000000,580,23211000000,,-0.000250130629055,0.0136370209089,0.000250130629043,-0.013637020909
23252000000,581,23252000000,,-0.000253378654517,0.0136335733733,0.000253378654505,-0.0136335733733
23290000000,582,23290000000,,-0.000256725157038,0.0136298181605,0.000256725157025,-0.0136298181605
23329000000,583,23329000000,,-0.000260349135098,0.0136257497131,0.000260349135085,-0.0136257497131
23362000000,584,23362000000,,-0.000264281295565,0.0136210430971,0.000264281295553,-0.0136210430971
23417000000,585,23417000000,,-0.000268313118178,0.0136158145403,0.000268313118165,-0.0136158145403
23442000000,586,23442000000,,-0.000272460616701,0.0136094326431,0.000272460616689,-0.0136094326431
23505000000,587,23505000000,,-0.000280136061179,0.0135985884023,0.000280136061167,-0.0135985884023
23530000000,588,23530000000,,-0.000285484642939,0.0135599586971,0.000285484642927,-0.0135599586971
23579000000,589,23579000000,,-0.000288300114247,0.0135305317283,0.000288300114235,-0.0135305317283
23626000000,590,23626000000,,-0.000289126222348,0.0135080989911,0.000289126222336,-0.0135080989911
23671000000,591,23671000000,,-0.000288961586003,0.0134890174196,0.000288961585991,-0.0134890174196
23695000000,592,23695000000,,-0.000287383543679,0.0134719515143,0.000287383543667,-0.0134719515143
23732000000,593,23732000000,,-0.000286060817735,0.0134586711475,0.000286060817723,-0.0134586711475
23769000000,594,23769000000,,-0.000287698734694,0.0134430451403,0.000287698734682,-0.0134430451403
23822000000,595,23822000000,,-0.000298631467263,0.013454610341,0.000298631467251,-0.013454610341
23869000000,596,23869000000,,-0.000302473043879,0.013447864664,0.000302473043867,-0.0134478646641
23893000000,597,23893000000,,-0.000303609356896,0.0134346603481,0.000303609356884,-0.0134346603481
23932000000,598,23932000000,,-0.000303640445275,0.0134199775136,0.000303640445264,-0.0134199775136
23972000000,599,23972000000,,-0.00030313640703,0.0134054446015,0.000303136407018,-0.0134054446015
24018000000,600,24018000000,,-0.000302066765944,0.0133911875474,0.000302066765932,-0.0133911875474
