%time,field.header.seq,field.header.stamp,field.header.frame_id,field.angular_velocities0,field.angular_velocities1,field.angular_velocities2,field.angular_velocities3
116000000,1,116000000,,427.0,427.0,427.0,427.0
200000000,2,200000000,,777.100332718,776.899667282,777.100332718,776.899667282
301000000,3,301000000,,416.717719034,416.799436563,416.717719034,416.799436563
400000000,4,400000000,,660.471389284,660.443405734,660.471389284,660.443405734
500000000,5,500000000,,645.444865642,645.478329657,645.444865642,645.478329657
600000000,6,600000000,,601.914015933,601.913492413,601.914015933,601.913492413
700000000,7,700000000,,460.336283899,460.33576038,460.336283899,460.33576038
800000000,8,800000000,,330.371879221,330.371908503,330.371879221,330.371908503
900000000,9,900000000,,287.024833542,287.015296416,287.024833542,287.015296416
1000000000,10,1000000000,,335.984559472,335.972628985,335.984559472,335.972628985
1100000000,11,1100000000,,406.865629656,406.876452154,406.865629656,406.876452154
1201000000,12,1201000000,,455.126198074,455.125618595,455.126198074,455.125618595
1300000000,13,1300000000,,470.606278349,470.584118951,470.606278349,470.584118951
1400000000,14,1400000000,,439.959521216,439.955173138,439.959521216,439.955173138
1506000000,15,1506000000,,419.655211351,419.65129044,419.655211351,419.65129044
1605000000,16,1605000000,,379.053781321,379.050045767,379.053781321,379.050045767
1700000000,17,1700000000,,387.251351392,387.249224332,387.251351392,387.249224332
1800000000,18,1800000000,,399.052996886,399.052713404,399.052996886,399.052713404
1901000000,19,1901000000,,400.788781856,400.788977389,400.788781856,400.788977389
2000000000,20,2000000000,,433.974984911,433.97637735,433.974984911,433.97637735
2100000000,21,2100000000,,428.38944499,428.38850225,428.38944499,428.38850225
2200000000,22,2200000000,,421.357133855,421.357215541,421.357133855,421.357215541
2300000000,23,2300000000,,441.414163078,441.41388186,441.414163078,441.41388186
2400000000,24,2400000000,,408.420406645,408.420063217,408.420406645,408.420063217
2500000000,25,2500000000,,413.795140148,413.794738843,413.795140148,413.794738843
2600000000,26,2600000000,,394.275511779,394.275049386,394.275511779,394.275049386
2700000000,27,2700000000,,426.08964026,426.089322673,426.08964026,426.089322673
2800000000,28,2800000000,,433.16306996,433.161559898,433.16306996,433.161559898
2900000000,29,2900000000,,431.932194475,431.93631117,431.932194475,431.93631117
3000000000,30,3000000000,,439.32982557,439.331940223,439.32982557,439.331940223
3102000000,31,3102000000,,416.137113285,416.132393762,416.137113285,416.132393762
3200000000,32,3200000000,,427.049949133,427.049213136,427.049949133,427.049213136
3300000000,33,3300000000,,435.084737045,435.084001051,435.084737045,435.084001051
3402000000,34,3402000000,,421.612567847,421.611831854,421.612567847,421.611831854
3500000000,35,3500000000,,430.638250326,430.637514333,430.638250326,430.637514333
3602000000,36,3602000000,,430.46292347,430.468783577,430.46292347,430.468783577
3700000000,37,3700000000,,424.005347845,424.007138652,424.005347845,424.007138652
3800000000,38,3800000000,,437.394369598,437.389038272,437.394369598,437.389038272
3905000000,39,3905000000,,440.392192256,440.391486488,440.392192256,440.391486488
4000000000,40,4000000000,,421.352606365,421.358942621,421.352606365,421.358942621
4101000000,41,4101000000,,426.313596786,426.315028334,426.313596786,426.315028334
4200000000,42,4200000000,,429.523082267,429.517938799,429.523082267,429.517938799
4302000000,43,4302000000,,437.337865186,437.337188637,437.337865186,437.337188637
4400000000,44,4400000000,,436.593089589,436.592413042,436.593089589,436.592413042
4500000000,45,4500000000,,433.646851054,433.65172048,433.646851054,433.65172048
4600000000,46,4600000000,,427.392602354,427.393329353,427.392602354,427.393329353
4700000000,47,4700000000,,443.986389996,443.987678976,443.986389996,443.987678976
4801000000,48,4801000000,,429.145354476,429.146608303,429.145354476,429.146608303
4900000000,49,4900000000,,421.306423193,421.307375065,421.306423193,421.307375065
5000000000,50,5000000000,,421.856836984,421.857746781,421.856836984,421.857746781
5100000000,51,5100000000,,429.7941585,429.790235892,429.7941585,429.790235892
5200000000,52,5200000000,,434.043328723,434.042722173,434.043328723,434.042722173
5311000000,53,5311000000,,431.353235062,431.356514813,431.353235062,431.356514813
5400000000,54,5400000000,,443.09952161,443.099824301,443.09952161,443.099824301
5500000000,55,5500000000,,438.766392275,438.763339294,438.766392275,438.763339294
5601000000,56,5601000000,,431.159913264,431.159324261,431.159913264,431.159324261
5701000000,57,5701000000,,422.841864271,422.845418928,422.841864271,422.845418928
5800000000,58,5800000000,,427.236790628,427.237152176,427.236790628,427.237152176
5902000000,59,5902000000,,424.415532397,424.41610217,424.415532397,424.41610217
6001000000,60,6001000000,,429.164577508,429.164886262,429.164577508,429.164886262
6100000000,61,6100000000,,437.501428433,437.498674651,437.501428433,437.498674651
6200000000,62,6200000000,,429.927352961,429.926796593,429.927352961,429.926796593
6300000000,63,6300000000,,436.555868653,436.557966345,436.555868653,436.557966345
6400000000,64,6400000000,,441.357686067,441.358101789,441.357686067,441.358101789
6500000000,65,6500000000,,432.724251975,432.721890483,432.724251975,432.721890483
6600000000,66,6600000000,,430.162608163,430.162063737,430.162608163,430.162063737
6702000000,67,6702000000,,419.085493408,419.087478408,419.085493408,419.087478408
6801000000,68,6801000000,,431.141409356,431.141478024,431.141409356,431.141478024
6900000000,69,6900000000,,430.657740967,430.655652806,430.657740967,430.655652806
7000000000,70,7000000000,,439.684071663,439.683538112,439.684071663,439.683538112
7108000000,71,7108000000,,439.095138192,439.094604641,439.095138192,439.094604641
7200000000,72,7200000000,,431.16922666,431.172470841,431.16922666,431.172470841
7300000000,73,7300000000,,423.763576544,423.764558975,423.763576544,423.764558975
7400000000,74,7400000000,,431.913811512,431.915033012,431.913811512,431.915033012
7505000000,75,7505000000,,426.121285259,426.118038431,426.121285259,426.118038431
7602000000,76,7602000000,,439.848015853,439.851662058,439.848015853,439.851662058
7700000000,77,7700000000,,431.146948316,431.147403577,431.146948316,431.147403577
7800000000,78,7800000000,,444.00534635,444.002415067,444.00534635,444.002415067
7900000000,79,7900000000,,428.129631466,428.129140125,428.129631466,428.129140125
8002000000,80,8002000000,,427.524817902,427.524326562,427.524817902,427.524326562
8114000000,81,8114000000,,430.903742346,430.908256702,430.903742346,430.908256702
8201000000,82,8201000000,,437.882702378,437.884158408,437.882702378,437.884158408
8300000000,83,8300000000,,444.856632021,444.858512367,444.856632021,444.858512367
8400000000,84,8400000000,,426.541574937,426.537124174,426.541574937,426.537124174
8500000000,85,8500000000,,426.811038675,426.810584531,426.811038675,426.810584531
8601000000,86,8601000000,,422.019434957,422.024568277,422.019434957,422.024568277
8700000000,87,8700000000,,429.519630798,429.520805788,429.519630798,429.520805788
8800000000,88,8800000000,,444.15436609,444.150371088,444.15436609,444.150371088
8900000000,89,8900000000,,435.146995778,435.146565994,435.146995778,435.146565994
9000000000,90,9000000000,,436.514248474,436.519773166,436.514248474,436.519773166
9102000000,91,9102000000,,436.00035013,436.002060276,436.00035013,436.002060276
9200000000,92,9200000000,,427.050570776,427.052658495,427.050570776,427.052658495
9300000000,93,9300000000,,426.910325118,426.912108235,426.910325118,426.912108235
9400000000,94,9400000000,,423.709152247,423.704441847,423.709152247,423.704441847
9500000000,95,9500000000,,430.420722793,430.426729387,430.420722793,430.426729387
9601000000,96,9601000000,,429.278207679,429.279058364,429.278207679,429.279058364
9700000000,97,9700000000,,434.708783718,434.704774801,434.708783718,434.704774801
9800000000,98,9800000000,,443.653085673,443.652737867,443.653085673,443.652737867
9901000000,99,9901000000,,432.03805395,432.037706146,432.03805395,432.037706146
10000000000,100,10000000000,,436.801991949,436.806359992,436.801991949,436.806359992
10100000000,101,10100000000,,427.48327075,427.48471499,427.48327075,427.48471499
10202000000,102,10202000000,,429.058065228,429.059482767,429.058065228,429.059482767
10308000000,103,10308000000,,429.245515627,429.242060511,429.245515627,429.242060511
10401000000,104,10401000000,,430.013198419,430.012883073,430.013198419,430.012883073
10505000000,105,10505000000,,437.767793458,437.771647549,437.767793458,437.771647549
10600000000,106,10600000000,,434.951453899,434.952511036,434.951453899,434.952511036
10700000000,107,10700000000,,429.175371846,429.172273826,429.175371846,429.172273826
10800000000,108,10800000000,,437.740132696,437.739836087,437.740132696,437.739836087
10902000000,109,10902000000,,431.285946278,431.290160332,431.285946278,431.290160332
11000000000,110,11000000000,,422.365494734,422.366182208,422.365494734,422.366182208
11100000000,111,11100000000,,428.121828943,428.122844385,428.121828943,428.122844385
11200000000,112,11200000000,,440.897291607,440.894383455,440.897291607,440.894383455
11300000000,113,11300000000,,435.755526876,435.747840484,435.755526876,435.747840484
11400000000,114,11400000000,,433.026299492,433.021632145,433.026299492,433.021632145
11501000000,115,11501000000,,433.227935425,433.235492901,433.227935425,433.235492901
11600000000,116,11600000000,,424.853454125,424.862847502,424.853454125,424.862847502
11705000000,117,11705000000,,417.780014494,417.775701242,417.780014494,417.775701242
11800000000,118,11800000000,,445.992969565,445.982885994,445.992969565,445.982885994
11900000000,119,11900000000,,433.348104914,433.33088216,433.348104914,433.33088216
12000000000,120,12000000000,,435.482012002,435.463012789,435.482012002,435.463012789
12102000000,121,12102000000,,439.584584472,439.567284213,439.584584472,439.567284213
12212000000,122,12212000000,,431.505687516,431.493891755,431.505687516,431.493891755
12300000000,123,12300000000,,437.542187726,437.533668879,437.542187726,437.533668879
12400000000,124,12400000000,,425.952358885,425.945698458,425.952358885,425.945698458
12500000000,125,12500000000,,426.628109961,426.625787251,426.628109961,426.625787251
12600000000,126,12600000000,,433.435230336,433.440481699,433.435230336,433.440481699
12703000000,127,12703000000,,448.996658119,449.004923281,448.996658119,449.004923281
12801000000,128,12801000000,,439.267796661,439.279517677,439.267796661,439.279517677
12900000000,129,12900000000,,433.858686219,433.869487782,433.858686219,433.869487782
13000000000,130,13000000000,,447.403069082,447.414719827,447.403069082,447.414719827
13100000000,131,13100000000,,426.670633087,426.67838203,426.670633087,426.67838203
13203000000,132,13203000000,,419.239138719,419.246721416,419.239138719,419.246721416
13300000000,133,13300000000,,429.316006663,429.323358733,429.316006663,429.323358733
13405000000,134,13405000000,,437.186788677,437.192508215,437.186788677,437.192508215
13501000000,135,13501000000,,446.174274379,446.179525203,446.174274379,446.179525203
13600000000,136,13600000000,,447.24566323,447.249168774,447.24566323,447.249168774
13701000000,137,13701000000,,428.964009294,428.966446232,428.964009294,428.966446232
13800000000,138,13800000000,,426.453191822,426.456654242,426.453191822,426.456654242
13900000000,139,13900000000,,428.328118457,428.328098227,428.328118457,428.328098227
14000000000,140,14000000000,,431.352340586,431.356548118,431.352340586,431.356548118
14113000000,141,14113000000,,436.925947523,436.935431389,436.925947523,436.935431389
14200000000,142,14200000000,,425.747470394,425.760694515,425.747470394,425.760694515
14303000000,143,14303000000,,434.513552265,434.53727619,434.513552265,434.53727619
14400000000,144,14400000000,,439.035986898,439.052530304,439.035986898,439.052530304
14508000000,145,14508000000,,439.677217196,439.700421253,439.677217196,439.700421253
14600000000,146,14600000000,,428.929844498,428.952256439,428.929844498,428.952256439
14700000000,147,14700000000,,435.945012489,435.966254355,435.945012489,435.966254355
14801000000,148,14801000000,,409.324158184,409.344093529,409.324158184,409.344093529
14900000000,149,14900000000,,427.883121924,427.90329874,427.883121924,427.90329874
15001000000,150,15001000000,,437.526494698,437.547655975,437.526494698,437.547655975
15100000000,151,15100000000,,437.235668548,437.196552468,437.235668548,437.196552468
15200000000,152,15200000000,,439.01272157,439.059758769,439.01272157,439.059758769
15300000000,153,15300000000,,431.178834091,431.204577843,431.178834091,431.204577843
15401000000,154,15401000000,,425.954859611,425.9831278,425.954859611,425.9831278
15500000000,155,15500000000,,437.430523045,437.465346709,437.430523045,437.465346709
15600000000,156,15600000000,,432.760276673,432.799180208,432.760276673,432.799180208
15700000000,157,15700000000,,424.232606916,424.268034915,424.232606916,424.268034915
15800000000,158,15800000000,,438.2450166,438.290978441,438.2450166,438.290978441
15904000000,159,15904000000,,430.440562655,430.472639252,430.440562655,430.472639252
16000000000,160,16000000000,,438.122864624,438.158170156,438.122864624,438.158170156
16104000000,161,16104000000,,428.480313716,428.516660114,428.480313716,428.516660114
16200000000,162,16200000000,,436.858094106,436.892997924,436.858094106,436.892997924
16308000000,163,16308000000,,434.130171326,434.166833525,434.130171326,434.166833525
16400000000,164,16400000000,,430.377670263,430.420859683,430.377670263,430.420859683
16500000000,165,16500000000,,455.943303047,455.980017234,455.943303047,455.980017234
16600000000,166,16600000000,,436.917780387,436.953405661,436.917780387,436.953405661
16700000000,167,16700000000,,437.252159882,437.284657412,437.252159882,437.284657412
16800000000,168,16800000000,,411.889548582,411.91406679,411.889548582,411.91406679
16901000000,169,16901000000,,427.705626055,427.72822426,427.705626055,427.72822426
17000000000,170,17000000000,,420.780246263,420.800776336,420.780246263,420.800776336
17100000000,171,17100000000,,442.312949042,442.339074058,442.312949042,442.339074058
17200000000,172,17200000000,,441.633764027,441.662957386,441.633764027,441.662957386
17300000000,173,17300000000,,437.740358451,437.772482146,437.740358451,437.772482146
17400000000,174,17400000000,,435.44326305,435.476218054,435.44326305,435.476218054
17500000000,175,17500000000,,411.981091159,412.013570471,411.981091159,412.013570471
17600000000,176,17600000000,,432.678304011,432.711195085,432.678304011,432.711195085
17700000000,177,17700000000,,432.941124566,432.9753434,432.941124566,432.9753434
17801000000,178,17801000000,,432.972882625,433.001623896,432.972882625,433.001623896
17900000000,179,17900000000,,440.873121416,440.901525344,440.873121416,440.901525344
18001000000,180,18001000000,,447.018520415,447.047258013,447.018520415,447.047258013
18100000000,181,18100000000,,425.299369158,425.326425356,425.299369158,425.326425356
18200000000,182,18200000000,,426.775663773,426.800540669,426.775663773,426.800540669
18300000000,183,18300000000,,432.534077344,432.559801365,432.534077344,432.559801365
18403000000,184,18403000000,,431.02454413,431.049974629,431.02454413,431.049974629
18500000000,185,18500000000,,429.377436151,429.403927174,429.377436151,429.403927174
18600000000,186,18600000000,,432.484573627,432.50933217,432.484573627,432.50933217
18700000000,187,18700000000,,427.994405396,428.021265655,427.994405396,428.021265655
18800000000,188,18800000000,,439.993055217,440.018567651,439.993055217,440.018567651
18900000000,189,18900000000,,434.399083087,434.424120361,434.399083087,434.424120361
19001000000,190,19001000000,,438.070070817,438.09473179,438.070070817,438.09473179
19105000000,191,19105000000,,423.78920409,423.813769342,423.78920409,423.813769342
19200000000,192,19200000000,,430.654022963,430.678703665,430.654022963,430.678703665
19302000000,193,19302000000,,435.711758747,435.736347554,435.711758747,435.736347554
19400000000,194,19400000000,,433.749616704,433.774056809,433.749616704,433.774056809
19500000000,195,19500000000,,437.951247365,437.925215548,437.951247365,437.925215548
19607000000,196,19607000000,,433.856488444,433.912192737,433.856488444,433.912192737
19700000000,197,19700000000,,414.025829144,414.050465182,414.025829144,414.050465182
19800000000,198,19800000000,,428.242598818,428.2670922,428.242598818,428.2670922
19900000000,199,19900000000,,440.688216875,440.71170266,440.688216875,440.71170266
20000000000,200,20000000000,,443.059617891,443.082990719,443.059617891,443.082990719
20100000000,201,20100000000,,435.194423834,435.217670638,435.194423834,435.217670638
20203000000,202,20203000000,,423.113444482,423.13642492,423.113444482,423.13642492
20302000000,203,20302000000,,433.521836432,433.544515754,433.521836432,433.544515754
20400000000,204,20400000000,,427.086468242,427.065443871,427.086468242,427.065443871
20500000000,205,20500000000,,440.86759406,440.876380451,440.86759406,440.876380451
20600000000,206,20600000000,,416.503489941,416.554202425,416.503489941,416.554202425
20700000000,207,20700000000,,436.79450082,436.817062075,436.79450082,436.817062075
20801000000,208,20801000000,,438.63590868,438.658261674,438.63590868,438.658261674
20900000000,209,20900000000,,424.942787785,424.96483952,424.942787785,424.96483952
21002000000,210,21002000000,,432.923248234,432.944880116,432.923248234,432.944880116
21100000000,211,21100000000,,419.550059197,419.571645718,419.550059197,419.571645718
21200000000,212,21200000000,,453.489701258,453.511945893,453.489701258,453.511945893
21300000000,213,21300000000,,425.904458451,425.888249078,425.904458451,425.888249078
21401000000,214,21401000000,,428.158574309,428.167983925,428.158574309,428.167983925
21501000000,215,21501000000,,419.873954891,419.883364528,419.873954891,419.883364528
21601000000,216,21601000000,,429.696458885,429.736995341,429.696458885,429.736995341
21700000000,217,21700000000,,435.563560196,435.582410448,435.563560196,435.582410448
21800000000,218,21800000000,,446.186294375,446.20520313,446.186294375,446.20520313
21900000000,219,21900000000,,432.439784767,432.460326771,432.439784767,432.460326771
22000000000,220,22000000000,,429.675324766,429.664732087,429.675324766,429.664732087
22103000000,221,22103000000,,420.538955424,420.548632804,420.538955424,420.548632804
22202000000,222,22202000000,,426.915272697,426.924950089,426.915272697,426.924950089
22301000000,223,22301000000,,441.142424889,441.152102281,441.142424889,441.152102281
22400000000,224,22400000000,,440.573651644,440.583329031,440.573651644,440.583329031
22500000000,225,22500000000,,427.916242873,427.92592026,427.916242873,427.92592026
22601000000,226,22601000000,,431.633823869,431.643501266,431.633823869,431.643501266
22700000000,227,22700000000,,425.874059774,425.883737174,425.874059774,425.883737174
22803000000,228,22803000000,,441.947561223,441.977013989,441.947561223,441.977013989
22901000000,229,22901000000,,423.300272227,423.314806751,423.300272227,423.314806751
23004000000,230,23004000000,,438.543397686,438.560293676,438.543397686,438.560293676
23100000000,231,23100000000,,428.61047718,428.606916642,428.61047718,428.606916642
23200000000,232,23200000000,,437.312293725,437.322100884,437.312293725,437.322100884
23300000000,233,23300000000,,438.088195971,438.098003133,438.088195971,438.098003133
23401000000,234,23401000000,,426.390950146,426.400757313,426.390950146,426.400757313
23501000000,235,23501000000,,437.299430464,437.309237635,437.299430464,437.309237635
23600000000,236,23600000000,,421.61218851,421.642318784,421.61218851,421.642318784
23700000000,237,23700000000,,431.61947977,431.637137347,431.61947977,431.637137347
23800000000,238,23800000000,,439.34545508,439.341228461,439.34545508,439.341228461
23901000000,239,23901000000,,441.206492291,441.216390847,441.206492291,441.216390847
24000000000,240,24000000000,,429.205441546,429.21534011,429.205441546,429.21534011
24100000000,241,24100000000,,413.871021471,413.880920038,413.871021471,413.880920038
24201000000,242,24201000000,,421.590638329,421.623542287,421.590638329,421.623542287
24300000000,243,24300000000,,444.832632767,444.85163951,444.832632767,444.85163951
24400000000,244,24400000000,,430.827655385,430.841417824,430.827655385,430.841417824
24500000000,245,24500000000,,446.944884493,446.957648375,446.944884493,446.957648375
24600000000,246,24600000000,,416.99026989,417.003565272,416.99026989,417.003565272
24700000000,247,24700000000,,437.771805169,437.772688801,437.771805169,437.772688801
24800000000,248,24800000000,,421.187430785,421.197545607,421.187430785,421.197545607
24900000000,249,24900000000,,413.140349336,413.15950979,413.140349336,413.15950979
25001000000,250,25001000000,,448.320725026,448.333259501,448.320725026,448.333259501
25102000000,251,25102000000,,430.196829023,430.201442385,430.196829023,430.201442385
25204000000,252,25204000000,,440.691604856,440.701758573,440.691604856,440.701758573
25300000000,253,25300000000,,431.456534412,431.466688131,431.456534412,431.466688131
25400000000,254,25400000000,,437.836285499,437.860487793,437.836285499,437.860487793
25501000000,255,25501000000,,422.115143575,422.130876776,422.115143575,422.130876776
25600000000,256,25600000000,,442.083675276,442.083883057,442.083675276,442.083883057
25700000000,257,25700000000,,432.269628142,432.279846375,432.269628142,432.279846375
25800000000,258,25800000000,,434.651390393,434.661608632,434.651390393,434.661608632
25900000000,259,25900000000,,429.578616774,429.494886989,429.578616774,429.494886989
26000000000,260,26000000000,,424.556820352,424.57832622,424.556820352,424.57832622
26100000000,261,26100000000,,428.016163483,428.117669042,428.016163483,428.117669042
26200000000,262,26200000000,,442.755074326,442.918913714,442.755074326,442.918913714
26302000000,263,26302000000,,445.653536806,445.817819043,445.653536806,445.817819043
26401000000,264,26401000000,,415.297908961,415.502348964,415.297908961,415.502348964
26500000000,265,26500000000,,433.960334119,434.154091982,433.960334119,434.154091982
26600000000,266,26600000000,,435.782885305,435.94779321,435.782885305,435.94779321
26700000000,267,26700000000,,443.336632611,443.468214571,443.336632611,443.468214571
26800000000,268,26800000000,,429.689219623,429.803475827,429.689219623,429.803475827
26902000000,269,26902000000,,430.903241067,431.000782717,430.903241067,431.000782717
27000000000,270,27000000000,,426.757816542,426.812951487,426.757816542,426.812951487
27101000000,271,27101000000,,437.970085413,438.013935479,437.970085413,438.013935479
27200000000,272,27200000000,,439.107061064,439.139271128,439.107061064,439.139271128
27305000000,273,27305000000,,431.719490666,431.735306955,431.719490666,431.735306955
27400000000,274,27400000000,,439.386619153,439.385290781,439.386619153,439.385290781
27502000000,275,27502000000,,448.150375291,448.149110737,448.150375291,448.149110737
27601000000,276,27601000000,,428.34546255,428.347309712,428.34546255,428.347309712
27710000000,277,27710000000,,437.548533636,437.574117897,437.548533636,437.574117897
27800000000,278,27800000000,,405.542065646,405.540834937,405.542065646,405.540834937
27900000000,279,27900000000,,440.618267772,440.669260718,440.618267772,440.669260718
28000000000,280,28000000000,,425.234880259,425.313627801,425.234880259,425.313627801
28100000000,281,28100000000,,441.993017229,442.024268451,441.993017229,442.024268451
28201000000,282,28201000000,,434.934664826,434.876791059,434.934664826,434.876791059
28300000000,283,28300000000,,435.394467123,435.306832337,435.394467123,435.306832337
28400000000,284,28400000000,,436.977774945,436.868266041,436.977774945,436.868266041
28500000000,285,28500000000,,421.616338057,421.510980468,421.616338057,421.510980468
28600000000,286,28600000000,,424.949812314,424.856330325,424.949812314,424.856330325
28700000000,287,28700000000,,434.287711355,434.183408945,434.287711355,434.183408945
28800000000,288,28800000000,,428.357812899,428.324239951,428.357812899,428.324239951
28924000000,289,28924000000,,435.317991266,435.30961023,435.317991266,435.30961023
29008000000,290,29008000000,,449.053402228,449.027222837,449.053402228,449.027222837
29100000000,291,29100000000,,432.544976493,432.569784392,432.544976493,432.569784392
29200000000,292,29200000000,,426.488626665,426.590517289,426.488626665,426.590517289
29300000000,293,29300000000,,424.201741917,424.319980632,424.201741917,424.319980632
29400000000,294,29400000000,,428.400133037,428.35452834,428.400133037,428.35452834
29500000000,295,29500000000,,426.8885125,426.816793076,426.8885125,426.816793076
29600000000,296,29600000000,,432.322077436,432.227166252,432.322077436,432.227166252
29703000000,297,29703000000,,438.21590429,438.125246049,438.21590429,438.125246049
29800000000,298,29800000000,,452.083304677,451.974409967,452.083304677,451.974409967
29905000000,299,29905000000,,428.266225029,428.183003913,428.266225029,428.183003913
30001000000,300,30001000000,,427.16802113,427.092256321,427.16802113,427.092256321
30100000000,301,30100000000,,435.121588975,435.057827909,435.121588975,435.057827909
30202000000,302,30202000000,,440.537199793,440.514548901,440.537199793,440.514548901
30300000000,303,30300000000,,432.244371904,432.227852435,432.244371904,432.227852435
30401000000,304,30401000000,,436.236557178,436.237146785,436.236557178,436.237146785
30507000000,305,30507000000,,441.305416819,441.320155839,441.305416819,441.320155839
30601000000,306,30601000000,,424.12591629,424.085578461,424.12591629,424.085578461
30700000000,307,30700000000,,451.044791897,451.03260197,451.044791897,451.03260197
30800000000,308,30800000000,,431.549393514,431.670365456,431.549393514,431.670365456
30900000000,309,30900000000,,437.747245295,437.906963128,437.747245295,437.906963128
31000000000,310,31000000000,,440.634006648,440.813563707,440.634006648,440.813563707
31105000000,311,31105000000,,432.234817231,432.437576538,432.234817231,432.437576538
31200000000,312,31200000000,,426.205722326,426.415693734,426.205722326,426.415693734
31301000000,313,31301000000,,419.827785246,419.994143561,419.827785246,419.994143561
31400000000,314,31400000000,,448.312352643,448.431432013,448.312352643,448.431432013
31501000000,315,31501000000,,435.083095723,435.171283283,435.083095723,435.171283283
31602000000,316,31602000000,,414.53132658,414.598341439,414.53132658,414.598341439
31701000000,317,31701000000,,425.851299946,425.894948077,425.851299946,425.894948077
31800000000,318,31800000000,,432.922663122,432.949129069,432.922663122,432.949129069
31901000000,319,31901000000,,435.623214164,435.630344865,435.623214164,435.630344865
32000000000,320,32000000000,,433.620005389,433.615243083,433.620005389,433.615243083
32100000000,321,32100000000,,425.902460025,425.87783699,425.902460025,425.87783699
32200000000,322,32200000000,,446.927208641,446.91719055,446.927208641,446.91719055
