%time,field.header.seq,field.header.stamp,field.header.frame_id,field.angular_velocities0,field.angular_velocities1,field.angular_velocities2,field.angular_velocities3
127000000,0,127000000,,427.0,427.0,427.0,427.0
258000000,1,258000000,,777.1002447,776.899603733,777.100420737,776.899730831
320000000,2,320000000,,416.717659726,416.799444432,416.717778341,416.799428695
400000000,3,400000000,,660.471340794,660.443431922,660.471437774,660.443379545
520000000,4,520000000,,645.444856477,645.47833209,645.444874806,645.478327223
640000000,5,640000000,,601.914005336,601.91349232,601.91402653,601.913492507
720000000,6,720000000,,460.336271876,460.335756611,460.336295923,460.335764149
840000000,7,840000000,,330.371775942,330.371806054,330.3719825,330.372010952
920000000,8,920000000,,287.024659305,287.015158007,287.025007778,287.015434825
1000000000,9,1000000000,,335.984345131,335.972488429,335.984773813,335.97276954
1120000000,10,1120000000,,406.865411976,406.876301664,406.865847337,406.876602644
1240000000,11,1240000000,,455.125972668,455.125459058,455.126423481,455.125778133
1324000000,12,1324000000,,470.606065913,470.584010451,470.606490785,470.584227451
1442000000,13,1442000000,,439.959349476,439.955148563,439.959692956,439.955197712
1521000000,14,1521000000,,419.655066176,419.651296826,419.655356525,419.651284055
1642000000,15,1642000000,,379.053673869,379.050076484,379.053888772,379.050015049
1721000000,16,1721000000,,387.251275299,387.249261251,387.251427486,387.249187413
1840000000,17,1840000000,,399.052957886,399.052752264,399.053035886,399.052674545
1920000000,18,1920000000,,400.788756475,400.789012817,400.788807238,400.788941961
2000000000,19,2000000000,,433.974955777,433.976430842,433.975014046,433.976323859
2120000000,20,2120000000,,428.389437397,428.388526252,428.389452583,428.388478248
2240000000,21,2240000000,,421.357134187,421.357211061,421.357133524,421.357220021
2320000000,22,2320000000,,441.414162479,441.41386429,441.414163678,441.41389943
2440000000,23,2440000000,,408.420401717,408.420031863,408.420411573,408.420094571
2520000000,24,2520000000,,413.795130101,413.794702169,413.795150194,413.794775516
2641000000,25,2641000000,,394.275493701,394.275008606,394.275529856,394.275090167
2721000000,26,2721000000,,426.089616111,426.089281658,426.089664409,426.089363688
2840000000,27,2840000000,,433.163068973,433.161517316,433.163070947,433.161602479
2920000000,28,2920000000,,431.932167253,431.936285183,431.932221696,431.936337156
3000000000,29,3000000000,,439.32977213,439.331936212,439.32987901,439.331944235
3120000000,30,3120000000,,416.137045622,416.13240313,416.137180948,416.132384393
3206000000,31,3206000000,,427.049885648,427.049192736,427.050012618,427.049233536
3320000000,32,3320000000,,435.08465575,435.083995033,435.084818339,435.084007068
3440000000,33,3440000000,,421.612476017,421.611839328,421.612659676,421.611824379
3521000000,34,3521000000,,430.638155259,430.637531551,430.638345393,430.637497115
3640000000,35,3640000000,,430.462884695,430.468818298,430.462962245,430.468748855
3721000000,36,3721000000,,424.005319804,424.007171266,424.005375885,424.007106038
3840000000,37,3840000000,,437.394322404,437.389084744,437.394416791,437.3889918
3930000000,38,3930000000,,440.392152155,440.391534512,440.392232356,440.391438463
4000000000,39,4000000000,,421.352583916,421.358938096,421.352628814,421.358947147
4121000000,40,4121000000,,426.313579923,426.314986993,426.313613649,426.315069676
4200000000,41,4200000000,,429.523069621,429.517912634,429.523094913,429.517964964
4321000000,42,4321000000,,437.337861505,437.337149882,437.337868866,437.337227392
4440000000,43,4440000000,,436.593086093,436.592352598,436.593093085,436.592473486
4520000000,44,4520000000,,433.646842968,433.651646497,433.64685914,433.651794463
4600000000,45,4600000000,,427.39254401,427.393265743,427.392660697,427.393392962
4720000000,46,4720000000,,443.986310506,443.987631863,443.986469487,443.987726089
4846000000,47,4846000000,,429.145275836,429.146578632,429.145433117,429.146637974
4921000000,48,4921000000,,421.306348896,421.307355716,421.30649749,421.307394414
5000000000,49,5000000000,,421.856767034,421.857735792,421.856906934,421.857757769
5120000000,50,5120000000,,429.794072019,429.790210891,429.794244982,429.790260894
5240000000,51,5240000000,,434.043241663,434.042711408,434.043415784,434.042732938
5320000000,52,5320000000,,431.353179732,431.356525317,431.353290393,431.356504309
5400000000,53,5400000000,,443.099498519,443.099850446,443.099544701,443.099798157
5520000000,54,5520000000,,438.766354756,438.763376515,438.766429794,438.763302072
5641000000,55,5641000000,,431.159893818,431.159373917,431.159932711,431.159274605
5721000000,56,5721000000,,422.841858775,422.845441063,422.841869767,422.845396792
5800000000,57,5800000000,,427.236790473,427.237135194,427.236790782,427.237169157
5921000000,58,5921000000,,424.415525163,424.41606653,424.41553963,424.416137811
6040000000,59,6040000000,,429.164560072,429.164843344,429.164594945,429.164929181
6120000000,60,6120000000,,437.50143605,437.49864225,437.501420817,437.498707052
6240000000,61,6240000000,,429.927356819,429.926750899,429.927349104,429.926842288
6320000000,62,6320000000,,436.555816968,436.557925802,436.555920339,436.558006888
6441000000,63,6441000000,,441.357609004,441.358070512,441.357763129,441.358133066
6520000000,64,6520000000,,432.724184584,432.721843662,432.724319367,432.721937304
6640000000,65,6640000000,,430.162528165,430.162012484,430.162688161,430.162114991
6720000000,66,6720000000,,419.085415033,419.087458774,419.085571782,419.087498041
6840000000,67,6840000000,,431.141342085,431.141496688,431.141476627,431.141459359
6920000000,68,6920000000,,430.657678285,430.655683183,430.657803649,430.655622428
7000000000,69,7000000000,,439.683984469,439.683559571,439.684158857,439.683516652
7120000000,70,7120000000,,439.095053206,439.094641922,439.095223178,439.09456736
7240000000,71,7240000000,,431.169194646,431.172501025,431.169258674,431.172440657
7331000000,72,7331000000,,423.763563194,423.764578341,423.763589894,423.764539608
7442000000,73,7442000000,,431.913803289,431.915037725,431.913819736,431.9150283
7520000000,74,7520000000,,426.12127749,426.118069634,426.121293029,426.118007227
7640000000,75,7640000000,,439.848000121,439.85164482,439.848031585,439.851679295
7720000000,76,7720000000,,431.14692403,431.147362216,431.146972602,431.147444939
7840000000,77,7840000000,,444.00533635,444.002377095,444.005356351,444.002453039
7920000000,78,7920000000,,428.129627045,428.129095023,428.129635887,428.129185228
8040000000,79,8040000000,,427.524812347,427.524265646,427.524823457,427.524387479
8125000000,80,8125000000,,430.903707456,430.908205897,430.903777236,430.908307507
8244000000,81,8244000000,,437.882626816,437.884136979,437.88277794,437.884179837
8321000000,82,8321000000,,444.85655491,444.858501093,444.856709133,444.858523641
8440000000,83,8440000000,,426.541494835,426.537089269,426.54165504,426.537159079
8520000000,84,8520000000,,426.810951214,426.810556055,426.811126136,426.810613007
8640000000,85,8640000000,,422.019374422,422.024586807,422.019495493,422.024549746
8727000000,86,8727000000,,429.519584085,429.520840684,429.519677512,429.520770892
8840000000,87,8840000000,,444.154298152,444.15040733,444.154434028,444.150334846
8920000000,88,8920000000,,435.146932454,435.146613327,435.147059101,435.14651866
9040000000,89,9040000000,,436.514215685,436.519812084,436.514281262,436.519734248
9120000000,90,9120000000,,436.000339254,436.00207403,436.000361007,436.002046522
9240000000,91,9240000000,,427.050565307,427.052649999,427.050576246,427.052666992
9320000000,92,9320000000,,426.910316657,426.912090801,426.910333578,426.912125668
9440000000,93,9440000000,,423.7091603,423.704445343,423.709144194,423.704438351
9520000000,94,9520000000,,430.420732589,430.426719694,430.420712997,430.426739081
9640000000,95,9640000000,,429.278166494,429.279005904,429.278248865,429.279110823
9720000000,96,9720000000,,434.70873076,434.704714597,434.708836677,434.704835006
9840000000,97,9840000000,,443.653052444,443.652667704,443.653118902,443.652808031
9920000000,98,9920000000,,432.038010934,432.037628246,432.038096965,432.037784046
10040000000,99,10040000000,,436.801914506,436.806333699,436.802069392,436.806386285
10120000000,100,10120000000,,427.483190917,427.484706499,427.483350584,427.484723482
10250000000,101,10250000000,,429.05799118,429.059490379,429.058139276,429.059475156
10321000000,102,10321000000,,429.245430821,429.242054138,429.245600433,429.242066883
10449000000,103,10449000000,,430.013103951,430.012883902,430.013292887,430.012882244
10521000000,104,10521000000,,437.767728721,437.771664116,437.767858196,437.771630982
10640000000,105,10640000000,,434.951432349,434.952533166,434.951475449,434.952488906
10725000000,106,10725000000,,429.175335405,429.172304973,429.175408287,429.172242679
10800000000,107,10800000000,,437.740099208,437.739875916,437.740166183,437.739796259
10920000000,108,10920000000,,431.285935122,431.290172881,431.285957435,431.290147784
11000000000,109,11000000000,,422.365493216,422.366154651,422.365496252,422.366209765
11121000000,110,11121000000,,428.12182438,428.122798589,428.121833505,428.122890181
11200000000,111,11200000000,,440.897298706,440.894351108,440.897284508,440.894415802
11320000000,112,11320000000,,435.755514779,435.746905685,435.755538972,435.748775283
11441000000,113,11441000000,,433.026251448,433.019004847,433.026347536,433.024259444
11520000000,114,11520000000,,433.227880035,433.232165182,433.227990816,433.23882062
11640000000,115,11640000000,,424.853396862,424.85931497,424.853511388,424.866380033
11722000000,116,11722000000,,417.779957339,417.77276682,417.780071649,417.778635664
11800000000,117,11800000000,,445.992912571,445.980995449,445.993026559,445.984776539
11920000000,118,11920000000,,433.348047663,433.331165546,433.348162166,433.330598774
12000000000,119,12000000000,,435.481953812,435.464844084,435.482070192,435.461181495
12120000000,120,12120000000,,439.584525673,439.571772323,439.584643272,439.562796102
12243000000,121,12243000000,,431.505624262,431.500965824,431.50575077,431.486817687
12320000000,122,12320000000,,437.542122952,437.542461158,437.542252501,437.524876599
12440000000,123,12440000000,,425.952291284,425.956787484,425.952426485,425.934609432
12521000000,124,12521000000,,426.628040675,426.638281088,426.628179246,426.613293414
12640000000,125,12640000000,,433.435157937,433.454861291,433.435302735,433.426102106
12720000000,126,12720000000,,448.996583113,449.020445373,448.996733126,448.989401189
12801000000,127,12801000000,,439.267718557,439.296166417,439.267874765,439.262868936
12920000000,128,12920000000,,433.858601665,433.887506676,433.858770772,433.851468887
13000000000,129,13000000000,,447.402980118,447.43367114,447.403158045,447.395768515
13120000000,130,13120000000,,426.670536568,426.69872064,426.670729606,426.658043421
13203000000,131,13203000000,,419.239036898,419.268038892,419.23924054,419.225403939
13323000000,132,13323000000,,429.31589636,429.346201646,429.316116966,429.30051582
13440000000,133,13440000000,,437.186669431,437.21691131,437.186907924,437.168105121
13520000000,134,13520000000,,446.174149284,446.205015623,446.174399474,446.154034784
13640000000,135,13640000000,,447.245529308,447.276398144,447.245797151,447.221939404
13722000000,136,13722000000,,428.963869728,428.994891914,428.964148859,428.938000551
13845000000,137,13845000000,,426.453035447,426.48842554,426.453348197,426.424882945
13921000000,138,13921000000,,428.327953795,428.362183069,428.32828312,428.294013385
14040000000,139,14040000000,,431.352167469,431.393380845,431.352513704,431.319715392
14120000000,140,14120000000,,436.925770176,436.973432209,436.92612487,436.89743057
14240000000,141,14240000000,,425.747287463,425.799587482,425.747653325,425.721801548
14321000000,142,14321000000,,434.513366081,434.576070596,434.513738449,434.498481785
14400000000,143,14400000000,,439.035797018,439.091218273,439.036176777,439.013842336
14520000000,144,14520000000,,439.677022182,439.738179902,439.67741221,439.662662605
14640000000,145,14640000000,,428.929644391,428.98911019,428.930044605,428.915402688
14721000000,146,14721000000,,435.944808798,436.002508238,435.94521618,435.930000472
14801000000,147,14801000000,,409.323951497,409.379813949,409.324364872,409.308373108
14920000000,148,14920000000,,427.882911276,427.938369456,427.883332571,427.868228025
15001000000,149,15001000000,,437.526281263,437.582352255,437.526708133,437.512959696
15120000000,150,15120000000,,437.235451138,437.231247197,437.235885958,437.16185774
15240000000,151,15240000000,,439.012500677,439.096102005,439.012942462,439.023415532
15320000000,152,15320000000,,431.178611159,431.241905656,431.179057023,431.167250031
15440000000,153,15440000000,,425.954634208,426.021364508,425.955085015,425.944891093
15520000000,154,15520000000,,437.430296301,437.503332587,437.43074979,437.42736083
15640000000,155,15640000000,,432.760048525,432.836109001,432.760504821,432.762251414
15729000000,156,15729000000,,424.232378199,424.303834419,424.232835633,424.232235412
15840000000,157,15840000000,,438.2447878,438.324254168,438.245245401,438.257702714
15920000000,158,15920000000,,430.44033346,430.504424425,430.440791851,430.44085408
16000000000,159,16000000000,,438.122635383,438.188282755,438.123093865,438.128057557
16120000000,160,16120000000,,428.480084789,428.544168423,428.480542643,428.489151805
16201000000,161,16201000000,,436.857865961,436.918817797,436.85832225,436.86717805
16321000000,162,16321000000,,434.129945416,434.19020534,434.130397235,434.143461711
16440000000,163,16440000000,,430.377446637,430.440499726,430.377893889,430.40121964
16520000000,164,16520000000,,455.943081676,455.997228258,455.943524419,455.96280621
16640000000,165,16640000000,,436.917563231,436.967433535,436.917997543,436.939377787
16720000000,166,16720000000,,437.251945752,437.29735808,437.252374011,437.271956744
16841000000,167,16841000000,,411.889339151,411.926295901,411.889758013,411.901837678
16920000000,168,16920000000,,427.705419504,427.740682723,427.705832606,427.715765797
17001000000,169,17001000000,,420.780041854,420.81375004,420.780450672,420.787802633
17120000000,170,17120000000,,442.312746393,442.353372636,442.31315169,442.32477548
17240000000,171,17240000000,,441.633564933,441.678213613,441.633963121,441.647701158
17320000000,172,17320000000,,437.740160306,437.788303925,437.740556596,437.756660367
17442000000,173,17442000000,,435.443065574,435.492673913,435.443460526,435.459762195
17520000000,174,17520000000,,411.980893634,412.030319947,411.981288683,411.996820996
17640000000,175,17640000000,,432.678105941,432.728087199,432.678502081,432.694302971
17720000000,176,17720000000,,432.940925277,432.992176944,432.941323856,432.958509857
17840000000,177,17840000000,,432.972680977,433.018186465,432.973084273,432.985061327
17920000000,178,17920000000,,440.872917832,440.917758615,440.873324999,440.885292073
18044000000,179,18044000000,,447.01831278,447.062883617,447.018728051,447.03163241
18120000000,180,18120000000,,425.299159327,425.341590783,425.29957899,425.311259929
18200000000,181,18200000000,,426.775452285,426.815394074,426.775875262,426.785687265
18320000000,182,18320000000,,432.533862781,432.574263436,432.534291908,432.545339293
18442000000,183,18442000000,,431.02432681,431.06414339,431.02476145,431.035805869
18523000000,184,18523000000,,429.377217388,429.417971331,429.377654914,429.389883016
18600000000,185,18600000000,,432.484352591,432.523358268,432.484794662,432.495306071
18720000000,186,18720000000,,427.994184106,428.035316261,427.994626685,428.00721505
18840000000,187,18840000000,,439.992833695,440.032729464,439.993276739,440.004405839
18922000000,188,18922000000,,434.398861194,434.438394659,434.39930498,434.409846063
19041000000,189,19041000000,,438.069848491,438.109187069,438.070293144,438.08027651
19122000000,190,19122000000,,423.788981516,423.82833909,423.789426664,423.799199594
19240000000,191,19240000000,,430.653800164,430.693404389,430.654245762,430.664002942
19320000000,192,19320000000,,435.711535877,435.751102382,435.711981618,435.721592727
19440000000,193,19440000000,,433.749393206,433.788853147,433.749840201,433.759260471
19520000000,194,19520000000,,437.951023817,437.939981281,437.951470912,437.910449814
19642000000,195,19642000000,,433.856265154,433.926948638,433.856711735,433.897436836
19726000000,196,19726000000,,414.02560545,414.065151938,414.026052839,414.035778426
19840000000,197,19840000000,,428.242373781,428.281657726,428.242823854,428.252526674
19920000000,198,19920000000,,440.68799083,440.726204069,440.68844292,440.697201252
20040000000,199,20040000000,,443.059390102,443.097381588,443.059845681,443.06859985
20120000000,200,20120000000,,435.194194971,435.231996701,435.194652698,435.203344576
20241000000,201,20241000000,,423.11321431,423.150666695,423.113674654,423.122183145
20323000000,202,20323000000,,433.521605196,433.558716971,433.522067668,433.530314536
20440000000,203,20440000000,,427.086236268,427.079620663,427.086700216,427.051267078
20521000000,204,20521000000,,440.867361343,440.890504896,440.867826777,440.862256007
20640000000,205,20640000000,,416.503255031,416.568322019,416.503724852,416.540082832
20720000000,206,20720000000,,436.794264991,436.831174624,436.794736648,436.802949527
20846000000,207,20846000000,,438.635671816,438.6723739,438.636145544,438.644149448
20920000000,208,20920000000,,424.94254983,424.978948991,424.943025739,424.95073005
21042000000,209,21042000000,,432.923008759,432.958989736,432.92348771,432.930770495
21120000000,210,21120000000,,419.549819123,419.585749222,419.550299272,419.557542215
21200000000,211,21200000000,,453.48946078,453.526045418,453.489941736,453.497846367
21320000000,212,21320000000,,425.904198897,425.902336112,425.904718006,425.874162043
21440000000,213,21440000000,,428.158318008,428.182038284,428.15883061,428.153929565
21520000000,214,21520000000,,419.87369578,419.897419596,419.874214002,419.869309461
21602000000,215,21602000000,,429.696196512,429.751042508,429.696721258,429.722948174
21720000000,216,21720000000,,435.563291906,435.596368043,435.563828486,435.568452852
21800000000,217,21800000000,,446.186028636,446.219124796,446.186560113,446.191281464
21921000000,218,21921000000,,432.439535549,432.474214331,432.440033986,432.446439212
22024000000,219,22024000000,,429.675083365,429.678602689,429.675566168,429.650861485
22122000000,220,22122000000,,420.538698854,420.562502787,420.539211993,420.534762821
22243000000,221,22243000000,,426.915024122,426.938774193,426.915521273,426.911125986
22320000000,222,22320000000,,441.142180621,441.165899208,441.142669157,441.138305353
22441000000,223,22441000000,,440.573416397,440.597081507,440.573886892,440.569576556
22520000000,224,22520000000,,427.916014488,427.939642768,427.916471257,427.912197752
22640000000,225,22640000000,,431.633604454,431.657183157,431.634043284,431.629819376
22720000000,226,22720000000,,425.873844927,425.897396106,425.874274621,425.870078243
22803000000,227,22803000000,,441.947336448,441.990683762,441.947785997,441.963344215
22920000000,228,22920000000,,423.300026063,423.328499632,423.300518391,423.30111387
23040000000,229,23040000000,,438.54314283,438.573976912,438.543652542,438.54661044
23120000000,230,23120000000,,428.610235216,428.620562577,428.610719145,428.593270706
23240000000,231,23240000000,,437.312043595,437.335737905,437.312543856,437.308463863
23320000000,232,23320000000,,438.087939245,438.111632952,438.088452696,438.084373315
23442000000,233,23442000000,,426.390681833,426.414373128,426.391218459,426.387141499
23520000000,234,23520000000,,437.299150328,437.322836223,437.2997106,437.295639047
23600000000,235,23600000000,,421.61190021,421.655849316,421.61247681,421.628788253
23720000000,236,23720000000,,431.619192386,431.650609298,431.619767153,431.623665395
23800000000,237,23800000000,,439.345167381,439.354671506,439.345742778,439.327785416
23920000000,238,23920000000,,441.206188682,441.229825507,441.2067959,441.202956187
24040000000,239,24040000000,,429.205139479,429.228731298,429.205743613,429.201948923
24142000000,240,24142000000,,413.870723928,413.894283156,413.871319013,413.867556921
24240000000,241,24240000000,,421.590378514,421.636883013,421.590898144,421.610201562
24320000000,242,24320000000,,444.832401172,444.864980882,444.832864361,444.838298137
24440000000,243,24440000000,,430.827433875,430.854751987,430.827876895,430.82808366
24520000000,244,24520000000,,446.944658858,446.970975246,446.945110127,446.944321503
24640000000,245,24640000000,,416.990034447,417.016879337,416.990505333,416.990251206
24727000000,246,24727000000,,437.771584256,437.785978053,437.772026081,437.759399549
24800000000,247,24800000000,,421.187218059,421.210820669,421.187643512,421.184270546
24920000000,248,24920000000,,413.140102051,413.172782154,413.140596621,413.146237425
25001000000,249,25001000000,,448.320442553,448.346525942,448.321007499,448.319993061
25122000000,250,25122000000,,430.196554254,430.214692762,430.197103792,430.188192007
25241000000,251,25241000000,,440.691319413,440.714995697,440.691890299,440.688521448
25320000000,252,25320000000,,431.456237756,431.47991009,431.456831067,431.453466173
25443000000,253,25443000000,,437.835978963,437.87362643,437.836592036,437.847349156
25520000000,254,25520000000,,422.114836792,422.143985366,422.115450358,422.117768185
25640000000,255,25640000000,,442.083345434,442.096988748,442.084005118,442.070777366
25720000000,256,25720000000,,432.269292939,432.29293232,432.269963345,432.26676043
25840000000,257,25840000000,,434.650700707,434.674661366,434.652080079,434.648555897
25920000000,258,25920000000,,429.576888328,429.50791936,429.580345219,429.481854619
26040000000,259,26040000000,,424.553646099,424.591375289,424.559994605,424.565277152
26120000000,260,26120000000,,428.0125036,428.130713732,428.019823366,428.104624352
26240000000,261,26240000000,,442.751437993,442.931942865,442.758710659,442.905884563
26320000000,262,26320000000,,445.650393258,445.830833941,445.656680353,445.804804144
26440000000,263,26440000000,,415.296073306,415.515340415,415.299744616,415.489357514
26520000000,264,26520000000,,433.959723407,434.167069415,433.960944831,434.141114548
26641000000,265,26641000000,,435.784307131,435.96074826,435.781463478,435.93483816
26720000000,266,26720000000,,443.339534326,443.481155926,443.333730897,443.455273216
26840000000,267,26840000000,,429.694536339,429.816398636,429.683902907,429.790553018
26922000000,268,26922000000,,430.910149901,431.013693931,430.896332233,430.987871502
27043000000,269,27043000000,,426.767076656,426.825846564,426.748556427,426.800056409
27122000000,270,27122000000,,437.980894989,438.026818898,437.959275838,438.00105206
27240000000,271,27240000000,,439.1201132,439.152137737,439.094008927,439.126404519
27321000000,272,27321000000,,431.733981626,431.748163096,431.704999707,431.722450815
27440000000,273,27440000000,,439.403170172,439.398133644,439.370068134,439.372447918
27523000000,274,27523000000,,448.168228601,448.161945017,448.132521982,448.136276458
27643000000,275,27643000000,,428.365112242,428.360132199,428.325812858,428.334487226
27721000000,276,27721000000,,437.569410302,437.586933049,437.52765697,437.561302746
27843000000,277,27843000000,,405.56460685,405.553641395,405.519524442,405.528028478
27920000000,278,27920000000,,440.642269091,440.682061083,440.594266452,440.656460353
28000000000,279,28000000000,,425.26106243,425.326419946,425.208698088,425.300835656
28120000000,280,28120000000,,442.022249324,442.037046775,441.963785135,442.011490128
28240000000,281,28240000000,,434.966017192,434.889558098,434.90331246,434.864024021
28320000000,282,28320000000,,435.426817831,435.319591512,435.362116415,435.294073163
28442000000,283,28442000000,,437.010830197,436.881012085,436.944719693,436.855519998
28522000000,284,28522000000,,421.649558927,421.52371662,421.583117187,421.498244317
28600000000,285,28600000000,,424.982966115,424.869063441,424.916658514,424.843597209
28720000000,286,28720000000,,434.320353247,434.196132947,434.255069463,434.170684943
28800000000,287,28800000000,,428.390095981,428.33695266,428.325529817,428.311527241
28961000000,288,28961000000,,435.349411117,435.322297981,435.286571416,435.296922478
29008000000,289,29008000000,,449.084588044,449.03990389,449.022216412,449.014541783
29120000000,290,29120000000,,432.575572152,432.582448698,432.514380834,432.557120086
29241000000,291,29241000000,,426.520297354,426.603166336,426.456955976,426.577868241
29320000000,292,29320000000,,424.23422902,424.332620647,424.169254814,424.307340616
29400000000,293,29400000000,,428.432947478,428.367158982,428.367318596,428.341897699
29520000000,294,29520000000,,426.921192842,426.829407793,426.855832159,426.804178359
29600000000,295,29600000000,,432.354255748,432.239768926,432.289899125,432.214563577
29720000000,296,29720000000,,438.246768835,438.137828293,438.185039745,438.112663805
29841000000,297,29841000000,,452.11250749,451.986974054,452.054101863,451.961845881
29922000000,298,29922000000,,428.294101002,428.195555615,428.238349056,428.17045221
30041000000,299,30041000000,,427.193696402,427.104789959,427.142345858,427.079722682
30120000000,300,30120000000,,435.145742348,435.070349981,435.097435602,435.045305837
30241000000,301,30241000000,,440.559036867,440.527053373,440.515362719,440.502044429
30320000000,302,30320000000,,432.264654791,432.240344982,432.224089018,432.215359889
30440000000,303,30440000000,,436.254569897,436.249620553,436.218544458,436.224673018
30520000000,304,30520000000,,441.321954786,441.332617447,441.288878853,441.307694232
30601000000,305,30601000000,,424.140112073,424.098028938,424.111720507,424.073127983
30729000000,306,30729000000,,451.055142891,451.045034022,451.034440904,451.020169917
30800000000,307,30800000000,,431.557715674,431.682784367,431.541071354,431.657946545
30921000000,308,30921000000,,437.753316123,437.919361618,437.741174467,437.894564638
31000000000,309,31000000000,,440.639288541,440.825949,440.628724756,440.801178414
31120000000,310,31120000000,,432.239430247,432.449942106,432.230204215,432.425210971
31240000000,311,31240000000,,426.210540089,426.42804176,426.200904563,426.403345707
31320000000,312,31320000000,,419.832734879,420.006478779,419.822835613,419.981808344
31400000000,313,31400000000,,448.317636403,448.443754207,448.307068883,448.419109819
31520000000,314,31520000000,,435.088848279,435.183571667,435.077343167,435.158994899
31640000000,315,31640000000,,414.537613599,414.610604644,414.52503956,414.586078233
31720000000,316,31720000000,,425.858006286,425.907199937,425.844593607,425.882696216
31841000000,317,31841000000,,432.93001217,432.96136638,432.915314075,432.936891758
31921000000,318,31921000000,,435.630925327,435.642572705,435.615503001,435.618117026
32041000000,319,32041000000,,433.628147259,433.627457736,433.611863519,433.603028431
32120000000,320,32120000000,,425.910749861,425.890044619,425.894170189,425.865629361
32200000000,321,32200000000,,446.935656554,446.929390365,446.918760729,446.904990735
