%time,field.header.seq,field.header.stamp,field.header.frame_id,field.pose.position.x,field.pose.position.y,field.pose.position.z,field.pose.orientation.x,field.pose.orientation.y,field.pose.orientation.z,field.pose.orientation.w
1000000,0,1000000,world,0.0,0.0,0.74,0.0,0.0,0.0,1.0
11000000,1,11000000,world,-1.07738277069e-27,-1.09807001825e-27,0.739461,-5.3725141903e-27,4.12735521657e-27,1.15199516752e-27,1.0
21000000,2,21000000,world,1.63692024856e-24,1.51811157212e-24,0.737942,1.20292517363e-23,-1.19965837191e-23,-1.854574052e-24,1.0
31000000,3,31000000,world,-4.38394968409e-25,-6.00545634499e-25,0.735443,7.22102059036e-24,-1.67577970031e-23,7.60542676413e-25,1.0
41000000,4,41000000,world,-1.4288227372e-24,-1.79321964477e-24,0.731964,3.00119168489e-24,-2.37804484207e-23,1.87282292978e-24,1.0
51000000,5,51000000,world,-2.69206115799e-25,-7.55861801429e-25,0.727505,1.38393085235e-24,-2.25640175756e-23,9.00100114244e-26,1.0
61000000,6,61000000,world,4.36934927905e-25,3.89341348587e-26,0.722066,5.0410970436e-24,-1.98350052118e-23,-1.05020053119e-24,1.0
71000000,7,71000000,world,-2.70876163347e-19,2.70442832997e-19,0.715647,-2.61888218536e-20,-2.67151001813e-20,1.30092259982e-24,1.0
81000000,8,81000000,world,-9.82139323021e-19,9.80614931571e-19,0.708248,-4.98665189606e-20,-5.31882223695e-20,-2.27368895081e-24,1.0
91000000,9,91000000,world,-1.73690716921e-18,1.73424121102e-18,0.699869,-2.3097863588e-20,-3.03371133878e-20,-1.61005437333e-24,1.0
101000000,10,101000000,world,-2.53102176468e-18,2.52723064541e-18,0.69051,1.22726194256e-19,1.0827060196e-19,-4.43157486953e-24,1.0
111000000,11,111000000,world,-3.35781237289e-18,3.35281083113e-18,0.680171,3.09905710894e-19,2.89423072149e-19,-3.18611731017e-24,1.0
121000000,12,121000000,world,-4.21933315137e-18,4.20066552921e-18,0.668852,4.14814246527e-19,3.96035834586e-19,-3.38395465082e-24,1.0
131000000,13,131000000,world,1.16351295138e-15,1.10804500336e-15,0.656553000915,6.56749875417e-15,-5.55485349219e-15,-1.37219739413e-15,1.0
141000000,14,141000000,world,2.74482608402e-14,2.58118487533e-14,0.643274351277,2.31717432189e-13,-2.14929221695e-13,-3.19735813602e-14,1.0
151000000,15,151000000,world,2.63767609942e-14,2.30539891827e-14,0.629018374184,6.15100341196e-13,-6.31751783961e-13,-2.81852846431e-14,1.0
161000000,16,161000000,world,-1.71618950753e-06,1.17206691488e-07,0.624997960689,-9.86066695383e-07,-1.33937702205e-06,-3.14117809018e-07,0.999999999999
171000000,17,171000000,world,3.76586061589e-06,2.07212111854e-06,0.624996408728,-2.21430062016e-06,2.93587807938e-06,-1.01964011604e-06,0.999999999993
181000000,18,181000000,world,-3.39144171114e-06,-3.62031214234e-06,0.624996394731,2.23178831017e-06,-2.96912580263e-06,-2.2837578045e-06,0.99999999999
191000000,19,191000000,world,4.5258137493e-06,1.06686820664e-06,0.624996332382,-2.25310743314e-06,3.07752142129e-06,-3.69407052955e-06,0.999999999986
201000000,20,201000000,world,-2.75428733127e-06,-4.44491586044e-06,0.624996490054,2.18523245581e-06,-2.90369381109e-06,-4.82151057596e-06,0.999999999982
211000000,21,211000000,world,4.96259393056e-06,1.02933328818e-07,0.624996435082,-2.23858896204e-06,2.99851086151e-06,-6.14793326949e-06,0.999999999974
221000000,22,221000000,world,-2.1063270796e-06,-5.2321218021e-06,0.624996603134,2.13240596121e-06,-2.81080679527e-06,-7.21220751709e-06,0.999999999968
231000000,23,231000000,world,5.35135680508e-06,-8.37431018658e-07,0.624996559164,-2.14858556732e-06,2.89697557998e-06,-8.47078254575e-06,0.999999999958
241000000,24,241000000,world,6.63243778332e-07,-6.50718743081e-06,0.624996747556,2.65809196278e-06,-2.43122171898e-06,-7.89916687553e-06,0.999999999962
251000000,25,251000000,world,6.09821641179e-06,-4.06769357588e-06,0.624997787079,5.88684768784e-07,2.25159685505e-06,-7.70649755402e-06,0.999999999968
261000000,26,261000000,world,-5.85047775672e-07,-1.52400046901e-06,0.624996705047,-1.9966626432e-06,-2.82561999571e-06,-6.77214735485e-06,0.999999999971
271000000,27,271000000,world,4.45299323875e-06,-7.02573299608e-06,0.624996991488,2.50818173594e-06,1.44653948164e-06,-6.59217467437e-06,0.999999999974
281000000,28,281000000,world,2.65078281638e-06,-1.0937405724e-06,0.624998748025,-2.26857183088e-06,2.30194150892e-08,-6.5377422692e-06,0.999999999976
291000000,29,291000000,world,5.68172695189e-06,-2.54754069472e-06,0.624997525684,-1.14546859605e-06,2.28260812411e-06,-6.85267390885e-06,0.999999999973
301000000,30,301000000,world,5.07447241734e-08,-5.11442555206e-06,0.624998008699,1.66996817804e-07,-2.33068785524e-06,-6.45261926291e-06,0.999999999976
311000000,31,311000000,world,5.41347175999e-06,-3.41266337714e-06,0.624997798243,-1.27630520362e-06,1.8470172606e-06,-6.84490384221e-06,0.999999999974
321000000,32,321000000,world,1.04414542394e-06,-6.56521019187e-06,0.624997961907,1.25873900455e-06,-1.68294906022e-06,-7.64241971186e-06,0.999999999969
331000000,33,331000000,world,5.0960548601e-06,-3.09856171396e-06,0.624997881738,-1.6011160178e-06,1.54745358843e-06,-8.27628693072e-06,0.999999999963
341000000,34,341000000,world,1.19875844578e-06,-4.99724202705e-06,0.624998712401,6.56458853669e-09,-1.57470622457e-06,-7.87433852392e-06,0.999999999968
351000000,35,351000000,world,5.05554891623e-06,-5.62959702629e-06,0.624999164165,4.69854259892e-07,1.54615291978e-06,-8.06353704532e-06,0.999999999966
361000000,36,361000000,world,1.61886952222e-06,-4.27589482876e-06,0.624999023726,-3.12391135076e-07,-1.56361975576e-06,-7.97594016672e-06,0.999999999967
371000000,37,371000000,world,4.46507885014e-06,-4.99856650944e-06,0.624999175945,3.03608895757e-09,9.95574820994e-07,-7.83324613077e-06,0.999999999969
381000000,38,381000000,world,2.60831429256e-06,-5.01521417369e-06,0.625000327991,1.64481503071e-08,-4.24007238451e-07,-7.90873102335e-06,0.999999999969
391000000,39,391000000,world,3.356321753e-06,-4.93899736085e-06,0.625000067676,-9.4443933036e-09,9.28758988165e-08,-8.44067036346e-06,0.999999999964
401000000,40,401000000,world,3.07885315267e-06,-5.170816586e-06,0.625000078068,3.58685759258e-08,-1.20414470496e-07,-9.04053229637e-06,0.999999999959
411000000,41,411000000,world,3.27698286119e-06,-5.06620589206e-06,0.624999989869,-1.30286394837e-08,5.06588919111e-10,-9.53087095743e-06,0.999999999955
421000000,42,421000000,world,3.23838832559e-06,-5.25961362152e-06,0.625000103032,1.47825889569e-07,1.88271518141e-08,-9.63206565945e-06,0.999999999954
431000000,43,431000000,world,3.47944345628e-06,-5.00758961879e-06,0.625000129332,2.43361466668e-08,1.9740223294e-07,-9.5414990936e-06,0.999999999954
441000000,44,441000000,world,3.13408483244e-06,-5.05189488247e-06,0.625000073117,-3.31230687808e-10,-1.03920934359e-07,-9.57341959429e-06,0.999999999954
451000000,45,451000000,world,3.59527593137e-06,-5.06959069937e-06,0.62500019719,-2.54440960959e-09,2.60886633352e-07,-9.55812048012e-06,0.999999999954
461000000,46,461000000,world,3.26699006551e-06,-5.07213587298e-06,0.624999991023,7.32885952938e-10,-2.24281511668e-09,-9.55366721581e-06,0.999999999954
471000000,47,471000000,world,3.34957486537e-06,-5.0187085541e-06,0.62499981847,2.06210347376e-09,2.1309877858e-07,-9.81283953e-06,0.999999999952
481000000,48,481000000,world,3.06209844802e-06,-5.01474102419e-06,0.625000029495,-2.09881921405e-09,-4.62797198002e-08,-9.80630707843e-06,0.999999999952
491000000,49,491000000,world,3.20098483401e-06,-5.00547682392e-06,0.625000019315,-1.24002818184e-09,3.30261554439e-08,-9.79884039256e-06,0.999999999952
501000000,50,501000000,world,7.28946704651e-06,-1.03378956142e-06,0.625008179517,-5.96421833003e-07,6.18655250764e-07,-9.78833110154e-06,0.999999999952
511000000,51,511000000,world,1.36449837821e-05,4.20949539427e-06,0.625059440726,-1.61081501222e-06,1.48424505521e-06,-9.77677080322e-06,0.99999999995
521000000,52,521000000,world,2.13238572698e-05,9.59707883916e-06,0.625193972605,-2.8910618684e-06,2.53209787148e-06,-9.76427635637e-06,0.999999999945
531000000,53,531000000,world,3.01260226201e-05,1.4955141153e-05,0.6254510747,-4.39315045483e-06,3.74599218224e-06,-9.75087800263e-06,0.999999999936
541000000,54,541000000,world,3.98697527473e-05,2.01490420414e-05,0.625867966834,-6.07276193735e-06,5.12668833204e-06,-9.73643417555e-06,0.999999999921
551000000,55,551000000,world,5.03921000488e-05,2.50774072889e-05,0.626479425404,-7.9163168777e-06,6.65756143578e-06,-9.7210180789e-06,0.999999999899
561000000,56,561000000,world,6.15488565426e-05,2.96675989073e-05,0.627319254297,-9.93047724875e-06,8.30972536314e-06,-9.70531238998e-06,0.999999999869
571000000,57,571000000,world,7.35498584093e-05,3.4189071466e-05,0.628420383915,-1.21707514135e-05,1.0087620059e-05,-9.6894313866e-06,0.999999999828
581000000,58,581000000,world,8.64202742999e-05,3.8744183933e-05,0.62981487064,-1.4607056278e-05,1.20309800844e-05,-9.67314274416e-06,0.999999999774
591000000,59,591000000,world,9.95431681157e-05,4.28297935189e-05,0.631533899052,-1.71206955121e-05,1.40623391951e-05,-9.65665007008e-06,0.999999999708
601000000,60,601000000,world,0.00011283524784,4.64466179511e-05,0.633607786481,-1.96769392557e-05,1.61798778196e-05,-9.63996739622e-06,0.999999999629
611000000,61,611000000,world,0.000126169134659,4.97222790766e-05,0.636065989676,-2.22829786943e-05,1.8363163288e-05,-9.62286881685e-06,0.999999999537
621000000,62,621000000,world,0.00013948895735,5.25993448629e-05,0.638937113322,-2.49470397527e-05,2.05738595575e-05,-9.60602770818e-06,0.999999999431
631000000,63,631000000,world,0.000152576168614,5.51731453155e-05,0.642248920155,-2.77236118461e-05,2.27558201503e-05,-9.589849795e-06,0.999999999311
641000000,64,641000000,world,0.000165669553314,5.73666284047e-05,0.646028342461,-3.05797863106e-05,2.49608769801e-05,-9.57399793806e-06,0.999999999175
651000000,65,651000000,world,0.000178752604676,5.92230805483e-05,0.65030095309,-3.34372700549e-05,2.7189079327e-05,-9.55853655046e-06,0.999999999026
661000000,66,661000000,world,0.000191815861218,6.07871056911e-05,0.655085848704,-3.62697645928e-05,2.94420346935e-05,-9.54342450166e-06,0.999999998863
671000000,67,671000000,world,0.000204871610751,6.24389413313e-05,0.660398179218,-3.91201584374e-05,3.17140876571e-05,-9.52824625523e-06,0.999999998687
681000000,68,681000000,world,0.000217914382471,6.40861523425e-05,0.666252534717,-4.20047963062e-05,3.39709329728e-05,-9.513686439e-06,0.999999998496
691000000,69,691000000,world,0.000230938499225,6.5538207867e-05,0.672662999596,-4.49590686635e-05,3.61802658572e-05,-9.50002237168e-06,0.99999999829
701000000,70,701000000,world,0.00024418680494,6.74411996024e-05,0.679643167052,-4.80132047462e-05,3.8409222652e-05,-9.48676701176e-06,0.999999998065
711000000,71,711000000,world,0.000257518999446,6.94509087657e-05,0.687206153824,-5.10508440202e-05,4.06324680732e-05,-9.47397001659e-06,0.999999997827
721000000,72,721000000,world,0.000270841423665,7.13354691285e-05,0.695364614426,-5.4019137462e-05,4.28467734243e-05,-9.46143175131e-06,0.999999997578
731000000,73,731000000,world,0.000284154871697,7.31176906137e-05,0.704127448286,-5.74370682754e-05,4.55546561157e-05,-9.44882852669e-06,0.999999997268
741000000,74,741000000,world,0.000297565888745,7.49645340329e-05,0.713482525296,-6.22192480273e-05,4.95834184261e-05,-9.43703126559e-06,0.999999996791
751000000,75,751000000,world,0.000311412612045,7.75934832663e-05,0.723410324343,-6.8469928856e-05,5.48184232666e-05,-9.42602755101e-06,0.999999996109
761000000,76,761000000,world,0.00032525339831,8.01503810657e-05,0.733892189993,-7.59559597214e-05,6.11902812968e-05,-9.41535751606e-06,0.999999995199
771000000,77,771000000,world,0.000339109635948,8.26743564035e-05,0.744910304497,-8.45250133514e-05,6.87360257235e-05,-9.40514220603e-06,0.999999994021
781000000,78,781000000,world,0.000360604227453,9.33391458196e-05,0.75644764429,-9.49011294036e-05,7.82523636498e-05,-9.39504737698e-06,0.999999992391
791000000,79,791000000,world,0.000398995237226,0.000122063656447,0.768487941361,-0.000108092258791,9.05505202036e-05,-9.38495619197e-06,0.999999990014
801000000,80,801000000,world,0.000435924286535,0.000149197513819,0.781015659803,-0.000122071908945,0.000103380364341,-9.37564457546e-06,0.999999987162
811000000,81,811000000,world,0.000471265746194,0.000174607327171,0.794015944728,-0.000136767755187,0.00011636067295,-9.36690959555e-06,0.999999983834
821000000,82,821000000,world,0.000512962094946,0.000206749982966,0.807474589955,-0.00015269842481,0.000130378130733,-9.35842998352e-06,0.999999979799
831000000,83,831000000,world,0.00056034223971,0.000244930801522,0.821378015593,-0.000169476066026,0.000145441098331,-9.3503780718e-06,0.999999975019
841000000,84,841000000,world,0.00060512228722,0.000280355365419,0.835713241167,-0.000185974916479,0.000160566302469,-9.34243868653e-06,0.999999969772
851000000,85,851000000,world,0.000647293242992,0.00031302763504,0.850464198992,-0.000202241723877,0.000176020452006,-9.34165275056e-06,0.999999964014
861000000,86,861000000,world,0.000686912521425,0.000343024841881,0.865597425184,-0.000218277129017,0.00019214554743,-9.356873395e-06,0.999999957674
871000000,87,871000000,world,0.000731702850311,0.000378725809791,0.881075614529,-0.000234940792304,0.000209290491862,-9.38699090534e-06,0.999999950456
881000000,88,881000000,world,0.000774177910227,0.000411999318949,0.896863427028,-0.000251000725517,0.000226656058278,-9.4310469967e-06,0.999999942768
891000000,89,891000000,world,0.000818367759042,0.000443235448902,0.91292735009,-0.000266214705565,0.000244856032292,-9.49127740535e-06,0.999999934543
901000000,90,901000000,world,0.000876681284581,0.000474577555507,0.929235593451,-0.000280699110533,0.000265107538635,-9.57507741462e-06,0.999999925417
911000000,91,911000000,world,0.000931491244106,0.000503393739247,0.945758017572,-0.000294232468515,0.000285270235059,-9.66966219124e-06,0.999999915977
921000000,92,921000000,world,0.000982886115637,0.000529900265715,0.962466008151,-0.000306883372261,0.00030498286766,-9.77492214464e-06,0.999999906356
931000000,93,931000000,world,0.00103103424361,0.000554335125188,0.979331398804,-0.000318695676643,0.00032392187979,-9.8902599451e-06,0.999999896705
941000000,94,941000000,world,0.00108411090537,0.0005758386597,0.996322035317,-0.000329514636987,0.000342630839278,-1.00235774503e-05,0.999999886962
951000000,95,951000000,world,0.00113587320204,0.000595571653956,1.0134056953,-0.00033921717214,0.000360778454292,-1.01671367982e-05,0.999999877334
961000000,96,961000000,world,0.00118447513951,0.000614078376274,1.03055186684,-0.000347810243398,0.000378226056677,-1.03182782322e-05,0.999999867933
971000000,97,971000000,world,0.00123016188409,0.000631603734897,1.04773164788,-0.000355319557881,0.000394924833327,-1.04763022885e-05,0.999999858836
981000000,98,981000000,world,0.00127505903083,0.000644812884737,1.06491765354,-0.000361491922071,0.000410917138679,-1.06472049777e-05,0.999999850179
991000000,99,991000000,world,0.00131750072133,0.000657693401735,1.08208392362,-0.0003667824614,0.0004258243698,-1.08237895308e-05,0.999999842014
1001000000,100,1001000000,world,0.0013577752155,0.000670464116312,1.09920584312,-0.000371267969009,0.000439514586697,-1.10057141483e-05,0.999999834433
1011000000,101,1011000000,world,0.00139605088449,0.000683311699722,1.11626044809,-0.000375062443471,0.000451930138254,-1.11922732656e-05,0.999999827481
1021000000,102,1021000000,world,0.00143042653591,0.000691750794107,1.13323066211,-0.000377873569992,0.000463340495348,-1.13877088324e-05,0.999999821199
1031000000,103,1031000000,world,0.00146364789522,0.000700848431181,1.15010335885,-0.000380237088313,0.000474118761171,-1.15872300032e-05,0.999999815248
1041000000,104,1041000000,world,0.00149601049867,0.000710757242421,1.16686608065,-0.00038216968068,0.000484274993841,-1.17905410158e-05,0.999999809643
1051000000,105,1051000000,world,0.00152778566877,0.000721592065498,1.18350694175,-0.000383695985743,0.000493782636849,-1.19972860664e-05,0.999999804406
1061000000,106,1061000000,world,0.00156120088226,0.000735274095385,1.20001459565,-0.000385025131746,0.000502765585095,-1.22064669667e-05,0.999999799417
1071000000,107,1071000000,world,0.00159471674255,0.000750226287312,1.21637821893,-0.000386017085019,0.000510973966876,-1.24189731478e-05,0.999999794871
1081000000,108,1081000000,world,0.00162815023737,0.000766129908289,1.23258747566,-0.000386655309321,0.000518301640848,-1.26347813439e-05,0.999999790851
1091000000,109,1091000000,world,0.00166166016483,0.000782988571948,1.24863249511,-0.000386925899356,0.000524746844974,-1.28536311029e-05,0.999999787382
1101000000,110,1101000000,world,0.00169538558902,0.00080079700937,1.26450384933,-0.00038679397533,0.000530431854084,-1.30754593635e-05,0.999999784431
1111000000,111,1111000000,world,0.00171878179054,0.000818091138391,1.28019254597,-0.000386099017784,0.000534251985561,-1.3292466226e-05,0.999999782663
1121000000,112,1121000000,world,0.00174327540958,0.000836389820706,1.29568996439,-0.000385002088541,0.000537412646738,-1.35128216178e-05,0.999999781389
1131000000,113,1131000000,world,0.00176904795081,0.000855681665041,1.31098924402,-0.00038350269678,0.000539923332216,-1.37363558912e-05,0.99999978061
1141000000,114,1141000000,world,0.00179623868388,0.000875953385698,1.32609124893,-0.000381573058262,0.000541769171459,-1.39631915644e-05,0.999999780347
1151000000,115,1151000000,world,0.00182323152145,0.00089680772567,1.3409992737,-0.000379165313454,0.000542761601564,-1.41925642289e-05,0.999999780721
1161000000,116,1161000000,world,0.00185023598167,0.000918171300892,1.35571648773,-0.000376266429793,0.000542928778379,-1.442467514e-05,0.999999781722
1171000000,117,1171000000,world,0.00187907686532,0.000940500393283,1.37024593954,-0.000372905634853,0.000542515625474,-1.46602988499e-05,0.999999783202
1181000000,118,1181000000,world,0.00190740191683,0.000962490215146,1.3845905701,-0.000368948048217,0.000541268969628,-1.48989795051e-05,0.999999785342
1191000000,119,1191000000,world,0.00193674516443,0.000984797175993,1.39875320402,-0.000364470565859,0.000539286764926,-1.5141085598e-05,0.999999788051
1201000000,120,1201000000,world,0.00196816364408,0.00100811559976,1.41273656037,-0.000359548405112,0.000536672418048,-1.53864386782e-05,0.999999791235
1211000000,121,1211000000,world,0.00200163625156,0.00103242420592,1.42654325779,-0.000354170102795,0.000533420813584,-1.56348427535e-05,0.999999794891
1221000000,122,1221000000,world,0.00203711812175,0.00105769611983,1.44017581631,-0.000348276004048,0.000529546545986,-1.58863083254e-05,0.999999799016
1231000000,123,1231000000,world,0.0020730802101,0.00108277403869,1.45363666343,-0.000341722969007,0.000524912770466,-1.61412036295e-05,0.999999803716
1241000000,124,1241000000,world,0.00211084246091,0.00110853966141,1.46692813001,-0.000334592573529,0.000519714470455,-1.63994766918e-05,0.999999808838
1251000000,125,1251000000,world,0.00215050095085,0.00113526193427,1.48005360611,-0.000326611938312,0.000514065480454,-1.66572794251e-05,0.999999814392
1261000000,126,1261000000,world,0.00219198294126,0.00116291863563,1.49302154603,-0.000317437128561,0.000507837472116,-1.69094834835e-05,0.999999820524
1271000000,127,1271000000,world,0.0022352107321,0.00119147374958,1.50584163224,-0.000307117165691,0.000500879588464,-1.7156179067e-05,0.999999827252
1281000000,128,1281000000,world,0.0022793198856,0.0012201509004,1.5185232241,-0.000295609121559,0.000493067195959,-1.73977108077e-05,0.999999834599
1291000000,129,1291000000,world,0.00232428863612,0.00124896933474,1.53107536163,-0.000282927421715,0.000484386211407,-1.76340848719e-05,0.999999842506
1301000000,130,1301000000,world,0.00236472137021,0.00126749684188,1.54350678784,-0.000267882024945,0.000474318100795,-1.78735585532e-05,0.999999851471
1311000000,131,1311000000,world,0.00240105892837,0.00127118585947,1.55582593435,-0.000250015247535,0.000462990196632,-1.8122157281e-05,0.999999861402
1321000000,132,1321000000,world,0.00243960862084,0.00127742663691,1.56804092154,-0.000231142561005,0.00045122695429,-1.83647982925e-05,0.999999871315
1331000000,133,1331000000,world,0.00248036173723,0.00128634979973,1.58015961609,-0.000211359882092,0.000439190028354,-1.86014094308e-05,0.999999881047
1341000000,134,1341000000,world,0.00251463606086,0.00128177383652,1.59219054567,-0.000189245653303,0.000425684562147,-1.88438859344e-05,0.999999891312
1351000000,135,1351000000,world,0.00255060526086,0.00127911230367,1.6041434668,-0.000166618764083,0.000411423841625,-1.9080541785e-05,0.999999901302
1361000000,136,1361000000,world,0.00258925008256,0.00128028308429,1.6160279644,-0.00014381591055,0.000396512008744,-1.93099805582e-05,0.999999910861
1371000000,137,1371000000,world,0.00263051538157,0.00128525358353,1.62785329701,-0.000120794003141,0.000381022910959,-1.95321797239e-05,0.999999919924
1381000000,138,1381000000,world,0.00266870669534,0.0012869651391,1.63962841024,-9.66969831742e-05,0.000364508828412,-1.97524770966e-05,0.999999928696
1391000000,139,1391000000,world,0.00270600049714,0.00128705817382,1.65136192997,-7.17573041394e-05,0.000347370475431,-1.99701249818e-05,0.999999936893
1401000000,140,1401000000,world,0.00274616822644,0.00129125460924,1.66306218044,-4.65985645228e-05,0.000330318873361,-2.01810358444e-05,0.999999944155
1411000000,141,1411000000,world,0.00278911404993,0.00129936461799,1.67473719917,-2.15461545855e-05,0.000313240083316,-2.03851103092e-05,0.9999999505
1421000000,142,1421000000,world,0.00283471492726,0.00131114046066,1.68639474071,3.12570442987e-06,0.000295732186258,-2.05824888276e-05,0.999999956055
1431000000,143,1431000000,world,0.00288281445432,0.0013262989535,1.69804228485,2.73390224348e-05,0.000277742055182,-2.07734177053e-05,0.99999996084
1441000000,144,1441000000,world,0.00292763407089,0.00133804275023,1.70968704779,5.17837368197e-05,0.000258693266102,-2.09632290187e-05,0.999999964978
1451000000,145,1451000000,world,0.00297258385477,0.00134952550102,1.72133551727,7.63265464639e-05,0.000239144052998,-2.1149438811e-05,0.999999968269
1461000000,146,1461000000,world,0.00302000501257,0.00136409633331,1.73299047839,0.000100624035682,0.000219527545275,-2.13299543103e-05,0.999999970614
1471000000,147,1471000000,world,0.0030671620847,0.00137953450223,1.7446530823,0.000124917704173,0.00019985451122,-2.15069966302e-05,0.999999971996
1481000000,148,1481000000,world,0.00311074746157,0.00139317380061,1.75632442955,0.000149275610201,0.000179920495963,-2.16829687617e-05,0.999999972438
1491000000,149,1491000000,world,0.0031568439783,0.00140943674622,1.7680055769,0.0001728528153,0.000159845422923,-2.18534198459e-05,0.999999972047
1501000000,150,1501000000,world,0.00320532530096,0.00142806313281,1.77969754178,0.000195575976495,0.000139524181294,-2.20186881366e-05,0.999999970899
1511000000,151,1511000000,world,0.00325537577163,0.00144824735642,1.79140130203,0.000217508353214,0.000118897884432,-2.2179314652e-05,0.999999969031
1521000000,152,1521000000,world,0.00330176746479,0.00146562185823,1.8031177963,0.00023927518352,9.76060396993e-05,-2.23401910297e-05,0.999999966361
1531000000,153,1531000000,world,0.00335041068829,0.00148485492821,1.81484761913,0.000260459631489,7.64825107775e-05,-2.24963618158e-05,0.999999962903
1541000000,154,1541000000,world,0.00340115733447,0.00150571699243,1.82658903706,0.000281086702661,5.57766369892e-05,-2.26482521573e-05,0.999999958683
1551000000,155,1551000000,world,0.00344799497573,0.00152598605237,1.83833936961,0.000301305148335,3.51442167315e-05,-2.28001353206e-05,0.99999995373
1561000000,156,1561000000,world,0.00349551777918,0.00154703338824,1.85009604212,0.000320634119136,1.45637037176e-05,-2.29487794486e-05,0.999999948228
1571000000,157,1571000000,world,0.00354510129504,0.00156915238907,1.8618565842,0.000338953520013,-6.00428836082e-06,-2.30934518601e-05,0.999999942271
1581000000,158,1581000000,world,0.00359506979928,0.00159169967433,1.87361862462,0.000356314598362,-2.67208118642e-05,-2.32354461296e-05,0.999999935893
1591000000,159,1591000000,world,0.0036434012017,0.0016139476578,1.88537988719,0.000372926125084,-4.76478201281e-05,-2.33761866865e-05,0.999999929055
1601000000,160,1601000000,world,0.0036935933026,0.00163674413607,1.89713818909,0.000388799609107,-6.8195380915e-05,-2.35133184378e-05,0.999999921816
1611000000,161,1611000000,world,0.00374548835955,0.00165991015633,1.9088914347,0.000403949807591,-8.81747992827e-05,-2.36471143342e-05,0.999999914245
1621000000,162,1621000000,world,0.0037983917219,0.00168330235576,1.92063761255,0.000418387347033,-0.000107343731833,-2.3777803918e-05,0.999999906432
1631000000,163,1631000000,world,0.00384816835382,0.00170696821702,1.93237479135,0.000431886255628,-0.000126440855472,-2.39090938623e-05,0.999999898458
1641000000,164,1641000000,world,0.00389942337211,0.00173049332451,1.94410111861,0.00044440332147,-0.000145309163477,-2.40372327788e-05,0.999999890407
1651000000,165,1651000000,world,0.00395201219249,0.00175373623705,1.95581458832,0.000455952945236,-0.000164013243804,-2.41618894171e-05,0.999999882311
1661000000,166,1661000000,world,0.00400578012121,0.00177657446179,1.96750950327,0.00046662433987,-0.00018272496943,-2.42801228297e-05,0.999999874142
1671000000,167,1671000000,world,0.00405890182769,0.00179955048232,1.97917734706,0.00047647406299,-0.000201468408285,-2.43934170653e-05,0.999999865894
1681000000,168,1681000000,world,0.00411135060238,0.00182251403006,1.99080988507,0.00048552179911,-0.000220077927773,-2.45021501205e-05,0.999999857617
1691000000,169,1691000000,world,0.00415926662409,0.00184588801394,2.0023992381,0.000493743361821,-0.000238659316612,-2.46095640459e-05,0.999999849327
1701000000,170,1701000000,world,0.00420473082326,0.00186928104379,2.01393786867,0.000501109198908,-0.000256988914665,-2.47139042606e-05,0.999999841118
1711000000,171,1711000000,world,0.00425139921468,0.00189161358739,2.02541856395,0.000507665508954,-0.000275110547092,-2.48125150852e-05,0.999999832987
1721000000,172,1721000000,world,0.00429918260914,0.00191282041207,2.03683441974,0.000513436159298,-0.000293071057862,-2.49056603725e-05,0.999999824936
1731000000,173,1731000000,world,0.00434796636962,0.00193285492294,2.04817882703,0.000518466107859,-0.000310842808311,-2.49934265083e-05,0.999999816972
1741000000,174,1741000000,world,0.00439761910419,0.00195168642442,2.05944545852,0.000522829211872,-0.00032827842693,-2.50759131562e-05,0.999999809127
1751000000,175,1751000000,world,0.00444590671339,0.00197028339029,2.07062828369,0.000526443037629,-0.000345459570844,-2.51555865346e-05,0.999999801441
1761000000,176,1761000000,world,0.00449183855544,0.00198903378926,2.08172219765,0.000529264187226,-0.000362309439551,-2.52334355345e-05,0.999999793987
1771000000,177,1771000000,world,0.00453853003569,0.00200639452451,2.0927229732,0.000531458920174,-0.000378259661403,-2.53063981871e-05,0.999999786915
1781000000,178,1781000000,world,0.00458587590028,0.00202235446572,2.10362658512,0.000533004011162,-0.00039362297627,-2.5374789996e-05,0.999999780162
1791000000,179,1791000000,world,0.00463072285198,0.00203954240944,2.11442917494,0.000533633235389,-0.000408940853855,-2.54424142962e-05,0.999999773678
1801000000,180,1801000000,world,0.00467583244872,0.00205547194456,2.12512704259,0.000533644300823,-0.000423913135868,-2.55061467843e-05,0.999999767435
1811000000,181,1811000000,world,0.00472144668592,0.002069841138,2.13571664093,0.000533103670301,-0.000438452588715,-2.55656130455e-05,0.999999761453
1821000000,182,1821000000,world,0.00476600738054,0.00208531651172,2.14619457041,0.000531754641614,-0.000452576871916,-2.56234375146e-05,0.999999755877
1831000000,183,1831000000,world,0.00481057217948,0.00209975684626,2.15655756806,0.000529805055108,-0.000466063576113,-2.56780625056e-05,0.999999750716
1841000000,184,1841000000,world,0.00485540216854,0.00211248722513,2.16680250559,0.000527315704458,-0.000478727996446,-2.57289714486e-05,0.999999746048
1851000000,185,1851000000,world,0.0049003827355,0.0021235321284,2.17692671047,0.000524302525282,-0.000490492963719,-2.57761522808e-05,0.99999974193
1861000000,186,1861000000,world,0.00494525886287,0.00213448679891,2.18692893555,0.000520649934833,-0.00050168493355,-2.58209364015e-05,0.999999738285
1871000000,187,1871000000,world,0.00498985913194,0.0021460262076,2.19680830363,0.000516324138287,-0.000512399068631,-2.58639740225e-05,0.999999735094
1881000000,188,1881000000,world,0.00503429984473,0.00215577533364,2.20656396934,0.0005116185657,-0.00052261204523,-2.59037479489e-05,0.999999732226
1891000000,189,1891000000,world,0.00507847565319,0.00216376858684,2.21619512322,0.000506529534741,-0.000532276560318,-2.59402634452e-05,0.999999729718
1901000000,190,1901000000,world,0.00512235378623,0.00217185655776,2.22570098988,0.000500838577107,-0.000541306876944,-2.59749964477e-05,0.999999727736
1911000000,191,1911000000,world,0.00516583462336,0.00217994561144,2.23508082253,0.000494530481074,-0.000549654298117,-2.6008182953e-05,0.999999726322
1921000000,192,1921000000,world,0.0052087588357,0.00218622117686,2.24433390218,0.000487776670341,-0.000557237437954,-2.60387382164e-05,0.999999725441
1931000000,193,1931000000,world,0.00525104547958,0.00219073452888,2.25345958819,0.000480634252124,-0.00056407268784,-2.60666371773e-05,0.999999725067
1941000000,194,1941000000,world,0.00529262570056,0.00219355107289,2.26245745804,0.000473193998446,-0.000570359147819,-2.60920859149e-05,0.999999725049
1951000000,195,1951000000,world,0.00533436879201,0.00219839523292,2.27132715772,0.000465101894294,-0.000576026923092,-2.611713628e-05,0.999999725596
1961000000,196,1961000000,world,0.00537522575194,0.00220147274517,2.28006833767,0.000456800239296,-0.000581178754587,-2.61397492564e-05,0.999999726441
1971000000,197,1971000000,world,0.00541513789214,0.0022028344422,2.28868066696,0.000448241310962,-0.000585784531124,-2.61599766345e-05,0.999999727626
1981000000,198,1981000000,world,0.00545405684323,0.00220254468486,2.29716382771,0.000439372113756,-0.000589816144249,-2.61782482667e-05,0.999999729192
1991000000,199,1991000000,world,0.00549676657264,0.00219604526379,2.30551751643,0.000430632771893,-0.000592752084927,-2.61899271765e-05,0.999999731257
2001000000,200,2001000000,world,0.00554065584601,0.00218589323748,2.31374143907,0.000421715426841,-0.000594858855544,-2.61977171888e-05,0.999999733806
2011000000,201,2011000000,world,0.0055829676636,0.00217479861006,2.32183622964,0.000412428444059,-0.000596464073249,-2.62042822638e-05,0.999999736723
2021000000,202,2021000000,world,0.00562376054327,0.00216267954307,2.32980618855,0.000402861044919,-0.000597642398221,-2.62096795045e-05,0.99999973992
2031000000,203,2031000000,world,0.00566354202851,0.00214804544275,2.33765635965,0.000393181848305,-0.000598346677034,-2.62127507015e-05,0.999999743351
2041000000,204,2041000000,world,0.00570157269448,0.00213290534984,2.34539160478,0.000383178241046,-0.000598656978552,-2.62149932833e-05,0.999999747048
2051000000,205,2051000000,world,0.00573784547692,0.00211734190836,2.35301660695,0.000372740899629,-0.000598577362844,-2.62165078814e-05,0.999999751041
2061000000,206,2061000000,world,0.00577237029955,0.00210141783059,2.36053587755,0.000361779514411,-0.0005981205356,-2.6217757882e-05,0.99999975534
2071000000,207,2071000000,world,0.00580367928131,0.00209718774627,2.36795376906,0.000348949535621,-0.000597456800257,-2.62257687013e-05,0.999999760296
2081000000,208,2081000000,world,0.00583338601708,0.002092567625,2.3752744591,0.000335522396488,-0.000596418004852,-2.62334176468e-05,0.999999765511
2091000000,209,2091000000,world,0.00586154162063,0.00208683327512,2.38250197757,0.000321762008852,-0.000594993739173,-2.62401743219e-05,0.999999770882
2101000000,210,2101000000,world,0.00588821598769,0.00208386413266,2.38964020812,0.000307359451206,-0.000593184573565,-2.62479594669e-05,0.999999776487
2111000000,211,2111000000,world,0.0059134664559,0.00208522369212,2.39669288828,0.000292220646071,-0.000590969392332,-2.62573982988e-05,0.999999782336
2121000000,212,2121000000,world,0.00593731236932,0.0020847967096,2.40366361173,0.000276991566404,-0.00058834090578,-2.62653255223e-05,0.99999978822
2131000000,213,2131000000,world,0.00595979990251,0.00208254126823,2.41055568313,0.000261565800378,-0.000585313529186,-2.62719807173e-05,0.999999794151
2141000000,214,2141000000,world,0.00598097361382,0.00207846134636,2.41737164391,0.000245897481175,-0.000581907488347,-2.62776961922e-05,0.999999800114
2151000000,215,2151000000,world,0.00600186469337,0.00207824767755,2.42411378707,0.000229340307573,-0.000578059343226,-2.62849805815e-05,0.99999980628
2161000000,216,2161000000,world,0.00602157085864,0.00207658950819,2.43078431058,0.000212582968031,-0.000573862057789,-2.62912143932e-05,0.9999998124
2171000000,217,2171000000,world,0.006040004897,0.00207288522586,2.43738533233,0.000195952098731,-0.000569263628279,-2.62960058145e-05,0.999999818425
2181000000,218,2181000000,world,0.00605865709458,0.00207163215747,2.44391889328,0.000179057402413,-0.000564077814794,-2.63012745114e-05,0.999999824531
2191000000,219,2191000000,world,0.00607625632236,0.00206932024639,2.45038695011,0.000162335596131,-0.000558426323549,-2.63053399815e-05,0.999999830558
2201000000,220,2201000000,world,0.0060925515528,0.00206488335613,2.45679138712,0.000145800485273,-0.000552363118229,-2.6307736035e-05,0.999999836473
2211000000,221,2211000000,world,0.00610756265859,0.00205842271919,2.46313401726,0.000129359909802,-0.000545941360439,-2.63089369265e-05,0.999999842261
2221000000,222,2221000000,world,0.00612131405611,0.0020500637627,2.46941658407,0.000112955356569,-0.000539218160963,-2.63091660766e-05,0.999999847896
2231000000,223,2231000000,world,0.00613623821116,0.00204332555154,2.47564076755,9.62022983158e-05,-0.000532031389877,-2.63099735642e-05,0.999999853498
2241000000,224,2241000000,world,0.00614993670246,0.00203496082555,2.48180817663,7.97087224285e-05,-0.000524535445115,-2.6309524606e-05,0.999999858908
2251000000,225,2251000000,world,0.00616228763764,0.00202492130048,2.48792021423,6.36341205623e-05,-0.000516657226916,-2.63078052291e-05,0.999999864162
2261000000,226,2261000000,world,0.00617331118292,0.00201335143008,2.49397742664,4.80151938126e-05,-0.000508370456288,-2.63047916925e-05,0.999999869281
2271000000,227,2271000000,world,0.00618439195408,0.00200227832537,2.49998007527,3.26199466669e-05,-0.000499537918092,-2.6301385489e-05,0.999999874353
2281000000,228,2281000000,world,0.00619520927587,0.00199136005988,2.5059284092,1.73525030236e-05,-0.000490276522414,-2.62976303999e-05,0.999999879318
2291000000,229,2291000000,world,0.00620464072821,0.00197914013993,2.51182266713,2.3081076473e-06,-0.000480786710939,-2.62931337018e-05,0.999999884074
2301000000,230,2301000000,world,0.00621521307727,0.00196744594257,2.51766308198,-1.27586589956e-05,-0.000470930420276,-2.62890990248e-05,0.999999888685
2311000000,231,2311000000,world,0.00622492206191,0.00195502434046,2.52344987325,-2.76050820718e-05,-0.000460949315365,-2.62843681097e-05,0.999999893036
2321000000,232,2321000000,world,0.0062331368808,0.00194156098148,2.52918325336,-4.19637189371e-05,-0.000450719087095,-2.62786260279e-05,0.9999998972
2331000000,233,2331000000,world,0.00623988589425,0.00192717872854,2.53486384813,-5.57939796724e-05,-0.000440184494331,-2.62719286149e-05,0.999999901217
2341000000,234,2341000000,world,0.00624634369967,0.00191284822579,2.54049455432,-6.9172008607e-05,-0.000429213411625,-2.62647784578e-05,0.999999905151
2351000000,235,2351000000,world,0.00625270928168,0.00189880114745,2.54607891723,-8.22277003981e-05,-0.000417855896231,-2.62572734687e-05,0.999999908973
2361000000,236,2361000000,world,0.00625759249133,0.00188407579789,2.55162034843,-9.49364531885e-05,-0.000406369704793,-2.62491276135e-05,0.999999912581
2371000000,237,2371000000,world,0.00626103819972,0.00186877362165,2.55712213259,-0.000107361259141,-0.000394861723173,-2.62405110601e-05,0.999999915935
2381000000,238,2381000000,world,0.00626384866629,0.00185323324856,2.56258743159,-0.000119547898255,-0.000383397075076,-2.62315771722e-05,0.999999919013
2391000000,239,2391000000,world,0.00626747076715,0.00183800166754,2.56801928856,-0.000131349703541,-0.000371643330943,-2.62227831508e-05,0.99999992197
2401000000,240,2401000000,world,0.00626964840435,0.0018224440386,2.57342062975,-0.000142606722689,-0.000359697852103,-2.62132843756e-05,0.999999924797
2411000000,241,2411000000,world,0.00627042938708,0.00180664734597,2.57879427226,-0.000153302525191,-0.000347534313469,-2.62030413853e-05,0.999999927516
2421000000,242,2421000000,world,0.00627035244204,0.00179082060145,2.58414292695,-0.000163504047639,-0.000335130529773,-2.61921282838e-05,0.999999930134
2431000000,243,2431000000,world,0.0062708444968,0.00177540057277,2.58946920247,-0.000173346579413,-0.000322459363131,-2.61814105362e-05,0.999999932643
2441000000,244,2441000000,world,0.00626999152948,0.00175993735697,2.59477560661,-0.0001828351128,-0.000309833958262,-2.61703795242e-05,0.999999934945
2451000000,245,2451000000,world,0.00626785396653,0.0017444956814,2.60006384744,-0.000192018233768,-0.000297421971568,-2.61589541359e-05,0.999999936992
2461000000,246,2461000000,world,0.00626529746825,0.00172913943985,2.60533172897,-0.000200799144966,-0.000285078756565,-2.61472322334e-05,0.999999938863
2471000000,247,2471000000,world,0.00626336068806,0.00171392918107,2.61057587857,-0.000209065475754,-0.00027247144757,-2.61356871405e-05,0.999999940684
2481000000,248,2481000000,world,0.00626018576749,0.00169891939572,2.61579305982,-0.000216807728303,-0.000259747257507,-2.61236221085e-05,0.999999942422
2491000000,249,2491000000,world,0.00625583341732,0.0016841586723,2.62098016958,-0.000224039692167,-0.000246908815937,-2.61109120102e-05,0.99999994408
2501000000,250,2501000000,world,0.00625037282785,0.0016696895883,2.62613423112,-0.000230843780874,-0.000234057594271,-2.60976095635e-05,0.999999945624
2511000000,251,2511000000,world,0.00624608934697,0.00165510363698,2.63125239008,-0.000237221602294,-0.00022106374325,-2.60849085177e-05,0.999999947088
2521000000,252,2521000000,world,0.00624071548057,0.00164091005612,2.63633190548,-0.000243272657973,-0.000208310981869,-2.60719789308e-05,0.999999948373
2531000000,253,2531000000,world,0.00623431321782,0.00162714466101,2.64137022848,-0.000248985924744,-0.00019589378566,-2.60586021229e-05,0.999999949476
2541000000,254,2541000000,world,0.00622837448734,0.00161334285634,2.64636550685,-0.000254204080547,-0.000183400471933,-2.60453169093e-05,0.999999950533
2551000000,255,2551000000,world,0.0062220484469,0.00159985136604,2.65131622274,-0.000258945276429,-0.000170825837152,-2.60318978927e-05,0.999999951544
2561000000,256,2561000000,world,0.00621476052373,0.0015869173636,2.65622092011,-0.000263233232549,-0.000158217220495,-2.60180418246e-05,0.999999952499
2571000000,257,2571000000,world,0.00620657390729,0.00157456158462,2.66107820139,-0.000267111960177,-0.000145629419398,-2.60036300677e-05,0.999999953384
2581000000,258,2581000000,world,0.00619755695669,0.00156279957428,2.66588672481,-0.000270613654006,-0.000133175434707,-2.59889703233e-05,0.999999954179
2591000000,259,2591000000,world,0.00618916335101,0.00155091463116,2.67064520285,-0.000273703045265,-0.000120803133434,-2.5974758821e-05,0.999999954909
2601000000,260,2601000000,world,0.00618058066259,0.00153930282484,2.67535239812,-0.000276443125687,-0.000108761662821,-2.59605049499e-05,0.999999955538
2611000000,261,2611000000,world,0.00617125272992,0.00152838197531,2.68000712261,-0.000278827242125,-9.69779635822e-05,-2.59458641719e-05,0.999999956089
2621000000,262,2621000000,world,0.0061612346821,0.00151816126086,2.68460823599,-0.000280826960437,-8.52635668443e-05,-2.5930984153e-05,0.999999956597
2631000000,263,2631000000,world,0.00615194920386,0.00150743322802,2.6891546442,-0.000282317082607,-7.34351212403e-05,-2.59163771446e-05,0.999999957116
2641000000,264,2641000000,world,0.00614201792511,0.00149747976392,2.6936452948,-0.000283445399121,-6.16514928023e-05,-2.59013547331e-05,0.999999957593
2651000000,265,2651000000,world,0.00613149562265,0.0014883049041,2.69807889183,-0.000284230943279,-5.00101576575e-05,-2.58859799253e-05,0.999999958021
2661000000,266,2661000000,world,0.00612079882242,0.00147959187522,2.70245205774,-0.000284663543383,-3.85587604145e-05,-2.58707261523e-05,0.999999958405
2671000000,267,2671000000,world,0.00611100545379,0.00147044361025,2.70676061389,-0.000284677435854,-2.73059461756e-05,-2.58559769143e-05,0.999999958772
2681000000,268,2681000000,world,0.00610069332232,0.00146214208714,2.71100054969,-0.000284408298826,-1.64606363887e-05,-2.5840926411e-05,0.999999959087
2691000000,269,2691000000,world,0.00608990430343,0.00145468262202,2.71516802101,-0.000283843171477,-5.79453264123e-06,-2.58256282747e-05,0.999999959366
2701000000,270,2701000000,world,0.00607868756718,0.0014480528193,2.71925934213,-0.000282988290944,4.76854293838e-06,-2.58101698731e-05,0.999999959614
2711000000,271,2711000000,world,0.00606797471132,0.00144070619895,2.72327097978,-0.00028168829071,1.53399222533e-05,-2.57948977633e-05,0.999999959876
2721000000,272,2721000000,world,0.00605693416338,0.00143416384762,2.727199544,-0.000280113149147,2.57840426217e-05,-2.57792595885e-05,0.999999960104
2731000000,273,2731000000,world,0.00604556571236,0.00142849980565,2.73104239107,-0.000278174354383,3.60050682109e-05,-2.5762393766e-05,0.999999960329
2741000000,274,2741000000,world,0.00603391906837,0.0014237003518,2.7348005183,-0.000275752283722,4.59324370316e-05,-2.57426154033e-05,0.999999960594
2751000000,275,2751000000,world,0.00602338926505,0.00141817235683,2.7384761492,-0.000272688541836,5.55930319443e-05,-2.57204563178e-05,0.999999960944
2761000000,276,2761000000,world,0.00601260092552,0.00141347547316,2.74207142244,-0.000269168407183,6.49311470769e-05,-2.5695285003e-05,0.999999961336
2771000000,277,2771000000,world,0.00600158925144,0.00140967830941,2.74558839589,-0.000265235171917,7.40957977588e-05,-2.56673122465e-05,0.999999961751
2781000000,278,2781000000,world,0.00599039523607,0.00140675694637,2.749029049,-0.000260909657403,8.31200275405e-05,-2.56366477638e-05,0.99999996218
2791000000,279,2791000000,world,0.00596922779273,0.00140309117449,2.75239528839,-0.000256039770601,9.09650388004e-05,-2.56010879019e-05,0.999999962757
2801000000,280,2801000000,world,0.00594749505355,0.00140006144412,2.75568894288,-0.000250743705889,9.85880587065e-05,-2.55628504122e-05,0.999999963377
2811000000,281,2811000000,world,0.00592645398235,0.00139793618086,2.7589117731,-0.000245041921623,0.000106088605773,-2.5522621411e-05,0.999999964024
2821000000,282,2821000000,world,0.00590547213597,0.0013966400198,2.7620654728,-0.000238942636391,0.000113356543069,-2.5480398167e-05,0.999999964704
2831000000,283,2831000000,world,0.00588372965228,0.00139605124715,2.7651516709,-0.000232442819966,0.000120284175934,-2.54359147404e-05,0.999999965428
2841000000,284,2841000000,world,0.0058630333162,0.00139627449324,2.76817193307,-0.000225631502864,0.000127220109501,-2.53895751335e-05,0.99999996613
2851000000,285,2851000000,world,0.00584341822373,0.0013972681265,2.77112796808,-0.000218544111081,0.000134246026316,-2.53415478829e-05,0.999999966787
2861000000,286,2861000000,world,0.00582489685062,0.00139898928475,2.77402223475,-0.000211194534902,0.00014140371784,-2.52918414055e-05,0.999999967381
2871000000,287,2871000000,world,0.00580790041467,0.00140147665455,2.7768572976,-0.000203567684771,0.000148740849125,-2.52404623731e-05,0.9999999679
2881000000,288,2881000000,world,0.00579212895028,0.00140463533547,2.77963562421,-0.000195583606692,0.000156176039119,-2.5187653902e-05,0.999999968361
2891000000,289,2891000000,world,0.00577735496214,0.00140838436447,2.78235958847,-0.000187239379231,0.000163642853607,-2.51336749999e-05,0.999999968765
2901000000,290,2901000000,world,0.0057705669549,0.00140599276494,2.78503147412,-0.000177807699526,0.000171779876626,-2.50795330124e-05,0.999999969124
2911000000,291,2911000000,world,0.00576796277404,0.00140099248312,2.78765347717,-0.000167744005561,0.000180225755222,-2.50244771177e-05,0.999999969377
2921000000,292,2921000000,world,0.0057655151125,0.00139712693841,2.79022771053,-0.000157568109698,0.000188682979455,-2.4968007177e-05,0.999999969474
2931000000,293,2931000000,world,0.00576311833223,0.00139441414,2.79275619463,-0.000147328434687,0.000197158937309,-2.49101480391e-05,0.999999969401
2941000000,294,2941000000,world,0.00576442128579,0.00138944818579,2.79524074538,-0.000136695970202,0.000206027954631,-2.48512665003e-05,0.999999969125
2951000000,295,2951000000,world,0.00576785720044,0.00138248909795,2.79768303603,-0.000125628208813,0.000215032666674,-2.47912604281e-05,0.999999968682
2961000000,296,2961000000,world,0.00577080157475,0.00137703702934,2.80008467472,-0.000114473381225,0.000223791689102,-2.47301725407e-05,0.999999968101
2971000000,297,2971000000,world,0.00577321655246,0.00137307395572,2.80244720786,-0.000103251055741,0.000232191881253,-2.46680834256e-05,0.999999967409
2981000000,298,2981000000,world,0.00577528289503,0.00137033373016,2.80477212247,-9.19750844315e-05,0.000240180498072,-2.46048470047e-05,0.999999966624
2991000000,299,2991000000,world,0.00578024888471,0.00136493855846,2.80706084702,-8.04143533002e-05,0.000248228086821,-2.45408869677e-05,0.999999965657
3001000000,300,3001000000,world,0.00578451621679,0.00136108272354,2.80931475734,-6.90916831067e-05,0.000255996690317,-2.44757726565e-05,0.999999964546
3011000000,301,3011000000,world,0.00578811229424,0.00135870252592,2.81153528516,-5.80372991058e-05,0.000263474074066,-2.44094660505e-05,0.999999963309
3021000000,302,3021000000,world,0.00579108896967,0.00135771459045,2.81372462797,-4.7198104365e-05,0.000270608774149,-2.43418848365e-05,0.999999961975
3031000000,303,3031000000,world,0.00579458452642,0.00135611572569,2.81588526143,-3.62944687509e-05,0.000277433912604,-2.42737308332e-05,0.999999960562
3041000000,304,3041000000,world,0.00579799305124,0.00135501974378,2.81801956912,-2.54712036691e-05,0.000283814518912,-2.42050411721e-05,0.999999959107
3051000000,305,3051000000,world,0.00580092015672,0.0013551737593,2.82012984399,-1.48101986711e-05,0.000289630625795,-2.41355956317e-05,0.999999957656
3061000000,306,3061000000,world,0.00580368082503,0.00135543314645,2.82221829128,-4.32791414245e-06,0.000294994403166,-2.40654816551e-05,0.99999995619
3071000000,307,3071000000,world,0.00580626785658,0.00135611082982,2.82428703232,5.83459856872e-06,0.000299942763319,-2.39946692007e-05,0.999999954712
3081000000,308,3081000000,world,0.00580861020503,0.00135781886013,2.8263381075,1.55839483372e-05,0.000304467656781,-2.39229729917e-05,0.999999953242
3091000000,309,3091000000,world,0.00581079769929,0.00136045432436,2.8283734792,2.49486159682e-05,0.000308559481455,-2.38502765447e-05,0.9999999518
3101000000,310,3101000000,world,0.00581260670761,0.00136352011686,2.83039503484,3.40684765388e-05,0.000312147079882,-2.37769968172e-05,0.999999950419
3111000000,311,3111000000,world,0.00581425125094,0.00136707033118,2.83240458934,4.29318863195e-05,0.000315222622305,-2.37034298377e-05,0.999999949115
3121000000,312,3121000000,world,0.00581603179343,0.00137127463752,2.834403888,5.15208110124e-05,0.000317794692733,-2.36294301675e-05,0.999999947897
3131000000,313,3131000000,world,0.00581802672736,0.00137603396426,2.83639426,5.97837458181e-05,0.00031991888339,-2.35547849813e-05,0.999999946761
3141000000,314,3141000000,world,0.00582030635473,0.00138125086651,2.83837437922,6.76212378257e-05,0.000321607069499,-2.34794883344e-05,0.999999945722
3151000000,315,3151000000,world,0.00582293322025,0.00138683476699,2.84034182487,7.50274732562e-05,0.000322861978649,-2.34035779544e-05,0.999999944792
3161000000,316,3161000000,world,0.00582574844903,0.00139322536022,2.84229426948,8.19682407485e-05,0.00032366711419,-2.33268497915e-05,0.999999943988
3171000000,317,3171000000,world,0.00582507288301,0.0014064446231,2.8442294857,8.79067675456e-05,0.000323629841713,-2.32481673236e-05,0.999999943498
3181000000,318,3181000000,world,0.00582514299621,0.00142239447402,2.84614532493,9.33012042604e-05,0.000323211948651,-2.31681925451e-05,0.999999943146
3191000000,319,3191000000,world,0.00582602616803,0.00143773026042,2.84803973043,9.8507809429e-05,0.000322448330063,-2.3088156721e-05,0.999999942895
3201000000,320,3201000000,world,0.00582776842419,0.00145233653568,2.84991072789,0.000103554588578,0.000321412333365,-2.30079022551e-05,0.999999942721
3211000000,321,3211000000,world,0.00582985508941,0.00146809923358,2.85175642339,0.000108198347522,0.000320027159506,-2.29268318843e-05,0.999999942675
3221000000,322,3221000000,world,0.00583208467194,0.0014857588057,2.85357523079,0.000112373794967,0.000318231979287,-2.28448366543e-05,0.999999942789
3231000000,323,3231000000,world,0.00583650149487,0.00150115339123,2.85536688873,0.000116556929608,0.00031625270104,-2.27627454176e-05,0.99999994294
3241000000,324,3241000000,world,0.00584185385164,0.00151537004956,2.85713156704,0.000120684680004,0.000313973336165,-2.26803360174e-05,0.999999943171
3251000000,325,3251000000,world,0.00584812642033,0.00152840793608,2.85886942781,0.000124821216909,0.00031141942676,-2.25979294071e-05,0.999999943463
3261000000,326,3261000000,world,0.00585630228446,0.00153845589922,2.86058062568,0.000129160461238,0.000308723660973,-2.25161446817e-05,0.99999994375
3271000000,327,3271000000,world,0.005865618262,0.00154689137296,2.86226531111,0.000133572396595,0.000305871158514,-2.24345773822e-05,0.999999944049
3281000000,328,3281000000,world,0.00587569176567,0.00155440480755,2.86392362833,0.00013795963897,0.000302827857765,-2.23529048197e-05,0.999999944381
3291000000,329,3291000000,world,0.00588648932667,0.00156106005059,2.86555571558,0.000142291843383,0.000299474141449,-2.22711856305e-05,0.999999944786
3301000000,330,3301000000,world,0.00589797785026,0.00156691957791,2.86716170564,0.000146566890332,0.0002957953584,-2.21893828007e-05,0.999999945265
3311000000,331,3311000000,world,0.00591027106041,0.00157173386663,2.86874172595,0.000150828695168,0.000291807709349,-2.21074022108e-05,0.999999945805
3321000000,332,3321000000,world,0.00592375082764,0.00157468193647,2.87029589856,0.000155210948244,0.000287584630132,-2.20255465109e-05,0.99999994636
3331000000,333,3331000000,world,0.0059377913422,0.00157709568956,2.87182451318,0.000159574589691,0.000283090029741,-2.19438439196e-05,0.999999946957
3341000000,334,3341000000,world,0.00595236294769,0.00157903145425,2.87332877944,0.000163907141522,0.000278384575584,-2.18622637529e-05,0.999999947579
3351000000,335,3351000000,world,0.00596776845914,0.00157953210167,2.87481016764,0.000168291903988,0.000273571144874,-2.17808416256e-05,0.999999948181
3361000000,336,3361000000,world,0.00598365844217,0.00157964598983,2.87627009258,0.00017256549103,0.000268447690652,-2.16993077096e-05,0.999999948843
3371000000,337,3371000000,world,0.00599999565557,0.00157946503342,2.87770991406,0.000176705936424,0.000262952816334,-2.16176795901e-05,0.999999949582
3381000000,338,3381000000,world,0.0060167626221,0.00157901677119,2.87913093941,0.000180713140382,0.000257078009791,-2.15358307376e-05,0.999999950395
3391000000,339,3391000000,world,0.00603397283572,0.0015775165305,2.88053442522,0.000184698618529,0.000250858173328,-2.14539080679e-05,0.999999951248
3401000000,340,3401000000,world,0.00605158993658,0.00157563180522,2.88192158012,0.000188608715917,0.000244338769332,-2.13720857505e-05,0.999999952134
3411000000,341,3411000000,world,0.00606957141878,0.001573440027,2.88329356586,0.000192411579338,0.000237579712045,-2.12904277799e-05,0.99999995304
3421000000,342,3421000000,world,0.00608772738954,0.0015698597688,2.88465149887,0.000196210547452,0.000230690088377,-2.12091398754e-05,0.999999953917
3431000000,343,3431000000,world,0.00610626440002,0.00156619865464,2.88599645325,0.000199817105825,0.000223551043188,-2.11276585648e-05,0.999999954826
3441000000,344,3441000000,world,0.00612517853246,0.00156245872704,2.88732946115,0.000203208118102,0.000216018492225,-2.1046088467e-05,0.9999999558
3451000000,345,3451000000,world,0.00614446172309,0.00155863373402,2.88865111763,0.000206382508267,0.00020807820184,-2.09643543617e-05,0.999999956835
3461000000,346,3461000000,world,0.00616378227717,0.00155385410965,2.88996039884,0.000209444810689,0.00019972144377,-2.08826042198e-05,0.999999957904
3471000000,347,3471000000,world,0.00618346988495,0.00154891980859,2.89125593292,0.000212338422336,0.000191059815442,-2.08007921502e-05,0.999999958988
3481000000,348,3481000000,world,0.00620351521038,0.00154391545591,2.89253640269,0.000215023101614,0.000182163543196,-2.07191161547e-05,0.999999960076
3491000000,349,3491000000,world,0.0062239041876,0.00153882235182,2.8938005434,0.000217489237664,0.000173184634974,-2.06374490806e-05,0.99999996114
3501000000,350,3501000000,world,0.0062446242666,0.00153361746291,2.89504714073,0.000219713868716,0.000164085045033,-2.05556289242e-05,0.99999996219
3511000000,351,3511000000,world,0.00626488454921,0.0015270750301,2.89627502845,0.000221806700041,0.000154533140364,-2.04742837373e-05,0.999999963251
3521000000,352,3521000000,world,0.00628549985813,0.00152044146153,2.89748308722,0.00022363367333,0.000144581337129,-2.03928466243e-05,0.999999964334
3531000000,353,3531000000,world,0.00630645899976,0.00151369951703,2.89867043463,0.00022520586334,0.000134239177197,-2.03111606769e-05,0.999999965425
3541000000,354,3541000000,world,0.00632635763132,0.0015068278903,2.89983727262,0.000226542516598,0.00012344731342,-2.02295999047e-05,0.999999966515
3551000000,355,3551000000,world,0.00633444013171,0.00149640977834,2.90098414212,0.000227976577287,0.000111169786474,-2.01519850297e-05,0.999999967631
3561000000,356,3561000000,world,0.00634364823837,0.00148601680386,2.90211156013,0.000229101326586,9.89754873075e-05,-2.00741843693e-05,0.999999968657
3571000000,357,3571000000,world,0.00635406044198,0.00147565005454,2.90322002562,0.000229901625783,8.70186499019e-05,-1.9995998724e-05,0.999999969587
3581000000,358,3581000000,world,0.00636571910862,0.00146529964541,2.90431001813,0.000230365787773,7.49885941634e-05,-1.99174700682e-05,0.999999970456
3591000000,359,3591000000,world,0.0063702545605,0.00145388250526,2.90538199908,0.000230604432167,6.19344739134e-05,-1.98411010541e-05,0.999999971296
3601000000,360,3601000000,world,0.00637651408624,0.00144250534285,2.90643641017,0.000230504992021,4.88290255573e-05,-1.97641448531e-05,0.999999972046
3611000000,361,3611000000,world,0.00638450937626,0.00143114929009,2.90747367703,0.000230066448106,3.58027685016e-05,-1.96864872215e-05,0.9999999727
3621000000,362,3621000000,world,0.00638993187691,0.00142024333253,2.90849420912,0.000229224525403,2.25511710901e-05,-1.96097465865e-05,0.999999973282
3631000000,363,3631000000,world,0.00639620335799,0.00140938703938,2.90949839892,0.000227979674504,9.60733317343e-06,-1.95329557468e-05,0.999999973776
3641000000,364,3641000000,world,0.00640436859226,0.00139842778102,2.91048662411,0.000226332598156,-2.68551258414e-06,-1.94556115675e-05,0.999999974194
3651000000,365,3651000000,world,0.00641434767565,0.00138733168135,2.91145924712,0.000224310661103,-1.45556827099e-05,-1.93776861732e-05,0.999999974549
3661000000,366,3661000000,world,0.00642510749874,0.00137669450857,2.91241660177,0.000221866028444,-2.62778768518e-05,-1.92996928623e-05,0.999999974856
3671000000,367,3671000000,world,0.00643614353515,0.00136673928392,2.91335899415,0.000218994440059,-3.78823618999e-05,-1.92217388732e-05,0.999999975118
3681000000,368,3681000000,world,0.00644875474797,0.00135645814502,2.91428671737,0.000215800590478,-4.91531753952e-05,-1.9143097734e-05,0.999999975324
3691000000,369,3691000000,world,0.00646280348736,0.0013458159498,2.91520005351,0.000212264496111,-5.99730458626e-05,-1.90640537912e-05,0.999999975492
3701000000,370,3701000000,world,0.00647814308967,0.00133478502232,2.91609927363,0.000208346224059,-7.0257068188e-05,-1.89848830251e-05,0.999999975648
3711000000,371,3711000000,world,0.00649425326523,0.00132334513789,2.91698463808,0.000204022003721,-7.98938878636e-05,-1.89056187185e-05,0.999999975817
3721000000,372,3721000000,world,0.0065104330637,0.0013132399028,2.91785639778,0.000199158772681,-8.90033024043e-05,-1.88267772487e-05,0.99999997603
3731000000,373,3731000000,world,0.00652739747725,0.00130303041476,2.91871479246,0.000193970518974,-9.77380890125e-05,-1.87478642587e-05,0.999999976236
3741000000,374,3741000000,world,0.00654516438094,0.00129224558607,2.91956005186,0.000188535984382,-0.000106103425256,-1.86687251733e-05,0.999999976424
3751000000,375,3751000000,world,0.00656360409019,0.00128087594721,2.92039207249,0.000182868642902,-0.00011408408087,-1.85892166629e-05,0.999999976599
3761000000,376,3761000000,world,0.00658248016085,0.00127087367487,2.92121003503,0.000176723685462,-0.000121623259373,-1.85100766076e-05,0.999999976817
3771000000,377,3771000000,world,0.00660174662766,0.00126099182048,2.92201305667,0.000170192388717,-0.000128667390988,-1.84312800335e-05,0.99999997707
3781000000,378,3781000000,world,0.006621342674,0.00125036035018,2.92280028979,0.000163328571207,-0.000135139681243,-1.8352551881e-05,0.999999977362
3791000000,379,3791000000,world,0.00664511640269,0.00123727452833,2.92357092131,0.000156356544249,-0.000140597122305,-1.82722156209e-05,0.999999977726
3801000000,380,3801000000,world,0.00667456988837,0.00122106525316,2.92432417012,0.000149457455062,-0.000145086100142,-1.81897206633e-05,0.999999978141
3811000000,381,3811000000,world,0.00670468878568,0.001203379081,2.92505928476,0.000142478845299,-0.000149178204144,-1.81068426382e-05,0.999999978559
3821000000,382,3821000000,world,0.00673482760199,0.00118470692872,2.92577554436,0.000135381038506,-0.000152962807625,-1.80237358014e-05,0.999999978975
3831000000,383,3831000000,world,0.00676402155558,0.00116583379064,2.92647225649,0.000128018028452,-0.000156539359335,-1.79407780529e-05,0.999999979392
3841000000,384,3841000000,world,0.006792189006,0.00114681481115,2.92714875619,0.000120320918833,-0.000159914733058,-1.78583907713e-05,0.999999979816
3851000000,385,3851000000,world,0.00681928029523,0.0011276941486,2.92780479736,0.000112222179088,-0.000163088569384,-1.77766996424e-05,0.999999980246
3861000000,386,3861000000,world,0.00684490438089,0.00110864180981,2.92844172209,0.000103682891697,-0.000166059394235,-1.76956591549e-05,0.99999998068
3871000000,387,3871000000,world,0.00686915608191,0.00108965512805,2.92906120632,9.48266334489e-05,-0.000168906177931,-1.76151140162e-05,0.999999981084
3881000000,388,3881000000,world,0.00689236482444,0.00107064422484,2.92966486167,8.57140681205e-05,-0.000171680756059,-1.75350089125e-05,0.999999981436
3891000000,389,3891000000,world,0.00691456161708,0.00105162679077,2.93025423779,7.63666318683e-05,-0.000174390190009,-1.74552215751e-05,0.999999981726
3901000000,390,3901000000,world,0.00693578466067,0.00103261583918,2.93083082473,6.67399642168e-05,-0.000177027912898,-1.73755581396e-05,0.999999981952
3911000000,391,3911000000,world,0.00695607713758,0.00101362123068,2.93139605521,5.67423492258e-05,-0.000179575043322,-1.72962846554e-05,0.999999982117
3921000000,392,3921000000,world,0.00697548519211,0.000994651889761,2.93195130677,4.63035329707e-05,-0.000182016713793,-1.72176314875e-05,0.999999982215
3931000000,393,3931000000,world,0.00699395173657,0.000975808638058,2.93249790385,3.53592138498e-05,-0.000184317751082,-1.71394966549e-05,0.999999982241
3941000000,394,3941000000,world,0.00701072975843,0.000957813702744,2.9330371195,2.39533375959e-05,-0.000186558561281,-1.70620021867e-05,0.999999982166
3951000000,395,3951000000,world,0.00702682582195,0.0009398243831,2.93357017871,1.22920465398e-05,-0.000188734881353,-1.69847598161e-05,0.99999998197
3961000000,396,3961000000,world,0.00703809355636,0.000936560614896,2.93409840899,-1.12925760594e-06,-0.000191285527264,-1.691059696e-05,0.999999981561
3971000000,397,3971000000,world,0.00704903031568,0.000932422111886,2.93462342486,-1.46328073565e-05,-0.000193717748188,-1.68362070162e-05,0.999999980988
3981000000,398,3981000000,world,0.00705970856652,0.000927299004424,2.9351468227,-2.83092674618e-05,-0.000195989364974,-1.67616934956e-05,0.999999980253
3991000000,399,3991000000,world,0.00706922332232,0.000926280849193,2.93567013674,-4.2738348971e-05,-0.000198169982772,-1.66883323447e-05,0.999999979312
