%time,field.header.seq,field.header.stamp,field.header.frame_id,field.point.x,field.point.y,field.point.z
1000000,0,1000000,world,0.0,0.0,0.74
11000000,1,11000000,world,-1.07738277069e-27,-1.09807001825e-27,0.739461
21000000,2,21000000,world,1.63692024856e-24,1.51811157212e-24,0.737942
31000000,3,31000000,world,-4.38394968409e-25,-6.00545634499e-25,0.735443
41000000,4,41000000,world,-1.4288227372e-24,-1.79321964477e-24,0.731964
51000000,5,51000000,world,-2.69206115799e-25,-7.55861801429e-25,0.727505
61000000,6,61000000,world,4.36934927905e-25,3.89341348587e-26,0.722066
71000000,7,71000000,world,-2.70876163347e-19,2.70442832997e-19,0.715647
81000000,8,81000000,world,-9.82139323021e-19,9.80614931571e-19,0.708248
91000000,9,91000000,world,-1.73690716921e-18,1.73424121102e-18,0.699869
101000000,10,101000000,world,-2.53102176468e-18,2.52723064541e-18,0.69051
111000000,11,111000000,world,-3.35781237289e-18,3.35281083113e-18,0.680171
121000000,12,121000000,world,-4.21933315137e-18,4.20066552921e-18,0.668852
131000000,13,131000000,world,1.16351295138e-15,1.10804500336e-15,0.656553000915
141000000,14,141000000,world,2.74482608402e-14,2.58118487533e-14,0.643274351277
151000000,15,151000000,world,2.63767609942e-14,2.30539891827e-14,0.629018374184
161000000,16,161000000,world,-1.71618950753e-06,1.17206691488e-07,0.624997960689
171000000,17,171000000,world,3.76586061589e-06,2.07212111854e-06,0.624996408728
181000000,18,181000000,world,-3.39144171114e-06,-3.62031214234e-06,0.624996394731
191000000,19,191000000,world,4.5258137493e-06,1.06686820664e-06,0.624996332382
201000000,20,201000000,world,-2.75428733127e-06,-4.44491586044e-06,0.624996490054
211000000,21,211000000,world,4.96259393056e-06,1.02933328818e-07,0.624996435082
221000000,22,221000000,world,-2.1063270796e-06,-5.2321218021e-06,0.624996603134
231000000,23,231000000,world,5.35135680508e-06,-8.37431018658e-07,0.624996559164
241000000,24,241000000,world,6.63243778332e-07,-6.50718743081e-06,0.624996747556
251000000,25,251000000,world,6.09821641179e-06,-4.06769357588e-06,0.624997787079
261000000,26,261000000,world,-5.85047775672e-07,-1.52400046901e-06,0.624996705047
271000000,27,271000000,world,4.45299323875e-06,-7.02573299608e-06,0.624996991488
281000000,28,281000000,world,2.65078281638e-06,-1.0937405724e-06,0.624998748025
291000000,29,291000000,world,5.68172695189e-06,-2.54754069472e-06,0.624997525684
301000000,30,301000000,world,5.07447241734e-08,-5.11442555206e-06,0.624998008699
311000000,31,311000000,world,5.41347175999e-06,-3.41266337714e-06,0.624997798243
321000000,32,321000000,world,1.04414542394e-06,-6.56521019187e-06,0.624997961907
331000000,33,331000000,world,5.0960548601e-06,-3.09856171396e-06,0.624997881738
341000000,34,341000000,world,1.19875844578e-06,-4.99724202705e-06,0.624998712401
351000000,35,351000000,world,5.05554891623e-06,-5.62959702629e-06,0.624999164165
361000000,36,361000000,world,1.61886952222e-06,-4.27589482876e-06,0.624999023726
371000000,37,371000000,world,4.46507885014e-06,-4.99856650944e-06,0.624999175945
381000000,38,381000000,world,2.60831429256e-06,-5.01521417369e-06,0.625000327991
391000000,39,391000000,world,3.356321753e-06,-4.93899736085e-06,0.625000067676
401000000,40,401000000,world,3.07885315267e-06,-5.170816586e-06,0.625000078068
411000000,41,411000000,world,3.27698286119e-06,-5.06620589206e-06,0.624999989869
421000000,42,421000000,world,3.23838832559e-06,-5.25961362152e-06,0.625000103032
431000000,43,431000000,world,3.47944345628e-06,-5.00758961879e-06,0.625000129332
441000000,44,441000000,world,3.13408483244e-06,-5.05189488247e-06,0.625000073117
451000000,45,451000000,world,3.59527593137e-06,-5.06959069937e-06,0.62500019719
461000000,46,461000000,world,3.26699006551e-06,-5.07213587298e-06,0.624999991023
471000000,47,471000000,world,3.34957486537e-06,-5.0187085541e-06,0.62499981847
481000000,48,481000000,world,3.06209844802e-06,-5.01474102419e-06,0.625000029495
491000000,49,491000000,world,3.20098483401e-06,-5.00547682392e-06,0.625000019315
501000000,50,501000000,world,7.28946704651e-06,-1.03378956142e-06,0.625008179517
511000000,51,511000000,world,1.36449837821e-05,4.20949539427e-06,0.625059440726
521000000,52,521000000,world,2.13238572698e-05,9.59707883916e-06,0.625193972605
531000000,53,531000000,world,3.01260226201e-05,1.4955141153e-05,0.6254510747
541000000,54,541000000,world,3.98697527473e-05,2.01490420414e-05,0.625867966834
551000000,55,551000000,world,5.03921000488e-05,2.50774072889e-05,0.626479425404
561000000,56,561000000,world,6.15488565426e-05,2.96675989073e-05,0.627319254297
571000000,57,571000000,world,7.35498584093e-05,3.4189071466e-05,0.628420383915
581000000,58,581000000,world,8.64202742999e-05,3.8744183933e-05,0.62981487064
591000000,59,591000000,world,9.95431681157e-05,4.28297935189e-05,0.631533899052
601000000,60,601000000,world,0.00011283524784,4.64466179511e-05,0.633607786481
611000000,61,611000000,world,0.000126169134659,4.97222790766e-05,0.636065989676
621000000,62,621000000,world,0.00013948895735,5.25993448629e-05,0.638937113322
631000000,63,631000000,world,0.000152576168614,5.51731453155e-05,0.642248920155
641000000,64,641000000,world,0.000165669553314,5.73666284047e-05,0.646028342461
651000000,65,651000000,world,0.000178752604676,5.92230805483e-05,0.65030095309
661000000,66,661000000,world,0.000191815861218,6.07871056911e-05,0.655085848704
671000000,67,671000000,world,0.000204871610751,6.24389413313e-05,0.660398179218
681000000,68,681000000,world,0.000217914382471,6.40861523425e-05,0.666252534717
691000000,69,691000000,world,0.000230938499225,6.5538207867e-05,0.672662999596
701000000,70,701000000,world,0.00024418680494,6.74411996024e-05,0.679643167052
711000000,71,711000000,world,0.000257518999446,6.94509087657e-05,0.687206153824
721000000,72,721000000,world,0.000270841423665,7.13354691285e-05,0.695364614426
731000000,73,731000000,world,0.000284154871697,7.31176906137e-05,0.704127448286
741000000,74,741000000,world,0.000297565888745,7.49645340329e-05,0.713482525296
751000000,75,751000000,world,0.000311412612045,7.75934832663e-05,0.723410324343
761000000,76,761000000,world,0.00032525339831,8.01503810657e-05,0.733892189993
771000000,77,771000000,world,0.000339109635948,8.26743564035e-05,0.744910304497
781000000,78,781000000,world,0.000360604227453,9.33391458196e-05,0.75644764429
791000000,79,791000000,world,0.000398995237226,0.000122063656447,0.768487941361
801000000,80,801000000,world,0.000435924286535,0.000149197513819,0.781015659803
811000000,81,811000000,world,0.000471265746194,0.000174607327171,0.794015944728
821000000,82,821000000,world,0.000512962094946,0.000206749982966,0.807474589955
831000000,83,831000000,world,0.00056034223971,0.000244930801522,0.821378015593
841000000,84,841000000,world,0.00060512228722,0.000280355365419,0.835713241167
851000000,85,851000000,world,0.000647293242992,0.00031302763504,0.850464198992
861000000,86,861000000,world,0.000686912521425,0.000343024841881,0.865597425184
871000000,87,871000000,world,0.000731702850311,0.000378725809791,0.881075614529
881000000,88,881000000,world,0.000774177910227,0.000411999318949,0.896863427028
891000000,89,891000000,world,0.000818367759042,0.000443235448902,0.91292735009
901000000,90,901000000,world,0.000876681284581,0.000474577555507,0.929235593451
911000000,91,911000000,world,0.000931491244106,0.000503393739247,0.945758017572
921000000,92,921000000,world,0.000982886115637,0.000529900265715,0.962466008151
931000000,93,931000000,world,0.00103103424361,0.000554335125188,0.979331398804
941000000,94,941000000,world,0.00108411090537,0.0005758386597,0.996322035317
951000000,95,951000000,world,0.00113587320204,0.000595571653956,1.0134056953
961000000,96,961000000,world,0.00118447513951,0.000614078376274,1.03055186684
971000000,97,971000000,world,0.00123016188409,0.000631603734897,1.04773164788
981000000,98,981000000,world,0.00127505903083,0.000644812884737,1.06491765354
991000000,99,991000000,world,0.00131750072133,0.000657693401735,1.08208392362
1001000000,100,1001000000,world,0.0013577752155,0.000670464116312,1.09920584312
1011000000,101,1011000000,world,0.00139605088449,0.000683311699722,1.11626044809
1021000000,102,1021000000,world,0.00143042653591,0.000691750794107,1.13323066211
1031000000,103,1031000000,world,0.00146364789522,0.000700848431181,1.15010335885
1041000000,104,1041000000,world,0.00149601049867,0.000710757242421,1.16686608065
1051000000,105,1051000000,world,0.00152778566877,0.000721592065498,1.18350694175
1061000000,106,1061000000,world,0.00156120088226,0.000735274095385,1.20001459565
1071000000,107,1071000000,world,0.00159471674255,0.000750226287312,1.21637821893
1081000000,108,1081000000,world,0.00162815023737,0.000766129908289,1.23258747566
1091000000,109,1091000000,world,0.00166166016483,0.000782988571948,1.24863249511
1101000000,110,1101000000,world,0.00169538558902,0.00080079700937,1.26450384933
1111000000,111,1111000000,world,0.00171878179054,0.000818091138391,1.28019254597
1121000000,112,1121000000,world,0.00174327540958,0.000836389820706,1.29568996439
1131000000,113,1131000000,world,0.00176904795081,0.000855681665041,1.31098924402
1141000000,114,1141000000,world,0.00179623868388,0.000875953385698,1.32609124893
1151000000,115,1151000000,world,0.00182323152145,0.00089680772567,1.3409992737
1161000000,116,1161000000,world,0.00185023598167,0.000918171300892,1.35571648773
1171000000,117,1171000000,world,0.00187907686532,0.000940500393283,1.37024593954
1181000000,118,1181000000,world,0.00190740191683,0.000962490215146,1.3845905701
1191000000,119,1191000000,world,0.00193674516443,0.000984797175993,1.39875320402
1201000000,120,1201000000,world,0.00196816364408,0.00100811559976,1.41273656037
1211000000,121,1211000000,world,0.00200163625156,0.00103242420592,1.42654325779
1221000000,122,1221000000,world,0.00203711812175,0.00105769611983,1.44017581631
1231000000,123,1231000000,world,0.0020730802101,0.00108277403869,1.45363666343
1241000000,124,1241000000,world,0.00211084246091,0.00110853966141,1.46692813001
1251000000,125,1251000000,world,0.00215050095085,0.00113526193427,1.48005360611
1261000000,126,1261000000,world,0.00219198294126,0.00116291863563,1.49302154603
1271000000,127,1271000000,world,0.0022352107321,0.00119147374958,1.50584163224
1281000000,128,1281000000,world,0.0022793198856,0.0012201509004,1.5185232241
1291000000,129,1291000000,world,0.00232428863612,0.00124896933474,1.53107536163
1301000000,130,1301000000,world,0.00236472137021,0.00126749684188,1.54350678784
1311000000,131,1311000000,world,0.00240105892837,0.00127118585947,1.55582593435
1321000000,132,1321000000,world,0.00243960862084,0.00127742663691,1.56804092154
1331000000,133,1331000000,world,0.00248036173723,0.00128634979973,1.58015961609
1341000000,134,1341000000,world,0.00251463606086,0.00128177383652,1.59219054567
1351000000,135,1351000000,world,0.00255060526086,0.00127911230367,1.6041434668
1361000000,136,1361000000,world,0.00258925008256,0.00128028308429,1.6160279644
1371000000,137,1371000000,world,0.00263051538157,0.00128525358353,1.62785329701
1381000000,138,1381000000,world,0.00266870669534,0.0012869651391,1.63962841024
1391000000,139,1391000000,world,0.00270600049714,0.00128705817382,1.65136192997
1401000000,140,1401000000,world,0.00274616822644,0.00129125460924,1.66306218044
1411000000,141,1411000000,world,0.00278911404993,0.00129936461799,1.67473719917
1421000000,142,1421000000,world,0.00283471492726,0.00131114046066,1.68639474071
1431000000,143,1431000000,world,0.00288281445432,0.0013262989535,1.69804228485
1441000000,144,1441000000,world,0.00292763407089,0.00133804275023,1.70968704779
1451000000,145,1451000000,world,0.00297258385477,0.00134952550102,1.72133551727
1461000000,146,1461000000,world,0.00302000501257,0.00136409633331,1.73299047839
1471000000,147,1471000000,world,0.0030671620847,0.00137953450223,1.7446530823
1481000000,148,1481000000,world,0.00311074746157,0.00139317380061,1.75632442955
1491000000,149,1491000000,world,0.0031568439783,0.00140943674622,1.7680055769
1501000000,150,1501000000,world,0.00320532530096,0.00142806313281,1.77969754178
1511000000,151,1511000000,world,0.00325537577163,0.00144824735642,1.79140130203
1521000000,152,1521000000,world,0.00330176746479,0.00146562185823,1.8031177963
1531000000,153,1531000000,world,0.00335041068829,0.00148485492821,1.81484761913
1541000000,154,1541000000,world,0.00340115733447,0.00150571699243,1.82658903706
1551000000,155,1551000000,world,0.00344799497573,0.00152598605237,1.83833936961
1561000000,156,1561000000,world,0.00349551777918,0.00154703338824,1.85009604212
1571000000,157,1571000000,world,0.00354510129504,0.00156915238907,1.8618565842
1581000000,158,1581000000,world,0.00359506979928,0.00159169967433,1.87361862462
1591000000,159,1591000000,world,0.0036434012017,0.0016139476578,1.88537988719
1601000000,160,1601000000,world,0.0036935933026,0.00163674413607,1.89713818909
1611000000,161,1611000000,world,0.00374548835955,0.00165991015633,1.9088914347
1621000000,162,1621000000,world,0.0037983917219,0.00168330235576,1.92063761255
1631000000,163,1631000000,world,0.00384816835382,0.00170696821702,1.93237479135
1641000000,164,1641000000,world,0.00389942337211,0.00173049332451,1.94410111861
1651000000,165,1651000000,world,0.00395201219249,0.00175373623705,1.95581458832
1661000000,166,1661000000,world,0.00400578012121,0.00177657446179,1.96750950327
1671000000,167,1671000000,world,0.00405890182769,0.00179955048232,1.97917734706
1681000000,168,1681000000,world,0.00411135060238,0.00182251403006,1.99080988507
1691000000,169,1691000000,world,0.00415926662409,0.00184588801394,2.0023992381
1701000000,170,1701000000,world,0.00420473082326,0.00186928104379,2.01393786867
1711000000,171,1711000000,world,0.00425139921468,0.00189161358739,2.02541856395
1721000000,172,1721000000,world,0.00429918260914,0.00191282041207,2.03683441974
1731000000,173,1731000000,world,0.00434796636962,0.00193285492294,2.04817882703
1741000000,174,1741000000,world,0.00439761910419,0.00195168642442,2.05944545852
1751000000,175,1751000000,world,0.00444590671339,0.00197028339029,2.07062828369
1761000000,176,1761000000,world,0.00449183855544,0.00198903378926,2.08172219765
1771000000,177,1771000000,world,0.00453853003569,0.00200639452451,2.0927229732
1781000000,178,1781000000,world,0.00458587590028,0.00202235446572,2.10362658512
1791000000,179,1791000000,world,0.00463072285198,0.00203954240944,2.11442917494
1801000000,180,1801000000,world,0.00467583244872,0.00205547194456,2.12512704259
1811000000,181,1811000000,world,0.00472144668592,0.002069841138,2.13571664093
1821000000,182,1821000000,world,0.00476600738054,0.00208531651172,2.14619457041
1831000000,183,1831000000,world,0.00481057217948,0.00209975684626,2.15655756806
1841000000,184,1841000000,world,0.00485540216854,0.00211248722513,2.16680250559
1851000000,185,1851000000,world,0.0049003827355,0.0021235321284,2.17692671047
1861000000,186,1861000000,world,0.00494525886287,0.00213448679891,2.18692893555
1871000000,187,1871000000,world,0.00498985913194,0.0021460262076,2.19680830363
1881000000,188,1881000000,world,0.00503429984473,0.00215577533364,2.20656396934
1891000000,189,1891000000,world,0.00507847565319,0.00216376858684,2.21619512322
1901000000,190,1901000000,world,0.00512235378623,0.00217185655776,2.22570098988
1911000000,191,1911000000,world,0.00516583462336,0.00217994561144,2.23508082253
1921000000,192,1921000000,world,0.0052087588357,0.00218622117686,2.24433390218
1931000000,193,1931000000,world,0.00525104547958,0.00219073452888,2.25345958819
1941000000,194,1941000000,world,0.00529262570056,0.00219355107289,2.26245745804
1951000000,195,1951000000,world,0.00533436879201,0.00219839523292,2.27132715772
1961000000,196,1961000000,world,0.00537522575194,0.00220147274517,2.28006833767
1971000000,197,1971000000,world,0.00541513789214,0.0022028344422,2.28868066696
1981000000,198,1981000000,world,0.00545405684323,0.00220254468486,2.29716382771
1991000000,199,1991000000,world,0.00549676657264,0.00219604526379,2.30551751643
2001000000,200,2001000000,world,0.00554065584601,0.00218589323748,2.31374143907
2011000000,201,2011000000,world,0.0055829676636,0.00217479861006,2.32183622964
2021000000,202,2021000000,world,0.00562376054327,0.00216267954307,2.32980618855
2031000000,203,2031000000,world,0.00566354202851,0.00214804544275,2.33765635965
2041000000,204,2041000000,world,0.00570157269448,0.00213290534984,2.34539160478
2051000000,205,2051000000,world,0.00573784547692,0.00211734190836,2.35301660695
2061000000,206,2061000000,world,0.00577237029955,0.00210141783059,2.36053587755
2071000000,207,2071000000,world,0.00580367928131,0.00209718774627,2.36795376906
2081000000,208,2081000000,world,0.00583338601708,0.002092567625,2.3752744591
2091000000,209,2091000000,world,0.00586154162063,0.00208683327512,2.38250197757
2101000000,210,2101000000,world,0.00588821598769,0.00208386413266,2.38964020812
2111000000,211,2111000000,world,0.0059134664559,0.00208522369212,2.39669288828
2121000000,212,2121000000,world,0.00593731236932,0.0020847967096,2.40366361173
2131000000,213,2131000000,world,0.00595979990251,0.00208254126823,2.41055568313
2141000000,214,2141000000,world,0.00598097361382,0.00207846134636,2.41737164391
2151000000,215,2151000000,world,0.00600186469337,0.00207824767755,2.42411378707
2161000000,216,2161000000,world,0.00602157085864,0.00207658950819,2.43078431058
2171000000,217,2171000000,world,0.006040004897,0.00207288522586,2.43738533233
2181000000,218,2181000000,world,0.00605865709458,0.00207163215747,2.44391889328
2191000000,219,2191000000,world,0.00607625632236,0.00206932024639,2.45038695011
2201000000,220,2201000000,world,0.0060925515528,0.00206488335613,2.45679138712
2211000000,221,2211000000,world,0.00610756265859,0.00205842271919,2.46313401726
2221000000,222,2221000000,world,0.00612131405611,0.0020500637627,2.46941658407
2231000000,223,2231000000,world,0.00613623821116,0.00204332555154,2.47564076755
2241000000,224,2241000000,world,0.00614993670246,0.00203496082555,2.48180817663
2251000000,225,2251000000,world,0.00616228763764,0.00202492130048,2.48792021423
2261000000,226,2261000000,world,0.00617331118292,0.00201335143008,2.49397742664
2271000000,227,2271000000,world,0.00618439195408,0.00200227832537,2.49998007527
2281000000,228,2281000000,world,0.00619520927587,0.00199136005988,2.5059284092
2291000000,229,2291000000,world,0.00620464072821,0.00197914013993,2.51182266713
2301000000,230,2301000000,world,0.00621521307727,0.00196744594257,2.51766308198
2311000000,231,2311000000,world,0.00622492206191,0.00195502434046,2.52344987325
2321000000,232,2321000000,world,0.0062331368808,0.00194156098148,2.52918325336
2331000000,233,2331000000,world,0.00623988589425,0.00192717872854,2.53486384813
2341000000,234,2341000000,world,0.00624634369967,0.00191284822579,2.54049455432
2351000000,235,2351000000,world,0.00625270928168,0.00189880114745,2.54607891723
2361000000,236,2361000000,world,0.00625759249133,0.00188407579789,2.55162034843
2371000000,237,2371000000,world,0.00626103819972,0.00186877362165,2.55712213259
2381000000,238,2381000000,world,0.00626384866629,0.00185323324856,2.56258743159
2391000000,239,2391000000,world,0.00626747076715,0.00183800166754,2.56801928856
2401000000,240,2401000000,world,0.00626964840435,0.0018224440386,2.57342062975
2411000000,241,2411000000,world,0.00627042938708,0.00180664734597,2.57879427226
2421000000,242,2421000000,world,0.00627035244204,0.00179082060145,2.58414292695
2431000000,243,2431000000,world,0.0062708444968,0.00177540057277,2.58946920247
2441000000,244,2441000000,world,0.00626999152948,0.00175993735697,2.59477560661
2451000000,245,2451000000,world,0.00626785396653,0.0017444956814,2.60006384744
2461000000,246,2461000000,world,0.00626529746825,0.00172913943985,2.60533172897
2471000000,247,2471000000,world,0.00626336068806,0.00171392918107,2.61057587857
2481000000,248,2481000000,world,0.00626018576749,0.00169891939572,2.61579305982
2491000000,249,2491000000,world,0.00625583341732,0.0016841586723,2.62098016958
2501000000,250,2501000000,world,0.00625037282785,0.0016696895883,2.62613423112
2511000000,251,2511000000,world,0.00624608934697,0.00165510363698,2.63125239008
2521000000,252,2521000000,world,0.00624071548057,0.00164091005612,2.63633190548
2531000000,253,2531000000,world,0.00623431321782,0.00162714466101,2.64137022848
2541000000,254,2541000000,world,0.00622837448734,0.00161334285634,2.64636550685
2551000000,255,2551000000,world,0.0062220484469,0.00159985136604,2.65131622274
2561000000,256,2561000000,world,0.00621476052373,0.0015869173636,2.65622092011
2571000000,257,2571000000,world,0.00620657390729,0.00157456158462,2.66107820139
2581000000,258,2581000000,world,0.00619755695669,0.00156279957428,2.66588672481
2591000000,259,2591000000,world,0.00618916335101,0.00155091463116,2.67064520285
2601000000,260,2601000000,world,0.00618058066259,0.00153930282484,2.67535239812
2611000000,261,2611000000,world,0.00617125272992,0.00152838197531,2.68000712261
2621000000,262,2621000000,world,0.0061612346821,0.00151816126086,2.68460823599
2631000000,263,2631000000,world,0.00615194920386,0.00150743322802,2.6891546442
2641000000,264,2641000000,world,0.00614201792511,0.00149747976392,2.6936452948
2651000000,265,2651000000,world,0.00613149562265,0.0014883049041,2.69807889183
2661000000,266,2661000000,world,0.00612079882242,0.00147959187522,2.70245205774
2671000000,267,2671000000,world,0.00611100545379,0.00147044361025,2.70676061389
2681000000,268,2681000000,world,0.00610069332232,0.00146214208714,2.71100054969
2691000000,269,2691000000,world,0.00608990430343,0.00145468262202,2.71516802101
2701000000,270,2701000000,world,0.00607868756718,0.0014480528193,2.71925934213
2711000000,271,2711000000,world,0.00606797471132,0.00144070619895,2.72327097978
2721000000,272,2721000000,world,0.00605693416338,0.00143416384762,2.727199544
2731000000,273,2731000000,world,0.00604556571236,0.00142849980565,2.73104239107
2741000000,274,2741000000,world,0.00603391906837,0.0014237003518,2.7348005183
2751000000,275,2751000000,world,0.00602338926505,0.00141817235683,2.7384761492
2761000000,276,2761000000,world,0.00601260092552,0.00141347547316,2.74207142244
2771000000,277,2771000000,world,0.00600158925144,0.00140967830941,2.74558839589
2781000000,278,2781000000,world,0.00599039523607,0.00140675694637,2.749029049
2791000000,279,2791000000,world,0.00596922779273,0.00140309117449,2.75239528839
2801000000,280,2801000000,world,0.00594749505355,0.00140006144412,2.75568894288
2811000000,281,2811000000,world,0.00592645398235,0.00139793618086,2.7589117731
2821000000,282,2821000000,world,0.00590547213597,0.0013966400198,2.7620654728
2831000000,283,2831000000,world,0.00588372965228,0.00139605124715,2.7651516709
2841000000,284,2841000000,world,0.0058630333162,0.00139627449324,2.76817193307
2851000000,285,2851000000,world,0.00584341822373,0.0013972681265,2.77112796808
2861000000,286,2861000000,world,0.00582489685062,0.00139898928475,2.77402223475
2871000000,287,2871000000,world,0.00580790041467,0.00140147665455,2.7768572976
2881000000,288,2881000000,world,0.00579212895028,0.00140463533547,2.77963562421
2891000000,289,2891000000,world,0.00577735496214,0.00140838436447,2.78235958847
2901000000,290,2901000000,world,0.0057705669549,0.00140599276494,2.78503147412
2911000000,291,2911000000,world,0.00576796277404,0.00140099248312,2.78765347717
2921000000,292,2921000000,world,0.0057655151125,0.00139712693841,2.79022771053
2931000000,293,2931000000,world,0.00576311833223,0.00139441414,2.79275619463
2941000000,294,2941000000,world,0.00576442128579,0.00138944818579,2.79524074538
2951000000,295,2951000000,world,0.00576785720044,0.00138248909795,2.79768303603
2961000000,296,2961000000,world,0.00577080157475,0.00137703702934,2.80008467472
2971000000,297,2971000000,world,0.00577321655246,0.00137307395572,2.80244720786
2981000000,298,2981000000,world,0.00577528289503,0.00137033373016,2.80477212247
2991000000,299,2991000000,world,0.00578024888471,0.00136493855846,2.80706084702
3001000000,300,3001000000,world,0.00578451621679,0.00136108272354,2.80931475734
3011000000,301,3011000000,world,0.00578811229424,0.00135870252592,2.81153528516
3021000000,302,3021000000,world,0.00579108896967,0.00135771459045,2.81372462797
3031000000,303,3031000000,world,0.00579458452642,0.00135611572569,2.81588526143
3041000000,304,3041000000,world,0.00579799305124,0.00135501974378,2.81801956912
3051000000,305,3051000000,world,0.00580092015672,0.0013551737593,2.82012984399
3061000000,306,3061000000,world,0.00580368082503,0.00135543314645,2.82221829128
3071000000,307,3071000000,world,0.00580626785658,0.00135611082982,2.82428703232
3081000000,308,3081000000,world,0.00580861020503,0.00135781886013,2.8263381075
3091000000,309,3091000000,world,0.00581079769929,0.00136045432436,2.8283734792
3101000000,310,3101000000,world,0.00581260670761,0.00136352011686,2.83039503484
3111000000,311,3111000000,world,0.00581425125094,0.00136707033118,2.83240458934
3121000000,312,3121000000,world,0.00581603179343,0.00137127463752,2.834403888
3131000000,313,3131000000,world,0.00581802672736,0.00137603396426,2.83639426
3141000000,314,3141000000,world,0.00582030635473,0.00138125086651,2.83837437922
3151000000,315,3151000000,world,0.00582293322025,0.00138683476699,2.84034182487
3161000000,316,3161000000,world,0.00582574844903,0.00139322536022,2.84229426948
3171000000,317,3171000000,world,0.00582507288301,0.0014064446231,2.8442294857
3181000000,318,3181000000,world,0.00582514299621,0.00142239447402,2.84614532493
3191000000,319,3191000000,world,0.00582602616803,0.00143773026042,2.84803973043
3201000000,320,3201000000,world,0.00582776842419,0.00145233653568,2.84991072789
3211000000,321,3211000000,world,0.00582985508941,0.00146809923358,2.85175642339
3221000000,322,3221000000,world,0.00583208467194,0.0014857588057,2.85357523079
3231000000,323,3231000000,world,0.00583650149487,0.00150115339123,2.85536688873
3241000000,324,3241000000,world,0.00584185385164,0.00151537004956,2.85713156704
3251000000,325,3251000000,world,0.00584812642033,0.00152840793608,2.85886942781
3261000000,326,3261000000,world,0.00585630228446,0.00153845589922,2.86058062568
3271000000,327,3271000000,world,0.005865618262,0.00154689137296,2.86226531111
3281000000,328,3281000000,world,0.00587569176567,0.00155440480755,2.86392362833
3291000000,329,3291000000,world,0.00588648932667,0.00156106005059,2.86555571558
3301000000,330,3301000000,world,0.00589797785026,0.00156691957791,2.86716170564
3311000000,331,3311000000,world,0.00591027106041,0.00157173386663,2.86874172595
3321000000,332,3321000000,world,0.00592375082764,0.00157468193647,2.87029589856
3331000000,333,3331000000,world,0.0059377913422,0.00157709568956,2.87182451318
3341000000,334,3341000000,world,0.00595236294769,0.00157903145425,2.87332877944
3351000000,335,3351000000,world,0.00596776845914,0.00157953210167,2.87481016764
3361000000,336,3361000000,world,0.00598365844217,0.00157964598983,2.87627009258
3371000000,337,3371000000,world,0.00599999565557,0.00157946503342,2.87770991406
3381000000,338,3381000000,world,0.0060167626221,0.00157901677119,2.87913093941
3391000000,339,3391000000,world,0.00603397283572,0.0015775165305,2.88053442522
3401000000,340,3401000000,world,0.00605158993658,0.00157563180522,2.88192158012
3411000000,341,3411000000,world,0.00606957141878,0.001573440027,2.88329356586
3421000000,342,3421000000,world,0.00608772738954,0.0015698597688,2.88465149887
3431000000,343,3431000000,world,0.00610626440002,0.00156619865464,2.88599645325
3441000000,344,3441000000,world,0.00612517853246,0.00156245872704,2.88732946115
3451000000,345,3451000000,world,0.00614446172309,0.00155863373402,2.88865111763
3461000000,346,3461000000,world,0.00616378227717,0.00155385410965,2.88996039884
3471000000,347,3471000000,world,0.00618346988495,0.00154891980859,2.89125593292
3481000000,348,3481000000,world,0.00620351521038,0.00154391545591,2.89253640269
3491000000,349,3491000000,world,0.0062239041876,0.00153882235182,2.8938005434
3501000000,350,3501000000,world,0.0062446242666,0.00153361746291,2.89504714073
3511000000,351,3511000000,world,0.00626488454921,0.0015270750301,2.89627502845
3521000000,352,3521000000,world,0.00628549985813,0.00152044146153,2.89748308722
3531000000,353,3531000000,world,0.00630645899976,0.00151369951703,2.89867043463
3541000000,354,3541000000,world,0.00632635763132,0.0015068278903,2.89983727262
3551000000,355,3551000000,world,0.00633444013171,0.00149640977834,2.90098414212
3561000000,356,3561000000,world,0.00634364823837,0.00148601680386,2.90211156013
3571000000,357,3571000000,world,0.00635406044198,0.00147565005454,2.90322002562
3581000000,358,3581000000,world,0.00636571910862,0.00146529964541,2.90431001813
3591000000,359,3591000000,world,0.0063702545605,0.00145388250526,2.90538199908
3601000000,360,3601000000,world,0.00637651408624,0.00144250534285,2.90643641017
3611000000,361,3611000000,world,0.00638450937626,0.00143114929009,2.90747367703
3621000000,362,3621000000,world,0.00638993187691,0.00142024333253,2.90849420912
3631000000,363,3631000000,world,0.00639620335799,0.00140938703938,2.90949839892
3641000000,364,3641000000,world,0.00640436859226,0.00139842778102,2.91048662411
3651000000,365,3651000000,world,0.00641434767565,0.00138733168135,2.91145924712
3661000000,366,3661000000,world,0.00642510749874,0.00137669450857,2.91241660177
3671000000,367,3671000000,world,0.00643614353515,0.00136673928392,2.91335899415
3681000000,368,3681000000,world,0.00644875474797,0.00135645814502,2.91428671737
3691000000,369,3691000000,world,0.00646280348736,0.0013458159498,2.91520005351
3701000000,370,3701000000,world,0.00647814308967,0.00133478502232,2.91609927363
3711000000,371,3711000000,world,0.00649425326523,0.00132334513789,2.91698463808
3721000000,372,3721000000,world,0.0065104330637,0.0013132399028,2.91785639778
3731000000,373,3731000000,world,0.00652739747725,0.00130303041476,2.91871479246
3741000000,374,3741000000,world,0.00654516438094,0.00129224558607,2.91956005186
3751000000,375,3751000000,world,0.00656360409019,0.00128087594721,2.92039207249
3761000000,376,3761000000,world,0.00658248016085,0.00127087367487,2.92121003503
3771000000,377,3771000000,world,0.00660174662766,0.00126099182048,2.92201305667
3781000000,378,3781000000,world,0.006621342674,0.00125036035018,2.92280028979
3791000000,379,3791000000,world,0.00664511640269,0.00123727452833,2.92357092131
3801000000,380,3801000000,world,0.00667456988837,0.00122106525316,2.92432417012
3811000000,381,3811000000,world,0.00670468878568,0.001203379081,2.92505928476
3821000000,382,3821000000,world,0.00673482760199,0.00118470692872,2.92577554436
3831000000,383,3831000000,world,0.00676402155558,0.00116583379064,2.92647225649
3841000000,384,3841000000,world,0.006792189006,0.00114681481115,2.92714875619
3851000000,385,3851000000,world,0.00681928029523,0.0011276941486,2.92780479736
3861000000,386,3861000000,world,0.00684490438089,0.00110864180981,2.92844172209
3871000000,387,3871000000,world,0.00686915608191,0.00108965512805,2.92906120632
3881000000,388,3881000000,world,0.00689236482444,0.00107064422484,2.92966486167
3891000000,389,3891000000,world,0.00691456161708,0.00105162679077,2.93025423779
3901000000,390,3901000000,world,0.00693578466067,0.00103261583918,2.93083082473
3911000000,391,3911000000,world,0.00695607713758,0.00101362123068,2.93139605521
3921000000,392,3921000000,world,0.00697548519211,0.000994651889761,2.93195130677
3931000000,393,3931000000,world,0.00699395173657,0.000975808638058,2.93249790385
3941000000,394,3941000000,world,0.00701072975843,0.000957813702744,2.9330371195
3951000000,395,3951000000,world,0.00702682582195,0.0009398243831,2.93357017871
3961000000,396,3961000000,world,0.00703809355636,0.000936560614896,2.93409840899
3971000000,397,3971000000,world,0.00704903031568,0.000932422111886,2.93462342486
3981000000,398,3981000000,world,0.00705970856652,0.000927299004424,2.9351468227
3991000000,399,3991000000,world,0.00706922332232,0.000926280849193,2.93567013674
4001000000,400,4001000000,world,0.00707769232516,0.000928917440416,2.93619484241
4011000000,401,4011000000,world,0.00708613840088,0.000929861741765,2.93672229059
4021000000,402,4021000000,world,0.0070941490867,0.000934562089565,2.93725214271
4031000000,403,4031000000,world,0.00710209391043,0.000938601255843,2.93778245705
4041000000,404,4041000000,world,0.00711008901475,0.000940595750426,2.93831130282
4051000000,405,4051000000,world,0.00711812687974,0.000940611321576,2.93883682656
4061000000,406,4061000000,world,0.00712619189709,0.000938755285566,2.93935724911
4071000000,407,4071000000,world,0.00713438302117,0.00093598789396,2.93987086235
4081000000,408,4081000000,world,0.00714301628499,0.000934804502581,2.94037602594
4091000000,409,4091000000,world,0.00715213071693,0.000933500126889,2.94087116649
4101000000,410,4101000000,world,0.00716164426997,0.000932098623199,2.9413547729
4111000000,411,4111000000,world,0.007170931522,0.000929173623714,2.94182539487
4121000000,412,4121000000,world,0.00717995505451,0.000924877100622,2.94228163962
4131000000,413,4131000000,world,0.00718868349402,0.000919372603225,2.94272227601
4141000000,414,4141000000,world,0.00719709085356,0.000912830046305,2.94314669948
4151000000,415,4151000000,world,0.00720515629211,0.000905420767414,2.94355452013
4161000000,416,4161000000,world,0.00721380489781,0.00089775698545,2.94394536358
4171000000,417,4171000000,world,0.00722263813435,0.000889825416876,2.94431886992
4181000000,418,4181000000,world,0.00723024478161,0.000874562892819,2.94467469733
4191000000,419,4191000000,world,0.00723691558331,0.000854942166176,2.94501251232
4201000000,420,4201000000,world,0.00724316403238,0.000835925004287,2.94533199313
4211000000,421,4211000000,world,0.0072484703375,0.00081668453955,2.94563288165
4221000000,422,4221000000,world,0.00725298164746,0.000797451865415,2.9459152877
4231000000,423,4231000000,world,0.00725715826934,0.000779397039641,2.94617947441
4241000000,424,4241000000,world,0.00726101563991,0.000762612429709,2.94642569566
4251000000,425,4251000000,world,0.00726443685853,0.000747890745166,2.94665419487
4261000000,426,4261000000,world,0.00726748872515,0.000734961468012,2.94686520667
4271000000,427,4271000000,world,0.00727027503146,0.000723318881526,2.94705895671
4281000000,428,4281000000,world,0.007272808354,0.000712946752725,2.94723566145
4291000000,429,4291000000,world,0.0072751004789,0.000703818738842,2.94739552892
4301000000,430,4301000000,world,0.00727717094079,0.000695990148615,2.94753875877
4311000000,431,4311000000,world,0.00727916800473,0.00069086989518,2.94766554269
4321000000,432,4321000000,world,0.00728094860622,0.000686871048566,2.94777606577
4331000000,433,4331000000,world,0.00728254861044,0.000683941851259,2.94787055436
4341000000,434,4341000000,world,0.00728426196555,0.000683623621663,2.94794997318
4351000000,435,4351000000,world,0.00728575229347,0.000684081677615,2.94801582016
4361000000,436,4361000000,world,0.00728702645396,0.000685262684975,2.94806954879
4371000000,437,4371000000,world,0.00728809467695,0.000687124860225,2.94811255636
4381000000,438,4381000000,world,0.00728905007207,0.00068976815607,2.94814618631
4391000000,439,4391000000,world,0.00729055482659,0.00069417491587,2.94817172968
4401000000,440,4401000000,world,0.00729183264284,0.0006991125356,2.94819042905
4411000000,441,4411000000,world,0.00729289128869,0.000704558818107,2.94820347832
4421000000,442,4421000000,world,0.00729417244393,0.000710941842911,2.94821202495
4431000000,443,4431000000,world,0.00729586411296,0.000718586296676,2.94821717207
4441000000,444,4441000000,world,0.00729731494206,0.000726639570933,2.94821998091
4451000000,445,4451000000,world,0.00729853687146,0.000735097002849,2.94822145058
4461000000,446,4461000000,world,0.00730007712645,0.000744422635097,2.94822245279
4471000000,447,4471000000,world,0.0073021705892,0.00075480926677,2.94822380209
4481000000,448,4481000000,world,0.00730400835602,0.000765545897657,2.94822628204
4491000000,449,4491000000,world,0.00730560884895,0.000776638265638,2.94823064531
4501000000,450,4501000000,world,0.0073085430098,0.000789165611352,2.94823761451
4511000000,451,4511000000,world,0.00731119949957,0.00080200676254,2.94824788574
4521000000,452,4521000000,world,0.00731359873593,0.000815168128769,2.94826212729
4531000000,453,4531000000,world,0.00731576262581,0.000828659643051,2.9482809517
4541000000,454,4541000000,world,0.00732970483215,0.000838703261194,2.94830463736
4551000000,455,4551000000,world,0.00734481841643,0.000848680205124,2.94833326716
4561000000,456,4561000000,world,0.0073588525943,0.000859331256164,2.94836692038
4571000000,457,4571000000,world,0.00737266347963,0.000870272657541,2.94840567353
4581000000,458,4581000000,world,0.00739306430887,0.000878285942293,2.94844960062
4591000000,459,4591000000,world,0.00741188116665,0.00088730065911,2.94849877093
4601000000,460,4601000000,world,0.00742910626485,0.000897349721736,2.94855325238
4611000000,461,4611000000,world,0.00744478201844,0.000908443923447,2.94861311015
4621000000,462,4621000000,world,0.0074589884669,0.000920577629807,2.9486783436
4631000000,463,4631000000,world,0.00747341426072,0.000932130657685,2.94874829016
4641000000,464,4641000000,world,0.00748882127213,0.000942429226698,2.94882192767
4651000000,465,4651000000,world,0.00750287696859,0.000953933502422,2.94889826966
4661000000,466,4661000000,world,0.0075165135652,0.000965133459256,2.94897636982
4671000000,467,4671000000,world,0.0075301871298,0.000975389495571,2.94905531887
4681000000,468,4681000000,world,0.00754276587361,0.000986975578973,2.949134243
4691000000,469,4691000000,world,0.00755437910784,0.000999856226787,2.94921230366
4701000000,470,4701000000,world,0.00756510208778,0.00101269212942,2.94928869603
4711000000,471,4711000000,world,0.00757502648581,0.00102445340484,2.949362647
4721000000,472,4721000000,world,0.00758440367799,0.00103755178392,2.94943341265
4731000000,473,4731000000,world,0.00759336606486,0.00105193132062,2.94950053004
4741000000,474,4741000000,world,0.00760198258634,0.00106734974988,2.94956542374
4751000000,475,4751000000,world,0.00760940282688,0.00108076884037,2.94963028837
4761000000,476,4761000000,world,0.00761682327773,0.00109542308219,2.94969723749
4771000000,477,4771000000,world,0.00762435132534,0.00111124667976,2.94976830375
4781000000,478,4781000000,world,0.00763069164391,0.00112610159394,2.9498454436
4791000000,479,4791000000,world,0.00763681702741,0.00114122577857,2.94993053667
4801000000,480,4801000000,world,0.00764342474818,0.0011574600078,2.95002539087
4811000000,481,4811000000,world,0.00765058252544,0.00117472495655,2.95013174526
4821000000,482,4821000000,world,0.00765764920757,0.00119208214524,2.95025127262
4831000000,483,4831000000,world,0.00766382144117,0.00120840907093,2.95038558148
4841000000,484,4841000000,world,0.00767080901663,0.00122566089653,2.95053621699
4851000000,485,4851000000,world,0.00767864480725,0.00124376372901,2.95070466591
4861000000,486,4861000000,world,0.0076873460997,0.00126263607574,2.95089234687
4871000000,487,4871000000,world,0.00769525602089,0.00128096850387,2.95109969024
4881000000,488,4881000000,world,0.0077030463223,0.00129917294733,2.95132553534
4891000000,489,4891000000,world,0.00771141681007,0.0013176041885,2.95156862034
4901000000,490,4901000000,world,0.00771909745145,0.00133503193829,2.95182773452
4911000000,491,4911000000,world,0.00772791943286,0.00135306173367,2.95210171405
4921000000,492,4921000000,world,0.00773787013519,0.00137163115342,2.95238944218
4931000000,493,4931000000,world,0.00774892249854,0.00139067278117,2.95268984653
4941000000,494,4941000000,world,0.00776103873035,0.00141011390178,2.9530018916
4951000000,495,4951000000,world,0.00777417106055,0.00142988128369,2.95332409202
4961000000,496,4961000000,world,0.00778617739456,0.00144896253081,2.953654196
4971000000,497,4971000000,world,0.00779899642589,0.00146817528225,2.95398996364
4981000000,498,4981000000,world,0.00781282930824,0.00148756601424,2.95432924586
4991000000,499,4991000000,world,0.00782594899079,0.00150608215964,2.95466998056
5001000000,500,5001000000,world,0.00783967561822,0.00152447824538,2.95501018772
5011000000,501,5011000000,world,0.00785440322907,0.00154296303616,2.95534796715
5021000000,502,5021000000,world,0.00787008398691,0.00156148904766,2.95568149499
5031000000,503,5031000000,world,0.00788666420952,0.00158000655671,2.95600902055
5041000000,504,5041000000,world,0.0079019183478,0.00159812548949,2.95632887572
5051000000,505,5051000000,world,0.00792062759071,0.0016203880737,2.95663952296
5061000000,506,5061000000,world,0.0079427654765,0.00164643098097,2.95693950743
5071000000,507,5071000000,world,0.0079653933084,0.00167176311932,2.95722743149
5081000000,508,5081000000,world,0.00798842470643,0.00169629411416,2.95750195393
5091000000,509,5091000000,world,0.00801178534732,0.00171996008121,2.957761787
5101000000,510,5101000000,world,0.00803660377545,0.00174376216355,2.95800569438
5111000000,511,5111000000,world,0.00806234284513,0.00176724821554,2.9582324889
5121000000,512,5121000000,world,0.00808812788844,0.00178968060263,2.95844103052
5131000000,513,5131000000,world,0.00811391175135,0.00181105275405,2.95863039415
5141000000,514,5141000000,world,0.00813959512978,0.00183095378488,2.95880061403
5151000000,515,5151000000,world,0.00816517875732,0.00184957355625,2.95895202817
5161000000,516,5161000000,world,0.00819068959491,0.00186722956571,2.95908496141
5171000000,517,5171000000,world,0.0082159130479,0.00188359855261,2.95919972564
5181000000,518,5181000000,world,0.00824060025026,0.00189828063849,2.95929662051
5191000000,519,5191000000,world,0.00826524040135,0.00191217901697,2.95937593454
5201000000,520,5201000000,world,0.0082898378981,0.00192533735117,2.9594379446
5211000000,521,5211000000,world,0.00831439551686,0.00193779464953,2.95948291677
5221000000,522,5221000000,world,0.0083383249836,0.00194887557914,2.95951110638
5231000000,523,5231000000,world,0.00836167679812,0.00195866855542,2.95952275907
5241000000,524,5241000000,world,0.00838506314485,0.00196793854971,2.95951811121
5251000000,525,5251000000,world,0.00840848747082,0.00197671332803,2.95949751465
5261000000,526,5261000000,world,0.00843153530321,0.00198457837286,2.95946180978
5271000000,527,5271000000,world,0.00845369286016,0.0019910199904,2.95941192691
5281000000,528,5281000000,world,0.00847596859294,0.00199709569831,2.95934876111
5291000000,529,5291000000,world,0.00849835885323,0.00200281863252,2.95927317225
5301000000,530,5301000000,world,0.00852085342342,0.00200819270425,2.95918598679
5311000000,531,5311000000,world,0.00854343484152,0.00201321472065,2.95908799915
5321000000,532,5321000000,world,0.00855217843911,0.00201223277209,2.95897996805
5331000000,533,5331000000,world,0.00856095194485,0.00201091447598,2.95886257377
5341000000,534,5341000000,world,0.00856325358586,0.00200694214664,2.95873614945
5351000000,535,5351000000,world,0.00856707826154,0.00200316161044,2.9586009163
5361000000,536,5361000000,world,0.00857248758562,0.001999590391,2.95845708458
5371000000,537,5371000000,world,0.00857948344973,0.00199622261557,2.95830485631
5381000000,538,5381000000,world,0.00858802209612,0.00199303417452,2.95814442563
5391000000,539,5391000000,world,0.00859544103154,0.00198962420672,2.95797597805
5401000000,540,5401000000,world,0.00860185780082,0.00198597757329,2.95779969264
5411000000,541,5411000000,world,0.00860984770259,0.00198242247853,2.95761599508
5421000000,542,5421000000,world,0.00861892865793,0.00197901164032,2.95742666891
5431000000,543,5431000000,world,0.0086279012254,0.00197598574389,2.95723388365
5441000000,544,5441000000,world,0.00863818965294,0.00197285552657,2.95703972654
5451000000,545,5451000000,world,0.0086496577395,0.00196955975297,2.95684620478
5461000000,546,5461000000,world,0.00866215752013,0.00196604090737,2.9566552488
5471000000,547,5471000000,world,0.00868465913014,0.00196256552037,2.95646871944
5481000000,548,5481000000,world,0.00870891721178,0.00195885209671,2.9562883983
5491000000,549,5491000000,world,0.00873304185576,0.00195474533648,2.95611600124
5501000000,550,5501000000,world,0.00875795536312,0.00194990388472,2.9559531794
5511000000,551,5511000000,world,0.00878304043123,0.00194437243613,2.95580152002
5521000000,552,5521000000,world,0.00880738950558,0.00193838059303,2.95566254926
5531000000,553,5531000000,world,0.00883089316561,0.00193190881467,2.95553764048
5541000000,554,5541000000,world,0.00885315879772,0.0019247930123,2.95542760061
5551000000,555,5551000000,world,0.00887355253676,0.00191674464441,2.95533303567
5561000000,556,5561000000,world,0.00889301565251,0.0019082252075,2.9552545292
5571000000,557,5571000000,world,0.00891154112127,0.00189923570257,2.95519264143
5581000000,558,5581000000,world,0.00892860739891,0.00188970261547,2.95514791044
5591000000,559,5591000000,world,0.00894358849162,0.00187953786059,2.95512085327
5601000000,560,5601000000,world,0.00895777070928,0.00186892407079,2.95511196798
5611000000,561,5611000000,world,0.00897118540371,0.00185786924332,2.95512173249
5621000000,562,5621000000,world,0.00898326461492,0.00184643405821,2.95515060569
5631000000,563,5631000000,world,0.00899379451233,0.00183464956266,2.9551990288
5641000000,564,5641000000,world,0.00900373664897,0.00182245225978,2.95526742644
5651000000,565,5651000000,world,0.00901312266147,0.00180985214509,2.95535620624
5661000000,566,5661000000,world,0.00902197744742,0.0017968604314,2.95546575993
5671000000,567,5671000000,world,0.00903031997032,0.00178349000052,2.95559645004
5681000000,568,5681000000,world,0.00903736515055,0.00177012748889,2.95574805391
5691000000,569,5691000000,world,0.00904355069176,0.0017565972721,2.95591962302
5701000000,570,5701000000,world,0.00904933665139,0.00174271165039,2.9561101993
5711000000,571,5711000000,world,0.00905473392554,0.0017284894271,2.95631886258
5721000000,572,5721000000,world,0.0090580037633,0.00172592985653,2.95654473147
5731000000,573,5731000000,world,0.00906041691784,0.00173088447108,2.95678687133
5741000000,574,5741000000,world,0.00906237595673,0.00174243391543,2.95704350047
5751000000,575,5751000000,world,0.0090641294141,0.00175176495385,2.95731239263
5761000000,576,5761000000,world,0.00906567918852,0.00175878436586,2.95759140747
5771000000,577,5771000000,world,0.00906702101857,0.00176347497327,2.95787849084
5781000000,578,5781000000,world,0.0090687434924,0.00176824165133,2.95817167166
5791000000,579,5791000000,world,0.00907078255713,0.00177296917277,2.95846905727
5801000000,580,5801000000,world,0.00907249809835,0.00177530755936,2.95876883065
5811000000,581,5811000000,world,0.00907386638604,0.00177537438177,2.95906931459
5821000000,582,5821000000,world,0.00907618956134,0.00177493754233,2.95936939486
5831000000,583,5831000000,world,0.00907910327899,0.00177374992685,2.9596682192
5841000000,584,5841000000,world,0.00908146008609,0.00177061943924,2.95996496978
5851000000,585,5851000000,world,0.00908323383068,0.00176572446125,2.96025886154
5861000000,586,5861000000,world,0.0090854269918,0.00176008902472,2.96054914085
5871000000,587,5871000000,world,0.00908844286974,0.00175423811776,2.96083508351
5881000000,588,5881000000,world,0.00909069309394,0.00174705363228,2.9611159934
5891000000,589,5891000000,world,0.00909216868107,0.00173870635149,2.96139120246
5901000000,590,5901000000,world,0.0090928730744,0.00172936876268,2.96166006904
5911000000,591,5911000000,world,0.00909472475792,0.00171992247908,2.96192197752
5921000000,592,5921000000,world,0.00909634075214,0.00171000890407,2.96217633544
5931000000,593,5931000000,world,0.00909707263951,0.00169952919686,2.96242257404
5941000000,594,5941000000,world,0.00909693873192,0.0016886175032,2.96266014713
5951000000,595,5951000000,world,0.00909596780431,0.00167740012117,2.96288841926
5961000000,596,5961000000,world,0.00909564989429,0.00166611222544,2.96310645146
5971000000,597,5971000000,world,0.00909543375807,0.00165481369045,2.96331328206
5981000000,598,5981000000,world,0.00909434750671,0.00164352492207,2.96350798752
5991000000,599,5991000000,world,0.00909447822008,0.00163212954772,2.96368968198
6001000000,600,6001000000,world,0.00909454880473,0.00162083929802,2.96385751339
6011000000,601,6011000000,world,0.00909367858634,0.00160981652072,2.96401066366
6021000000,602,6021000000,world,0.00909190419913,0.00159912296173,2.96414834742
6031000000,603,6031000000,world,0.00908927260681,0.00158881170317,2.96426981039
6041000000,604,6041000000,world,0.00908621649978,0.00157876652282,2.96437432822
6051000000,605,6051000000,world,0.00908386248187,0.00156830858928,2.96446130766
6061000000,606,6061000000,world,0.00907903141105,0.00155700429254,2.96453073012
6071000000,607,6071000000,world,0.00906701238887,0.00154087702325,2.96458276271
6081000000,608,6081000000,world,0.00905481272311,0.00152580990764,2.96461756237
6091000000,609,6091000000,world,0.00904230874669,0.0015117640067,2.96463528175
6101000000,610,6101000000,world,0.00902772536133,0.00149795659176,2.96463606776
6111000000,611,6111000000,world,0.00901339714408,0.00148539692527,2.96462006106
6121000000,612,6121000000,world,0.00899940058124,0.00147409195257,2.96458739706
6131000000,613,6131000000,world,0.00898578502964,0.00146403124733,2.96453845093
6141000000,614,6141000000,world,0.00897258353944,0.00145519017379,2.96447456849
6151000000,615,6151000000,world,0.00896004436058,0.00144785938354,2.96439728408
6161000000,616,6161000000,world,0.00894805373746,0.0014418625627,2.96430807319
6171000000,617,6171000000,world,0.00893648190149,0.0014369243187,2.96420835458
6181000000,618,6181000000,world,0.00892646730829,0.00143369669001,2.96409949186
6191000000,619,6191000000,world,0.00891678345599,0.00143137614906,2.96398279679
6201000000,620,6201000000,world,0.00890740350863,0.00142990483223,2.96385953026
6211000000,621,6211000000,world,0.00889932233786,0.00142960611769,2.96373090418
6221000000,622,6221000000,world,0.00889186841482,0.00143018849373,2.96359808405
6231000000,623,6231000000,world,0.00888456776156,0.00143143651948,2.9634621903
6241000000,624,6241000000,world,0.00887740270466,0.00143330720847,2.96332429991
6251000000,625,6251000000,world,0.00887036309617,0.00143576215493,2.96318540037
6261000000,626,6261000000,world,0.00886344764587,0.00143876804444,2.96304571097
6271000000,627,6271000000,world,0.00885665660091,0.00144229577604,2.96290488701
6281000000,628,6281000000,world,0.00884999269731,0.00144631990105,2.96276258414
6291000000,629,6291000000,world,0.00885355816617,0.00144917603268,2.96261847017
6301000000,630,6301000000,world,0.0088608877583,0.00145190052079,2.96247222755
6311000000,631,6311000000,world,0.0088717993469,0.00145405676936,2.96232355096
6321000000,632,6321000000,world,0.00888799177762,0.0014551746457,2.96217214646
6331000000,633,6331000000,world,0.00890483175088,0.0014561517096,2.96201799439
6341000000,634,6341000000,world,0.00892255780151,0.00145662846917,2.96186185165
6351000000,635,6351000000,world,0.00893837792637,0.00145802765452,2.96170458613
6361000000,636,6361000000,world,0.0089523139887,0.00146035077144,2.96154703176
6371000000,637,6371000000,world,0.00896444010208,0.00146358552394,2.96138999014
6381000000,638,6381000000,world,0.00897486908454,0.00146770950227,2.96123423172
6391000000,639,6391000000,world,0.00898374116157,0.00147269106051,2.96108049705
6401000000,640,6401000000,world,0.00899156290766,0.00147803206684,2.96092949785
6411000000,641,6411000000,world,0.00899948970687,0.00148238631887,2.96078191805
6421000000,642,6421000000,world,0.0090066916599,0.00148538233481,2.96063841553
6431000000,643,6431000000,world,0.00901297692868,0.00148880417421,2.96049962156
6441000000,644,6441000000,world,0.00901839560726,0.0014932071495,2.96036614323
6451000000,645,6451000000,world,0.00902310923984,0.0014985621528,2.96023859456
6461000000,646,6461000000,world,0.00902675474292,0.0015041916154,2.96011803068
6471000000,647,6471000000,world,0.00902941475571,0.00150978905328,2.96000581918
6481000000,648,6481000000,world,0.00903189614949,0.00151629492444,2.95990328252
6491000000,649,6491000000,world,0.00903433700125,0.00152365832962,2.95981169277
6501000000,650,6501000000,world,0.00903686280758,0.00153182225889,2.95973227292
6511000000,651,6511000000,world,0.00903307152378,0.00154767062217,2.95966620161
6521000000,652,6521000000,world,0.00902926310091,0.0015645313798,2.95961460658
6531000000,653,6531000000,world,0.00902632544965,0.00158148736055,2.95957844239
6541000000,654,6541000000,world,0.00902436607187,0.00159843819808,2.95955764515
6551000000,655,6551000000,world,0.00902279549177,0.00161652297537,2.95955172072
6561000000,656,6561000000,world,0.00902201834107,0.00163503040945,2.95956019258
6571000000,657,6571000000,world,0.00902244094292,0.00165322615619,2.95958260303
6581000000,658,6581000000,world,0.00902481091702,0.00167073133476,2.9596185121
6591000000,659,6591000000,world,0.00902842994166,0.00168782134974,2.95966749801
6601000000,660,6601000000,world,0.00903319192197,0.00170455055003,2.95972915529
6611000000,661,6611000000,world,0.00903906638383,0.0017209189719,2.95980309437
6621000000,662,6621000000,world,0.00904620087664,0.00173671334609,2.95988894095
6631000000,663,6631000000,world,0.00905507725289,0.00175132009757,2.95998633524
6641000000,664,6641000000,world,0.00906488994735,0.00176565910784,2.96009493238
6651000000,665,6651000000,world,0.00907558899713,0.00177975167742,2.96021440069
6661000000,666,6661000000,world,0.00908712619561,0.00179361694845,2.96034442154
6671000000,667,6671000000,world,0.00909974583799,0.00180658735684,2.96048464971
6681000000,668,6681000000,world,0.00911338070244,0.00181873450239,2.96063446352
6691000000,669,6691000000,world,0.00912482718565,0.00182253365948,2.96079313909
6701000000,670,6701000000,world,0.00913521491574,0.00182137928741,2.96095997843
6711000000,671,6711000000,world,0.00914651018516,0.00182103955276,2.96113431138
6721000000,672,6721000000,world,0.00915871104181,0.00182159279618,2.96131549516
6731000000,673,6731000000,world,0.00916967527255,0.00181821131391,2.96150247411
6741000000,674,6741000000,world,0.00918025145159,0.00181288927548,2.96169293235
6751000000,675,6751000000,world,0.00919189722594,0.00180899765224,2.96188441336
6761000000,676,6761000000,world,0.00920459911038,0.00180653133512,2.96207456017
6771000000,677,6771000000,world,0.00921832808589,0.00180544521986,2.96226111092
6781000000,678,6781000000,world,0.00923047244279,0.00180152726444,2.96244189489
6791000000,679,6791000000,world,0.00924344567577,0.00179860924911,2.96261482859
6801000000,680,6801000000,world,0.00925751657996,0.00179708483375,2.96277791257
6811000000,681,6811000000,world,0.00927264613618,0.00179685230979,2.96292922767
6821000000,682,6821000000,world,0.00928878563049,0.00179779301973,2.96306693174
6831000000,683,6831000000,world,0.00930348573808,0.00179782850075,2.96318925663
6841000000,684,6841000000,world,0.00931922398783,0.00179878351508,2.96329450462
6851000000,685,6851000000,world,0.00933595709155,0.00180063728783,2.96338137614
6861000000,686,6861000000,world,0.00935189431437,0.00180237115729,2.96345004101
6871000000,687,6871000000,world,0.00936882964636,0.00180474577535,2.96350103817
6881000000,688,6881000000,world,0.00938671557826,0.00180768599582,2.96353488586
6891000000,689,6891000000,world,0.00940549632599,0.00181107093373,2.96355208203
6901000000,690,6901000000,world,0.00942511154875,0.00181478145491,2.96355310524
6911000000,691,6911000000,world,0.00944380390526,0.00181756892687,2.96353841519
6921000000,692,6921000000,world,0.00946321452398,0.00182047010381,2.96350845397
6931000000,693,6931000000,world,0.00948338988688,0.00182345399421,2.96346363675
6941000000,694,6941000000,world,0.0095117991483,0.00183238292825,2.96340430839
6951000000,695,6951000000,world,0.00954122333083,0.00184151265911,2.96333077696
6961000000,696,6961000000,world,0.00957067582446,0.00185003563632,2.96324333966
6971000000,697,6971000000,world,0.00960005675825,0.00185785129788,2.96314228225
6981000000,698,6981000000,world,0.00963084131946,0.00186568087002,2.96302787959
6991000000,699,6991000000,world,0.00966170379902,0.00187281697154,2.96290039542
7001000000,700,7001000000,world,0.00969219211341,0.00187900806515,2.96276008328
7011000000,701,7011000000,world,0.00972224835964,0.0018841549844,2.96260738042
7021000000,702,7021000000,world,0.00975165678911,0.00188769864661,2.96244376113
7031000000,703,7031000000,world,0.00978064767751,0.00189029746345,2.96227099208
7041000000,704,7041000000,world,0.00980922562399,0.00189196555771,2.96209077178
7051000000,705,7051000000,world,0.00983740191087,0.00189272121857,2.96190473353
7061000000,706,7061000000,world,0.00986499152126,0.00189240590625,2.96171444777
7071000000,707,7071000000,world,0.00989145012761,0.00189053178771,2.96152142437
7081000000,708,7081000000,world,0.00991762449789,0.00188787706015,2.9613271158
7091000000,709,7091000000,world,0.00994330687801,0.00188433239457,2.96113291815
7101000000,710,7101000000,world,0.00996785138325,0.00187952036983,2.96094017347
7111000000,711,7111000000,world,0.00999225259055,0.00187406896457,2.96075017268
7121000000,712,7121000000,world,0.0100165336902,0.0018680097337,2.96056415654
7131000000,713,7131000000,world,0.0100395142161,0.00186102832784,2.96038329432
7141000000,714,7141000000,world,0.0100621752531,0.00185339971429,2.96020864122
7151000000,715,7151000000,world,0.0100848449191,0.00184526656903,2.96004119912
7161000000,716,7161000000,world,0.0101075304993,0.00183664968071,2.95988193096
7171000000,717,7171000000,world,0.0101302283405,0.00182756608677,2.9597317624
7181000000,718,7181000000,world,0.0101486660674,0.00181916178964,2.95959158313
7191000000,719,7191000000,world,0.0101576511149,0.00181356018418,2.95946224793
7201000000,720,7201000000,world,0.0101674816431,0.00180724389485,2.95934457873
7211000000,721,7211000000,world,0.0101782245296,0.00180018988798,2.95923936567
7221000000,722,7221000000,world,0.0101857184369,0.00179447697439,2.95914736817
7231000000,723,7231000000,world,0.0101903101278,0.00178993119539,2.95906931583
7241000000,724,7241000000,world,0.0101963336649,0.0017843866669,2.95900591035
7251000000,725,7251000000,world,0.0102037758137,0.00177783436817,2.95895765386
7261000000,726,7261000000,world,0.0102103353413,0.00177207346075,2.95892409076
7271000000,727,7271000000,world,0.0102161179244,0.00176697544856,2.95890447361
7281000000,728,7281000000,world,0.0102233590905,0.00176070660587,2.95889808486
7291000000,729,7291000000,world,0.0102318245604,0.00175347695267,2.95890423491
7301000000,730,7301000000,world,0.0102403082811,0.0017485377941,2.95892226344
7311000000,731,7311000000,world,0.0102499950275,0.00174232743994,2.95895153271
7321000000,732,7321000000,world,0.0102607513182,0.00173487664816,2.95899143242
7331000000,733,7331000000,world,0.0102724346665,0.00172623374604,2.95904137603
7341000000,734,7341000000,world,0.0102848992011,0.00171646078153,2.95910078665
7351000000,735,7351000000,world,0.0102978508108,0.00170847517717,2.95916855862
7361000000,736,7361000000,world,0.0103113042799,0.00169934160218,2.95924291761
7371000000,737,7371000000,world,0.0103251287455,0.00168912401693,2.95932211541
7381000000,738,7381000000,world,0.0103401763947,0.00167970119461,2.95940447486
7391000000,739,7391000000,world,0.0103556997014,0.00167041101373,2.9594883844
7401000000,740,7401000000,world,0.0103711455983,0.00166007130213,2.959572297
7411000000,741,7411000000,world,0.0103864072281,0.00164874758866,2.95965472786
7421000000,742,7421000000,world,0.0104024420738,0.00163785445974,2.95973425231
7431000000,743,7431000000,world,0.0104187393386,0.00162692544667,2.95980950132
7441000000,744,7441000000,world,0.0104344990347,0.00161511216521,2.95987916028
7451000000,745,7451000000,world,0.0104499598706,0.00160145341982,2.95994204952
7461000000,746,7461000000,world,0.0104674104254,0.00157808169467,2.95999789501
7471000000,747,7471000000,world,0.0104839859241,0.00155467277241,2.96004692996
7481000000,748,7481000000,world,0.0104996368495,0.00153138569417,2.96008938547
7491000000,749,7491000000,world,0.0105143342438,0.00150834292328,2.96012548355
7501000000,750,7501000000,world,0.0105281824487,0.0014846083051,2.96015543762
7511000000,751,7511000000,world,0.0105411710247,0.00146034534112,2.96017945269
