%time,field.header.seq,field.header.stamp,field.header.frame_id,field.twist.linear.x,field.twist.linear.y,field.twist.linear.z,field.twist.angular.x,field.twist.angular.y,field.twist.angular.z
32000000,1,32000000,,0.000213820003052,0.0171837657715,-0.0463323782648,0.0,0.0,0.0
32000000,2,32000000,,0.0270228054054,0.00365046097216,-0.154964140556,0.0,0.0,0.0
43000000,3,43000000,,0.0320959486722,-0.00143462339606,-0.239712631637,0.0,0.0,0.0
61000000,5,61000000,,0.0203257228207,0.0373551823243,-0.466688384511,0.0,0.0,0.0
72000000,6,72000000,,0.025658552754,-0.0325356086059,-0.520550667963,0.0,0.0,0.0
88000000,7,88000000,,-0.00131243662095,-0.0256603722612,-0.63425564609,0.0,0.0,0.0
91000000,8,91000000,,0.00779836653354,0.0055332684847,-0.697157831745,0.0,0.0,0.0
116000000,10,116000000,,-0.00624732791552,-0.011583570652,-0.900389015266,0.0,0.0,0.0
127000000,11,127000000,,-0.00769798215512,0.00657368233024,-1.01063186709,0.0,0.0,0.0
133000000,12,133000000,,0.0300598188246,-0.0451563242031,-1.11733764225,0.0,0.0,0.0
144000000,13,144000000,,-0.0150777661041,-0.0285098661102,-1.24421781193,0.0,0.0,0.0
155000000,14,155000000,,0.00094235708726,0.0286020744896,-1.30586375791,0.0,0.0,0.0
162000000,15,162000000,,-0.00833799912079,0.00844284041406,-1.43397561149,0.0,0.0,0.0
172000000,16,172000000,,0.025120135148,-0.0409306746764,-0.403940195531,0.0,0.0,0.0
181000000,17,181000000,,0.0227966521591,0.000854963531375,0.00933669012513,0.0,0.0,0.0
191000000,18,191000000,,-0.0143000983222,-0.0310065188474,-0.0319908088379,0.0,0.0,0.0
201000000,19,201000000,,-0.00258104853866,-0.0201293478449,0.0219236372676,0.0,0.0,0.0
221000000,20,221000000,,-0.0157088694782,0.0063550493938,-0.0270269635551,0.0,0.0,0.0
238000000,21,238000000,,-0.00314019835521,0.0207652732712,0.00453586172227,0.0,0.0,0.0
238000000,22,238000000,,-0.0138797637304,-0.0110193570828,-0.0223564250935,0.0,0.0,0.0
258000000,23,258000000,,0.0227065539262,0.00319732320675,0.00207029642275,0.0,0.0,0.0
258000000,24,258000000,,0.00392016990443,0.00366975045491,0.0251477065577,0.0,0.0,0.0
262000000,25,262000000,,0.00075714040596,-0.0157215335472,-0.00858878291448,0.0,0.0,0.0
272000000,26,272000000,,-0.000190277441071,0.0105833155977,0.0147018076015,0.0,0.0,0.0
284000000,27,284000000,,0.00688822165843,0.00525901206733,-0.00698950054641,0.0,0.0,0.0
292000000,28,292000000,,0.0462465017715,-0.0340319791651,-0.0308058536109,0.0,0.0,0.0
301000000,29,301000000,,-0.0068888914113,0.00743216461112,0.02648583243,0.0,0.0,0.0
311000000,30,311000000,,-0.0331166860756,-0.00069752003025,0.00214520884713,0.0,0.0,0.0
322000000,31,322000000,,0.0110507116412,0.000523009823981,0.0257978172873,0.0,0.0,0.0
331000000,32,331000000,,0.0117396068449,0.00409253684507,-0.0210939589767,0.0,0.0,0.0
341000000,33,341000000,,0.0113821829355,-0.00117552854039,0.0444911003454,0.0,0.0,0.0
352000000,34,352000000,,-0.0235968277981,-0.00927763506397,-0.0143998610209,0.0,0.0,0.0
362000000,35,362000000,,-0.000889285607365,0.0199462275156,-0.00701679004295,0.0,0.0,0.0
372000000,36,372000000,,-0.0221471494137,-0.0406037095332,-0.00142541897213,0.0,0.0,0.0
382000000,37,382000000,,-0.0344121453399,-0.0235402129324,0.0010817053018,0.0,0.0,0.0
391000000,38,391000000,,0.00842364259702,-0.0271102709688,-0.0462222065141,0.0,0.0,0.0
402000000,39,402000000,,0.0221946850128,-0.0164413928411,-0.0243857484521,0.0,0.0,0.0
411000000,40,411000000,,-0.00606704045731,-0.0291775913289,0.0144713400937,0.0,0.0,0.0
422000000,41,422000000,,0.00529870482268,0.029831592465,0.0219489047244,0.0,0.0,0.0
431000000,42,431000000,,-0.0186495855025,-0.00768191389092,0.00232526644546,0.0,0.0,0.0
441000000,43,441000000,,0.0268810056527,-0.00177329735822,0.0339172958527,0.0,0.0,0.0
452000000,44,452000000,,-0.0194884739204,-9.66525043518e-05,0.00315297536864,0.0,0.0,0.0
461000000,45,461000000,,-0.0650271318295,0.0209298610298,-0.0207832509541,0.0,0.0,0.0
472000000,46,472000000,,0.00708741717005,0.0304152317121,0.0144868113597,0.0,0.0,0.0
487000000,47,487000000,,0.0688398281896,0.0407600647084,-0.0324915929115,0.0,0.0,0.0
492000000,48,492000000,,-0.0170615438884,0.00263199064659,-0.0390674213226,0.0,0.0,0.0
502000000,49,502000000,,-0.0281090698196,0.00125652124713,0.0127166490265,0.0,0.0,0.0
511000000,50,511000000,,0.00497013648147,0.0121939129051,0.0287107645897,0.0,0.0,0.0
520000000,51,520000000,,-0.0320640421263,-0.0158319794505,0.00364517389281,0.0,0.0,0.0
531000000,52,531000000,,0.00357184199903,0.000254437522298,-0.0104879146217,0.0,0.0,0.0
541000000,53,541000000,,0.0272495222932,-0.0155761102833,0.0590925291887,0.0,0.0,0.0
551000000,54,551000000,,-0.00369114211329,0.00694135151437,0.0417089889239,0.0,0.0,0.0
561000000,55,561000000,,-0.00709489186049,-0.028302254022,0.0557925768573,0.0,0.0,0.0
572000000,56,572000000,,0.0176060387888,0.0106576257215,0.0589213167685,0.0,0.0,0.0
582000000,57,582000000,,-0.0201745353234,0.0165184750565,0.109120117622,0.0,0.0,0.0
592000000,58,592000000,,-0.0262322504081,-0.00255775149477,0.127602298396,0.0,0.0,0.0
601000000,59,601000000,,-0.0163312727433,0.0254250166306,0.148938519759,0.0,0.0,0.0
611000000,60,611000000,,-0.00389719704245,0.00339426730711,0.21537301012,0.0,0.0,0.0
622000000,61,622000000,,0.0278586093236,0.029393798457,0.271290531396,0.0,0.0,0.0
632000000,62,632000000,,0.0104438156904,0.00293503467464,0.29434356617,0.0,0.0,0.0
643000000,63,643000000,,0.00731136108001,-0.024864380199,0.344159523684,0.0,0.0,0.0
659000000,64,659000000,,-0.00600557809773,0.0150222311627,0.381402179126,0.0,0.0,0.0
664000000,65,664000000,,-0.0106127632237,-0.0342164226211,0.424225780427,0.0,0.0,0.0
672000000,66,672000000,,0.00135941861952,0.0186678522193,0.506316150823,0.0,0.0,0.0
681000000,67,681000000,,0.00413501287333,0.00878653396443,0.566893191608,0.0,0.0,0.0
692000000,68,692000000,,-0.0485187519478,0.0186073442985,0.577954951759,0.0,0.0,0.0
702000000,69,702000000,,0.0246799456569,0.00868732512019,0.611145187346,0.0,0.0,0.0
711000000,70,711000000,,-0.012959295064,-0.022139108395,0.665548220994,0.0,0.0,0.0
721000000,71,721000000,,0.00225670469333,-0.0131107638662,0.759294964819,0.0,0.0,0.0
731000000,72,731000000,,-0.0275670831032,-0.0367599700673,0.792733849345,0.0,0.0,0.0
742000000,73,742000000,,-0.00720454403501,0.0129931481922,0.878994959705,0.0,0.0,0.0
751000000,74,751000000,,0.0053332531374,-0.037344427042,0.917001141623,0.0,0.0,0.0
762000000,75,762000000,,0.00314335277474,-0.018456991608,0.989159225186,0.0,0.0,0.0
771000000,76,771000000,,0.0367852170361,0.00822600906727,1.02785234347,0.0,0.0,0.0
781000000,77,781000000,,0.0148059650039,0.0156378230926,1.12390391024,0.0,0.0,0.0
791000000,78,791000000,,-0.0151824822519,0.00147834970119,1.13823011552,0.0,0.0,0.0
801000000,79,801000000,,0.00109091933346,0.022115670465,1.21130636026,0.0,0.0,0.0
811000000,80,811000000,,0.000336716422317,-0.00215575260712,1.25521263072,0.0,0.0,0.0
821000000,81,821000000,,-4.81593382666e-05,0.0121156027355,1.30120814822,0.0,0.0,0.0
831000000,82,831000000,,-0.024092151742,-0.00340610307668,1.34571252222,0.0,0.0,0.0
841000000,83,841000000,,0.0110933764255,-0.00626374290605,1.40368117069,0.0,0.0,0.0
852000000,84,852000000,,0.015531541689,-0.0352851653898,1.41787998601,0.0,0.0,0.0
861000000,85,861000000,,-0.00124035690894,-0.000298786084892,1.5115897188,0.0,0.0,0.0
871000000,86,871000000,,0.0242021862624,0.0100893104493,1.51449391321,0.0,0.0,0.0
881000000,87,881000000,,-0.00878933561309,-0.000124140759268,1.51983000788,0.0,0.0,0.0
891000000,88,891000000,,0.000663785217063,-0.0111190648871,1.57493291193,0.0,0.0,0.0
901000000,89,901000000,,-0.029741682869,0.00984676540377,1.58301573577,0.0,0.0,0.0
911000000,90,911000000,,0.0224849817011,-0.0186727119634,1.63463342451,0.0,0.0,0.0
921000000,91,921000000,,-0.0119767244967,0.0204082597196,1.68984802823,0.0,0.0,0.0
931000000,92,931000000,,0.00518142586109,-0.00513587833465,1.66624973189,0.0,0.0,0.0
941000000,93,941000000,,-0.0267959227741,0.0136910454092,1.675885449,0.0,0.0,0.0
951000000,94,951000000,,-0.00549431180014,-0.00771284275916,1.70744347758,0.0,0.0,0.0
961000000,95,961000000,,-0.00101652966749,-0.0291054481686,1.71560083455,0.0,0.0,0.0
971000000,96,971000000,,0.0134507645127,0.0354008565854,1.70892120044,0.0,0.0,0.0
982000000,97,982000000,,-0.0169091758918,-0.00777957179846,1.68704099689,0.0,0.0,0.0
991000000,98,991000000,,-0.00371754360833,0.00592336346241,1.70473088058,0.0,0.0,0.0
1002000000,99,1002000000,,0.00873349128635,0.0202360341674,1.70616374274,0.0,0.0,0.0
1011000000,100,1011000000,,-0.0246001459966,0.0243891469936,1.71521364075,0.0,0.0,0.0
1021000000,101,1021000000,,-0.000711426950272,0.00726046602131,1.71528492455,0.0,0.0,0.0
1031000000,102,1031000000,,0.0303511772228,-0.027993357801,1.7176723529,0.0,0.0,0.0
1041000000,103,1041000000,,0.00402345287284,0.0127503589457,1.66425754089,0.0,0.0,0.0
1051000000,104,1051000000,,0.000639516835993,-0.0221667753592,1.66365204122,0.0,0.0,0.0
1061000000,105,1061000000,,0.0203204880796,0.0242990179591,1.65106284904,0.0,0.0,0.0
1071000000,106,1071000000,,-0.00223780972756,-0.0111963076821,1.67802296667,0.0,0.0,0.0
1081000000,107,1081000000,,0.0418703798557,0.0242338851368,1.62459009949,0.0,0.0,0.0
1091000000,108,1091000000,,0.0024030457298,0.0167438307308,1.62318178369,0.0,0.0,0.0
1101000000,109,1101000000,,0.00909817513858,0.0400745672614,1.58300221304,0.0,0.0,0.0
1111000000,110,1111000000,,0.00939538715506,0.0210716571249,1.55880853597,0.0,0.0,0.0
1120000000,111,1120000000,,-0.0123066582093,0.00858283160913,1.58743025571,0.0,0.0,0.0
1131000000,112,1131000000,,0.00952841355801,-0.0086070094908,1.55989838703,0.0,0.0,0.0
1141000000,113,1141000000,,0.0259132451394,-0.00632821602813,1.5482800989,0.0,0.0,0.0
1151000000,114,1151000000,,0.0288155948412,0.00665667911078,1.48460188624,0.0,0.0,0.0
1161000000,115,1161000000,,-0.0303336647141,0.0150308229272,1.4596234379,0.0,0.0,0.0
1171000000,116,1171000000,,0.0125487193139,-0.00834657467451,1.50726182528,0.0,0.0,0.0
1181000000,117,1181000000,,-0.00127551059617,0.0337228750328,1.42168341701,0.0,0.0,0.0
1193000000,118,1193000000,,0.00267872172817,-0.0186972590267,1.44747337943,0.0,0.0,0.0
1201000000,119,1201000000,,0.0188702392559,-0.0238826351044,1.43100050726,0.0,0.0,0.0
1211000000,120,1211000000,,-0.00441135396166,0.00903395061359,1.36310338174,0.0,0.0,0.0
1222000000,121,1222000000,,0.0163395773493,0.0293450058105,1.39643254417,0.0,0.0,0.0
1232000000,122,1232000000,,0.0154022841818,0.024809889124,1.40314489258,0.0,0.0,0.0
1242000000,123,1242000000,,0.020303915395,0.00187124203912,1.36675486217,0.0,0.0,0.0
1251000000,124,1251000000,,0.0086667833369,0.0176972317558,1.34933698971,0.0,0.0,0.0
1263000000,125,1263000000,,-0.0437389017774,-0.00144099162086,1.3150765893,0.0,0.0,0.0
1275000000,126,1275000000,,0.0065784189505,-0.00506396877325,1.28745775644,0.0,0.0,0.0
1281000000,127,1281000000,,0.0284505993556,-0.0324642893918,1.28490377812,0.0,0.0,0.0
1292000000,128,1292000000,,0.0224986289853,0.00271319500697,1.25029460963,0.0,0.0,0.0
1301000000,129,1301000000,,0.021988873262,0.0312050056414,1.26285954724,0.0,0.0,0.0
1316000000,130,1316000000,,-0.00613385479761,-0.0256368039997,1.26706025977,0.0,0.0,0.0
1324000000,131,1324000000,,0.00378119270392,-0.00900020471032,1.23811644302,0.0,0.0,0.0
1331000000,132,1331000000,,-0.00130066969756,-0.00699406047075,1.23038333623,0.0,0.0,0.0
1342000000,133,1342000000,,0.0404347011144,0.0110556605631,1.22053159243,0.0,0.0,0.0
1359000000,134,1359000000,,0.00690161908464,0.0386080089738,1.19964079834,0.0,0.0,0.0
1366000000,135,1366000000,,0.0145444428959,0.0382463911213,1.25758836836,0.0,0.0,0.0
1372000000,136,1372000000,,0.0258952167418,-0.0180803777551,1.19238303088,0.0,0.0,0.0
1381000000,137,1381000000,,-0.00283549593136,-0.0206322750618,1.1901779753,0.0,0.0,0.0
1391000000,138,1391000000,,-0.0137200959644,0.00703585851493,1.19211596268,0.0,0.0,0.0
1400000000,139,1400000000,,0.000537036215579,0.00383606295814,1.18492904794,0.0,0.0,0.0
1413000000,140,1413000000,,0.0396087625821,0.00395342769624,1.12874137893,0.0,0.0,0.0
1421000000,141,1421000000,,0.00735398947142,-0.00156243756292,1.1622979456,0.0,0.0,0.0
1431000000,142,1431000000,,0.0219335915003,0.0148580272958,1.14305747774,0.0,0.0,0.0
1442000000,143,1442000000,,-0.0087763834587,0.0157111333195,1.18954056115,0.0,0.0,0.0
1452000000,144,1452000000,,-0.0199128447656,-0.017282044107,1.11625525233,0.0,0.0,0.0
1461000000,145,1461000000,,0.00395417533898,-0.0209826356977,1.18607462546,0.0,0.0,0.0
1471000000,146,1471000000,,0.0183897572208,0.0220767914935,1.17782941471,0.0,0.0,0.0
1492000000,148,1492000000,,-0.0178928692691,0.00259726659683,1.17062765612,0.0,0.0,0.0
1506000000,149,1506000000,,-0.0163770250545,0.00815614184909,1.19343023795,0.0,0.0,0.0
1511000000,150,1511000000,,0.0183616502358,-0.0206519050741,1.17515378649,0.0,0.0,0.0
1522000000,151,1522000000,,-0.00100944929052,-0.000727561163779,1.17945457757,0.0,0.0,0.0
1532000000,152,1532000000,,0.00337274281604,-0.0271851358428,1.20389461404,0.0,0.0,0.0
1542000000,153,1542000000,,0.0071636553466,0.00494438835817,1.14575112215,0.0,0.0,0.0
1551000000,154,1551000000,,0.00707808601414,-0.0191204710203,1.15995151432,0.0,0.0,0.0
1563000000,155,1563000000,,-0.00801834118609,-0.024812546849,1.17653507559,0.0,0.0,0.0
1572000000,156,1572000000,,-0.0383517999968,0.0141206961018,1.16956454973,0.0,0.0,0.0
1581000000,157,1581000000,,0.00614942218186,0.00279639170654,1.175363169,0.0,0.0,0.0
1594000000,158,1594000000,,0.0184806509039,-0.00349478318823,1.19184612491,0.0,0.0,0.0
1607000000,159,1607000000,,-0.00222772530839,0.00487017348545,1.15402979171,0.0,0.0,0.0
1611000000,160,1611000000,,0.0657614238617,-0.00503741448883,1.14823638175,0.0,0.0,0.0
1621000000,161,1621000000,,0.0416335342306,0.022369518619,1.23072848925,0.0,0.0,0.0
1639000000,162,1639000000,,0.023314506668,0.00847317093461,1.14629437112,0.0,0.0,0.0
1642000000,163,1642000000,,0.0177220815366,0.025536729984,1.19023134297,0.0,0.0,0.0
1651000000,164,1651000000,,-0.00661507274933,-0.000109368561091,1.1786418797,0.0,0.0,0.0
1661000000,165,1661000000,,-0.0352519372289,0.0258480095212,1.14387148,0.0,0.0,0.0
1671000000,166,1671000000,,-0.0050967420543,-0.00677416938316,1.17998272473,0.0,0.0,0.0
1681000000,167,1681000000,,0.00932726075011,0.00879371836533,1.15644144034,0.0,0.0,0.0
1694000000,168,1694000000,,-0.0445317741476,-0.0038008053858,1.12279066153,0.0,0.0,0.0
1701000000,169,1701000000,,0.0125869772768,-0.00549472862564,1.16900821481,0.0,0.0,0.0
1713000000,170,1713000000,,0.00820429681331,0.0439693270874,1.1607062191,0.0,0.0,0.0
1721000000,171,1721000000,,-0.0340693361211,0.00644931971548,1.12053524643,0.0,0.0,0.0
1739000000,172,1739000000,,0.0131625602385,-0.0210729448659,1.13408783113,0.0,0.0,0.0
1746000000,173,1746000000,,0.0423993906101,0.0257428915955,1.12609534609,0.0,0.0,0.0
1751000000,174,1751000000,,-0.00565020734815,0.00131152470902,1.14657572467,0.0,0.0,0.0
1764000000,175,1764000000,,-0.00281086550219,-0.00347876967746,1.12858277326,0.0,0.0,0.0
1774000000,176,1774000000,,0.0203275787959,0.0125482509821,1.09597669328,0.0,0.0,0.0
1781000000,177,1781000000,,0.0334925406927,-0.00704391009608,1.08439859041,0.0,0.0,0.0
1791000000,178,1791000000,,-0.0142910876,-0.00500957809122,1.0619930989,0.0,0.0,0.0
1802000000,179,1802000000,,0.0345536927835,0.0341101416645,1.0644418755,0.0,0.0,0.0
1812000000,180,1812000000,,0.00393680298791,-0.033006618359,1.08887453966,0.0,0.0,0.0
1822000000,181,1822000000,,0.0343235370684,0.000919707418332,1.04860667397,0.0,0.0,0.0
1831000000,182,1831000000,,0.00684028502611,-0.0629033394743,1.04117089676,0.0,0.0,0.0
1841000000,183,1841000000,,-0.0069162036419,0.0263245635249,1.05098675912,0.0,0.0,0.0
1851000000,184,1851000000,,0.0229679577899,0.0249017679451,1.02813492548,0.0,0.0,0.0
1861000000,185,1861000000,,0.0394298709564,-0.0123709054383,0.986465011986,0.0,0.0,0.0
1871000000,186,1871000000,,-0.0230779997303,0.010277856791,1.04573242993,0.0,0.0,0.0
1881000000,187,1881000000,,0.00699833383432,-0.0266407975575,0.964390577908,0.0,0.0,0.0
1892000000,188,1892000000,,-0.00672704882953,-0.0126951582077,1.02028564381,0.0,0.0,0.0
1901000000,189,1901000000,,0.0246221743911,0.0122185989615,0.996877843608,0.0,0.0,0.0
1911000000,190,1911000000,,-0.0167986300383,-0.0011333121686,0.929834116226,0.0,0.0,0.0
1921000000,191,1921000000,,-0.00130200365953,-0.000307330975102,0.94345175556,0.0,0.0,0.0
1931000000,192,1931000000,,-0.00384156034401,-0.0335190547542,0.961094788292,0.0,0.0,0.0
1941000000,193,1941000000,,0.00887388409384,-0.00192885051879,0.926066565849,0.0,0.0,0.0
1951000000,194,1951000000,,0.0209181223378,0.0134022105448,0.905910724874,0.0,0.0,0.0
1962000000,195,1962000000,,-0.00454988879232,0.0301973184774,0.900348267142,0.0,0.0,0.0
1972000000,196,1972000000,,0.00397200476526,0.0499143022393,0.857557786137,0.0,0.0,0.0
1981000000,197,1981000000,,0.0443561542829,0.020724097092,0.881507959228,0.0,0.0,0.0
1991000000,198,1991000000,,0.00205033085558,-0.0266976688459,0.854472669617,0.0,0.0,0.0
2000000000,199,2000000000,,0.00626343403922,-0.0187088295097,0.815554771607,0.0,0.0,0.0
2011000000,200,2011000000,,-0.028395027291,0.0263711100222,0.806016714052,0.0,0.0,0.0
2021000000,201,2021000000,,0.0184424560606,-0.0218451506586,0.798257487169,0.0,0.0,0.0
2032000000,202,2032000000,,-0.00198639423757,0.00386531706096,0.785312010308,0.0,0.0,0.0
2041000000,203,2041000000,,0.00535052982562,-0.0251784634036,0.73946439924,0.0,0.0,0.0
2051000000,204,2051000000,,-0.0141962242957,0.0509663363278,0.773821464969,0.0,0.0,0.0
2061000000,205,2061000000,,-0.0292869924938,0.00826151574598,0.740274070707,0.0,0.0,0.0
2071000000,206,2071000000,,-0.025969795558,-0.022783780645,0.734505108087,0.0,0.0,0.0
2082000000,207,2082000000,,0.0077236245838,0.0347793412111,0.728484680928,0.0,0.0,0.0
2091000000,208,2091000000,,-0.0109463393995,-0.016870591225,0.76528344546,0.0,0.0,0.0
2102000000,209,2102000000,,0.0113019772278,-7.9178592696e-05,0.720683982336,0.0,0.0,0.0
2111000000,210,2111000000,,0.00179962829027,-0.00628731747713,0.726106948623,0.0,0.0,0.0
2122000000,211,2122000000,,0.0024489521306,0.00586651723108,0.675627190035,0.0,0.0,0.0
2131000000,212,2131000000,,-0.0105733317649,0.00393983380255,0.733862654504,0.0,0.0,0.0
2141000000,213,2141000000,,-0.00162292086551,0.00612007074627,0.690875132006,0.0,0.0,0.0
2151000000,214,2151000000,,0.0186770389377,0.000652017899217,0.648949724507,0.0,0.0,0.0
2166000000,215,2166000000,,-0.0263120135885,-0.0132252216745,0.652495077642,0.0,0.0,0.0
2172000000,216,2172000000,,0.025756002742,-0.00157868107952,0.684196405094,0.0,0.0,0.0
2181000000,217,2181000000,,0.0144794973634,-0.010795839117,0.67886095167,0.0,0.0,0.0
2191000000,218,2191000000,,0.0374285459636,0.000372456862114,0.620508015877,0.0,0.0,0.0
2200000000,219,2200000000,,-0.0135862918054,0.0192788275175,0.631650858627,0.0,0.0,0.0
2211000000,220,2211000000,,-0.0143956876984,-0.0255451334446,0.639471075291,0.0,0.0,0.0
2221000000,221,2221000000,,-0.00871036854295,-0.0189107689404,0.619526461072,0.0,0.0,0.0
2231000000,222,2231000000,,-0.0210359001742,-0.0281885953655,0.660406380208,0.0,0.0,0.0
2240000000,223,2240000000,,-0.00453101073249,-0.0123896508929,0.652473859839,0.0,0.0,0.0
2251000000,224,2251000000,,0.0179609187031,0.0262156145489,0.648313299233,0.0,0.0,0.0
2261000000,225,2261000000,,-0.00764514122128,-0.0102576095311,0.628775232721,0.0,0.0,0.0
2272000000,226,2272000000,,-0.0185289370382,0.0366740780665,0.632453751299,0.0,0.0,0.0
2282000000,227,2282000000,,0.0350961849397,0.0277255076768,0.591254228628,0.0,0.0,0.0
2291000000,228,2291000000,,0.024090602195,-0.000141559897094,0.596580840595,0.0,0.0,0.0
2302000000,229,2302000000,,0.00560216388621,-0.0148859165648,0.606312354651,0.0,0.0,0.0
2312000000,230,2312000000,,-0.0116949293118,-0.0131411965698,0.626974643242,0.0,0.0,0.0
2321000000,231,2321000000,,0.0174286777946,-0.0241228519833,0.590765205977,0.0,0.0,0.0
2331000000,232,2331000000,,0.00242707342045,0.0277911724179,0.562629655677,0.0,0.0,0.0
2341000000,233,2341000000,,0.0136344262504,0.0163189625353,0.601246934769,0.0,0.0,0.0
2351000000,234,2351000000,,0.00291099191974,-0.00868887665156,0.579279467111,0.0,0.0,0.0
2361000000,235,2361000000,,0.0291704781145,-0.00128887564135,0.572445379857,0.0,0.0,0.0
2371000000,236,2371000000,,-0.00811933747139,0.00465270377048,0.56495068512,0.0,0.0,0.0
2381000000,237,2381000000,,0.038271458001,-0.0320136394272,0.526481169735,0.0,0.0,0.0
2392000000,238,2392000000,,-0.03671663056,0.00730302076215,0.545066185218,0.0,0.0,0.0
2401000000,239,2401000000,,0.0049014218131,0.0331229497665,0.571507542943,0.0,0.0,0.0
2411000000,240,2411000000,,2.93561853122e-05,0.00141031623259,0.520514149215,0.0,0.0,0.0
2421000000,241,2421000000,,0.0162039551884,-0.00663849611735,0.525965137957,0.0,0.0,0.0
2431000000,242,2431000000,,0.0199295888099,-0.00701335861851,0.563850613233,0.0,0.0,0.0
2441000000,243,2441000000,,-0.0169567871295,-0.0141035766014,0.547380233958,0.0,0.0,0.0
2451000000,244,2451000000,,0.023893448498,-0.0184507834752,0.546730342686,0.0,0.0,0.0
2461000000,245,2461000000,,-0.0301020312609,0.0433174474416,0.523165103698,0.0,0.0,0.0
2471000000,246,2471000000,,0.00475844317966,-0.00493247645159,0.543860363467,0.0,0.0,0.0
2481000000,247,2481000000,,0.00796139175106,0.00923225716003,0.531756098288,0.0,0.0,0.0
2492000000,248,2492000000,,-0.030863126257,0.0214089655442,0.498291400968,0.0,0.0,0.0
2501000000,249,2501000000,,0.0203077723238,-0.00329446502619,0.508821169193,0.0,0.0,0.0
2512000000,250,2512000000,,-0.00593691759657,-0.0350668002785,0.549494405691,0.0,0.0,0.0
2521000000,251,2521000000,,-0.00867222339797,0.0429924349122,0.473307118547,0.0,0.0,0.0
2532000000,252,2532000000,,-0.0224658347621,-0.00416095230253,0.5318593205,0.0,0.0,0.0
2541000000,253,2541000000,,0.0198372636069,0.00802509848775,0.474878249916,0.0,0.0,0.0
2552000000,254,2552000000,,0.00761512478734,-0.0147618170289,0.49045199944,0.0,0.0,0.0
2560000000,255,2560000000,,-0.0175314722709,0.0315859994734,0.507475160547,0.0,0.0,0.0
2571000000,256,2571000000,,-0.0192664330764,0.0157251382056,0.477547457687,0.0,0.0,0.0
2581000000,257,2581000000,,0.00498457001704,0.00925184900829,0.500486752241,0.0,0.0,0.0
2591000000,258,2591000000,,-0.00160398403473,-0.0174093659979,0.533407528337,0.0,0.0,0.0
2602000000,259,2602000000,,-0.00268536612306,-0.00608508430639,0.467886555063,0.0,0.0,0.0
2611000000,260,2611000000,,0.00597278843964,-0.0182525376077,0.464972795239,0.0,0.0,0.0
2621000000,261,2621000000,,-0.00678196028241,0.0103615143568,0.481912330062,0.0,0.0,0.0
2631000000,262,2631000000,,-0.0203180694814,-0.0263943275693,0.460185145249,0.0,0.0,0.0
2642000000,263,2642000000,,-0.028406995104,-0.0330298174898,0.475589911894,0.0,0.0,0.0
2651000000,264,2651000000,,-0.00486808157952,-0.00303467672432,0.451415479374,0.0,0.0,0.0
2661000000,265,2661000000,,-0.0192633582454,0.0119985665279,0.447054895604,0.0,0.0,0.0
2671000000,266,2671000000,,-0.00981631128071,0.000802747541607,0.42456818668,0.0,0.0,0.0
2682000000,267,2682000000,,-0.00255883021672,-0.0332646850373,0.400577479548,0.0,0.0,0.0
2691000000,268,2691000000,,0.011489658205,0.00765126621039,0.438220142923,0.0,0.0,0.0
2701000000,269,2701000000,,-0.0401796616003,-0.00306703763725,0.405207288688,0.0,0.0,0.0
2711000000,270,2711000000,,0.0355063300557,0.0331287781872,0.429203443939,0.0,0.0,0.0
2721000000,271,2721000000,,-0.0378239822389,8.36173279046e-05,0.407719675886,0.0,0.0,0.0
2731000000,272,2731000000,,-0.0199048389155,-0.0343952272713,0.406594839396,0.0,0.0,0.0
2741000000,273,2741000000,,0.00458946711528,-0.000317708990374,0.402939871268,0.0,0.0,0.0
2751000000,274,2751000000,,0.0235286125927,-0.0220447669411,0.387557978681,0.0,0.0,0.0
2762000000,275,2762000000,,0.0464647234557,0.0379784106944,0.361651045376,0.0,0.0,0.0
2771000000,276,2771000000,,0.00868714100543,0.0266902617159,0.341679187067,0.0,0.0,0.0
2781000000,277,2781000000,,0.00381702298648,-0.017416427084,0.325034283061,0.0,0.0,0.0
2792000000,278,2792000000,,-0.0143519356357,-0.0339645483425,0.351071870535,0.0,0.0,0.0
2801000000,279,2801000000,,-0.0178086267635,-0.011002116307,0.353025882834,0.0,0.0,0.0
2811000000,280,2811000000,,-0.00731980464222,0.0166624221844,0.352437997853,0.0,0.0,0.0
2821000000,281,2821000000,,-0.0181507287866,0.00296150533368,0.322579151532,0.0,0.0,0.0
2831000000,282,2831000000,,-0.0307981691659,0.0147069485224,0.284818812991,0.0,0.0,0.0
2841000000,283,2841000000,,0.0330762800815,0.0097342890872,0.318866589016,0.0,0.0,0.0
2851000000,284,2851000000,,0.0159275307075,-0.00966505825928,0.350480696057,0.0,0.0,0.0
2861000000,285,2861000000,,-0.0475114279498,-0.0072171542248,0.313595960882,0.0,0.0,0.0
2871000000,286,2871000000,,-0.0129673792662,0.00590871430558,0.321239132614,0.0,0.0,0.0
2882000000,287,2882000000,,-0.0100973658047,0.0134409497262,0.300250146449,0.0,0.0,0.0
2892000000,288,2892000000,,0.00599390596104,0.0272767486964,0.30088442069,0.0,0.0,0.0
2901000000,289,2901000000,,0.00790233489581,0.0239333233069,0.241611824514,0.0,0.0,0.0
2911000000,290,2911000000,,0.00675407044602,-0.000941804354814,0.225322611598,0.0,0.0,0.0
2922000000,291,2922000000,,-0.00408541653017,0.00642247448118,0.270247000843,0.0,0.0,0.0
2932000000,292,2932000000,,0.0340905851239,-0.0228270813125,0.246713453103,0.0,0.0,0.0
2941000000,293,2941000000,,0.00905401695997,0.0441583353941,0.234019797111,0.0,0.0,0.0
2952000000,294,2952000000,,0.0247344562981,-0.0183308794457,0.251442816975,0.0,0.0,0.0
2961000000,295,2961000000,,0.0209423233973,-0.00566894680233,0.22871456049,0.0,0.0,0.0
2971000000,296,2971000000,,0.00658875580168,-0.0198183128237,0.244647542218,0.0,0.0,0.0
2981000000,297,2981000000,,-0.0136631376094,-0.0108811284429,0.237671212677,0.0,0.0,0.0
2991000000,298,2991000000,,-0.0326723825642,-0.0299437380834,0.223770855689,0.0,0.0,0.0
3002000000,299,3002000000,,0.04047016678,-0.00152789639719,0.244491243272,0.0,0.0,0.0
3012000000,300,3012000000,,0.0119077411903,0.000373871555538,0.261846656481,0.0,0.0,0.0
3022000000,301,3022000000,,-0.0208308122015,0.036254897433,0.178700632783,0.0,0.0,0.0
3032000000,302,3032000000,,-0.000352471738966,0.0500540801147,0.202101276847,0.0,0.0,0.0
3042000000,303,3042000000,,0.0191116099243,0.00461650652117,0.188290893731,0.0,0.0,0.0
3051000000,304,3051000000,,-0.0358836841965,-0.00990963398253,0.189728417503,0.0,0.0,0.0
3062000000,305,3062000000,,0.0105752204105,-0.0250115927259,0.197481771873,0.0,0.0,0.0
3071000000,306,3071000000,,-0.0237846188182,0.0287544739207,0.197500047979,0.0,0.0,0.0
3081000000,307,3081000000,,0.0345920803025,0.00529197092978,0.22232925229,0.0,0.0,0.0
3091000000,308,3091000000,,0.00749903257215,-0.0105795327236,0.25438294247,0.0,0.0,0.0
3102000000,309,3102000000,,-0.00319422504994,-0.0373771881066,0.222224775501,0.0,0.0,0.0
3111000000,310,3111000000,,0.00658317322851,-0.00485168215889,0.167171096861,0.0,0.0,0.0
3122000000,311,3122000000,,-0.00938167446124,-0.02685974178,0.205289244484,0.0,0.0,0.0
3131000000,312,3131000000,,-0.0261860106446,0.0197289679614,0.223356380927,0.0,0.0,0.0
3140000000,313,3140000000,,-0.000345531229704,-0.0298233509771,0.166736398654,0.0,0.0,0.0
3152000000,314,3152000000,,0.0240398724138,-0.0173260918846,0.170134507558,0.0,0.0,0.0
3160000000,315,3160000000,,-0.00888197010329,0.00870482043129,0.168532828026,0.0,0.0,0.0
3173000000,316,3173000000,,0.0319920065397,-0.0129516338332,0.206798573196,0.0,0.0,0.0
3183000000,317,3183000000,,0.00101970683671,0.0164274419677,0.203195998704,0.0,0.0,0.0
3192000000,318,3192000000,,0.0371179134245,0.0267948596768,0.215891740531,0.0,0.0,0.0
3203000000,319,3203000000,,-0.0158939381627,0.00695137734732,0.161870401981,0.0,0.0,0.0
3212000000,320,3212000000,,0.00138431889875,-0.0178779386749,0.205815091748,0.0,0.0,0.0
3223000000,321,3223000000,,-0.0105779272894,-0.0016210136015,0.166008152357,0.0,0.0,0.0
3231000000,322,3231000000,,0.018008726842,0.0100352464111,0.148645498845,0.0,0.0,0.0
3241000000,323,3241000000,,0.00162593469631,0.0318713756418,0.153577835533,0.0,0.0,0.0
3251000000,324,3251000000,,0.0111613245917,-0.0297711809092,0.160657401387,0.0,0.0,0.0
3262000000,325,3262000000,,-0.00731996358093,0.023348131553,0.165991285529,0.0,0.0,0.0
3272000000,326,3272000000,,0.000461115393067,0.00438284325942,0.175233632504,0.0,0.0,0.0
3281000000,327,3281000000,,-0.0144501190627,0.00655912047365,0.170684696329,0.0,0.0,0.0
3291000000,328,3291000000,,-0.0188925613058,0.00515489705786,0.152633577895,0.0,0.0,0.0
3301000000,329,3301000000,,-0.00115214466193,0.0209687375823,0.152039548725,0.0,0.0,0.0
3311000000,330,3311000000,,-0.0281445505478,-0.000325995467758,0.173592066729,0.0,0.0,0.0
3322000000,331,3322000000,,0.00355697043209,-0.00490352052837,0.123087521147,0.0,0.0,0.0
3332000000,332,3332000000,,0.0118178644764,-0.0179102324774,0.117543629992,0.0,0.0,0.0
3341000000,333,3341000000,,0.0426369708512,-0.0197100597018,0.202205170365,0.0,0.0,0.0
3353000000,334,3353000000,,-0.0239397207394,0.0324330685299,0.191402216059,0.0,0.0,0.0
3362000000,335,3362000000,,-0.00651794236657,-0.0164494697935,0.168847012974,0.0,0.0,0.0
3371000000,336,3371000000,,0.00676226291363,-0.0176633673996,0.126583608567,0.0,0.0,0.0
3382000000,337,3382000000,,0.0294333778972,0.0438141615137,0.145979800836,0.0,0.0,0.0
3392000000,338,3392000000,,-0.00618504624184,0.0105231708762,0.1649263263,0.0,0.0,0.0
3402000000,339,3402000000,,0.00973395986746,0.0122778845714,0.175242241408,0.0,0.0,0.0
3411000000,340,3411000000,,0.028741367151,-0.0154147736917,0.121973196984,0.0,0.0,0.0
3421000000,341,3421000000,,-0.0392863482974,-0.0247697263308,0.121431621179,0.0,0.0,0.0
3432000000,342,3432000000,,-0.013956456704,0.0188667749218,0.157214519356,0.0,0.0,0.0
3442000000,343,3442000000,,-0.00916884431191,0.0323099339553,0.133829144601,0.0,0.0,0.0
3452000000,344,3452000000,,-0.0037385740496,-0.0263951835277,0.0884594149281,0.0,0.0,0.0
3462000000,345,3462000000,,-0.0561611539623,0.0150448364293,0.124151886104,0.0,0.0,0.0
3471000000,346,3471000000,,0.0107988564587,-0.00107940583767,0.116679776395,0.0,0.0,0.0
3480000000,347,3480000000,,0.0128232706676,-0.0146680631987,0.145366604179,0.0,0.0,0.0
3492000000,348,3492000000,,0.00693331402959,-0.0273230716454,0.130398746259,0.0,0.0,0.0
3502000000,349,3502000000,,0.0342144109036,-0.0195650482567,0.126670306865,0.0,0.0,0.0
3511000000,350,3511000000,,-0.0121531071875,0.00673092744041,0.128873527455,0.0,0.0,0.0
3522000000,351,3522000000,,-0.0111358366687,0.0320958268531,0.127838580345,0.0,0.0,0.0
3530000000,352,3530000000,,-0.00446770350206,0.011066448029,0.108689119417,0.0,0.0,0.0
3541000000,353,3541000000,,0.0058681108638,0.0292477942813,0.151037562667,0.0,0.0,0.0
3552000000,354,3552000000,,0.0292463831899,0.0214675296978,0.0857737906134,0.0,0.0,0.0
3562000000,355,3562000000,,0.0183196889766,-0.00483675345119,0.124872107495,0.0,0.0,0.0
3572000000,356,3572000000,,0.0210801985287,0.00215382811875,0.092043096493,0.0,0.0,0.0
3581000000,357,3581000000,,-0.0452926553465,0.00179084180155,0.105338335574,0.0,0.0,0.0
3592000000,358,3592000000,,-0.0197600909599,0.00492246022716,0.103783471854,0.0,0.0,0.0
3602000000,359,3602000000,,-0.0116263419869,0.0343565575527,0.1383109381,0.0,0.0,0.0
3611000000,360,3611000000,,-0.0186403217213,0.0136601701519,0.0886966430868,0.0,0.0,0.0
3621000000,361,3621000000,,-0.00286175148382,0.0270723665038,0.107496890757,0.0,0.0,0.0
3632000000,362,3632000000,,0.000916685930766,0.015856792765,0.0931951532838,0.0,0.0,0.0
3642000000,363,3642000000,,-0.0218937075248,-0.00125235392451,0.108867337129,0.0,0.0,0.0
3649000000,364,3649000000,,0.0238237078418,-0.0103019619676,0.0960342206654,0.0,0.0,0.0
3662000000,365,3662000000,,-0.00710458999704,0.0233693336768,0.0971562279925,0.0,0.0,0.0
3672000000,366,3672000000,,0.00055441662301,0.0381443021185,0.0725658744249,0.0,0.0,0.0
3682000000,367,3682000000,,-0.0171270888696,-0.0259279921052,0.0553894383174,0.0,0.0,0.0
3691000000,368,3691000000,,0.00194639757225,-0.00235114967755,0.111332630343,0.0,0.0,0.0
3712000000,369,3712000000,,-0.0219167507094,-0.0359057475162,0.107669682022,0.0,0.0,0.0
3712000000,370,3712000000,,-0.0106678262478,0.0160940312735,0.0895336452742,0.0,0.0,0.0
3721000000,371,3721000000,,0.0221123490997,-0.0593248235145,0.056637677114,0.0,0.0,0.0
3738000000,372,3738000000,,0.00594663654772,0.0508565462533,0.0745592538928,0.0,0.0,0.0
3749000000,373,3749000000,,0.0274709614827,0.0054415316698,0.0939432840876,0.0,0.0,0.0
3753000000,374,3753000000,,-0.0093784056631,-0.0360292299862,0.0761299519235,0.0,0.0,0.0
3762000000,375,3762000000,,0.0449543880469,0.00828292232249,0.102881161764,0.0,0.0,0.0
3781000000,376,3781000000,,-0.0178885948517,-0.000189537171926,0.0448655859418,0.0,0.0,0.0
3784000000,377,3784000000,,0.00207632241161,0.0122082837949,0.084259829119,0.0,0.0,0.0
3791000000,378,3791000000,,-0.00239961017301,-0.014972753499,0.0609394189493,0.0,0.0,0.0
3801000000,379,3801000000,,-0.01773250632,-0.00945922338777,0.0706637496894,0.0,0.0,0.0
3811000000,380,3811000000,,-0.00207239821566,0.0219824252455,0.0771379446121,0.0,0.0,0.0
3821000000,381,3821000000,,-0.00567027308688,0.00713138537579,0.0900465961774,0.0,0.0,0.0
3832000000,382,3832000000,,0.0215804272512,0.00813081411307,0.0635266550953,0.0,0.0,0.0
3841000000,383,3841000000,,0.0122448938463,0.00354983053649,0.0924144659422,0.0,0.0,0.0
3851000000,384,3851000000,,0.00937853214034,-0.00234174841228,0.065173743129,0.0,0.0,0.0
3861000000,385,3861000000,,0.0169160969597,-0.0273612875676,0.0811118180667,0.0,0.0,0.0
3874000000,386,3874000000,,0.0274002702689,0.0130848830585,0.0325744243101,0.0,0.0,0.0
3881000000,387,3881000000,,-0.00171593697641,0.00774822996019,0.0128019272994,0.0,0.0,0.0
3905000000,388,3905000000,,0.0119535987477,-0.0393367712205,0.0380285658967,0.0,0.0,0.0
3905000000,389,3905000000,,0.00603906721972,-0.013236564042,0.0892069675682,0.0,0.0,0.0
3918000000,390,3918000000,,-0.0115615838854,0.00408451499914,0.0521335470829,0.0,0.0,0.0
3930000000,391,3930000000,,-0.00518197787556,0.00508852694066,0.0131923159514,0.0,0.0,0.0
3946000000,392,3946000000,,0.0199250102752,-0.00895226969093,0.0446154406282,0.0,0.0,0.0
3946000000,393,3946000000,,0.0315960141978,-0.00257851473796,0.0496875336589,0.0,0.0,0.0
3951000000,394,3951000000,,-0.0256068253572,0.042978287854,0.0624513129836,0.0,0.0,0.0
3962000000,395,3962000000,,-0.0295948087274,0.0257640047521,0.0796844564921,0.0,0.0,0.0
3971000000,396,3971000000,,0.0184680025747,0.0131628482311,0.0643185239369,0.0,0.0,0.0
3981000000,397,3981000000,,0.0103765623383,0.0164584415922,0.0511520265792,0.0,0.0,0.0
3991000000,398,3991000000,,0.00532104251147,0.0171239639476,0.038877078999,0.0,0.0,0.0
4005000000,399,4005000000,,0.0229634471393,0.0145362183203,0.0282453844481,0.0,0.0,0.0
4011000000,400,4011000000,,-0.00421610911554,-0.0190528506818,0.049270084961,0.0,0.0,0.0
4022000000,401,4022000000,,-0.0173334207419,0.0182023093358,0.0701731756011,0.0,0.0,0.0
4031000000,402,4031000000,,-0.00515099151091,-0.00117233807892,0.0610975553585,0.0,0.0,0.0
4057000000,403,4057000000,,0.00162186053266,0.029118161403,0.00630227720399,0.0,0.0,0.0
4057000000,404,4057000000,,-0.0102808834403,-0.0175942088062,0.0405391001467,0.0,0.0,0.0
4062000000,405,4062000000,,0.0213264727072,-0.0238626645622,0.0257620866264,0.0,0.0,0.0
4072000000,406,4072000000,,-0.0404045630226,-0.00517204047706,0.0422195525776,0.0,0.0,0.0
4082000000,407,4082000000,,0.0149065291495,0.000589806236801,0.0330017115067,0.0,0.0,0.0
4092000000,408,4092000000,,0.00889664984517,0.0218346965373,0.0490322686395,0.0,0.0,0.0
4102000000,409,4102000000,,-0.00996249857891,0.0262846509223,0.0552912875933,0.0,0.0,0.0
4112000000,410,4112000000,,0.00155790867369,-0.00347534860735,0.029251386092,0.0,0.0,0.0
4122000000,411,4122000000,,-0.00685861641852,-0.0257476667593,0.0610051406676,0.0,0.0,0.0
4132000000,412,4132000000,,-0.000612768064932,-0.000455979160607,0.0546788921313,0.0,0.0,0.0
4142000000,413,4142000000,,-0.0193012339322,0.0289131828561,0.0520862167935,0.0,0.0,0.0
4152000000,414,4152000000,,-0.015888614484,0.0343651173668,0.0609498977388,0.0,0.0,0.0
4161000000,415,4161000000,,0.0124036090548,-0.0108893847969,0.0350201776458,0.0,0.0,0.0
4171000000,416,4171000000,,-0.0178326224698,0.0129833415195,0.0442258050985,0.0,0.0,0.0
4181000000,417,4181000000,,0.0005486526902,0.0219853162501,0.0530181251432,0.0,0.0,0.0
4192000000,418,4192000000,,0.00634470735936,0.027261672904,0.046054499073,0.0,0.0,0.0
4202000000,419,4202000000,,0.0235771268657,-0.00135613391737,0.0280431651422,0.0,0.0,0.0
4211000000,420,4211000000,,0.0218641028791,0.00676506145504,0.000380849893049,0.0,0.0,0.0
4222000000,421,4222000000,,0.00486324560673,0.0323940529154,0.0149147201902,0.0,0.0,0.0
4232000000,422,4232000000,,-0.00485181316269,0.00625769143562,0.0492918959523,0.0,0.0,0.0
4241000000,423,4241000000,,0.0200467494015,-0.0138303523037,0.0527660495502,0.0,0.0,0.0
4251000000,424,4251000000,,0.00713623181994,-0.0420423283254,0.0475412370749,0.0,0.0,0.0
4264000000,425,4264000000,,0.0283282827086,0.0230008053574,-0.00360494760751,0.0,0.0,0.0
4272000000,426,4272000000,,0.0070151685746,-0.0055307363747,0.0213606456638,0.0,0.0,0.0
4282000000,427,4282000000,,0.0138252276973,0.0148510688511,0.0171317977381,0.0,0.0,0.0
4291000000,428,4291000000,,-0.0210225069802,-0.0339995416553,0.0198785404068,0.0,0.0,0.0
4302000000,429,4302000000,,-0.0139919321164,-0.0198034801412,0.00715149276311,0.0,0.0,0.0
4312000000,430,4312000000,,0.0283995479215,0.0235327598947,0.0547708671457,0.0,0.0,0.0
4321000000,431,4321000000,,-0.00526588538156,0.0122917581121,-0.0137115964462,0.0,0.0,0.0
4336000000,432,4336000000,,0.0218685875139,0.0500041391744,-0.0161513056806,0.0,0.0,0.0
4345000000,433,4345000000,,-0.00198354809935,0.0202107645721,-0.0309511860963,0.0,0.0,0.0
4353000000,434,4353000000,,0.00385037430853,0.0143829906782,0.0277736788238,0.0,0.0,0.0
4362000000,435,4362000000,,-0.00870953405957,-0.00210350562278,0.0151817121097,0.0,0.0,0.0
4371000000,436,4371000000,,-0.0128623292964,-5.40164957729e-05,-0.0122282655069,0.0,0.0,0.0
4382000000,437,4382000000,,-0.0102054994797,-0.0107900292768,0.0126450427564,0.0,0.0,0.0
4391000000,438,4391000000,,0.00464857897525,-0.00227343007587,0.00820134257744,0.0,0.0,0.0
4400000000,439,4400000000,,0.0309104938105,-0.000191567469755,-0.0278020480906,0.0,0.0,0.0
4411000000,440,4411000000,,-0.00209867714897,0.0229238755848,0.00517535007891,0.0,0.0,0.0
4421000000,441,4421000000,,0.00791497260599,-0.0010736741986,-0.00135423291997,0.0,0.0,0.0
4431000000,442,4431000000,,-0.0067599642209,0.029017061148,0.0101747402754,0.0,0.0,0.0
4441000000,443,4441000000,,0.00859423403827,0.0348636884877,0.0184556710718,0.0,0.0,0.0
4451000000,444,4451000000,,-0.0163145524621,-0.0110143193399,-0.0136075689808,0.0,0.0,0.0
4462000000,445,4462000000,,-0.00860394782797,-0.0120660789532,-0.0142147305318,0.0,0.0,0.0
4472000000,446,4472000000,,-0.00523422869963,-0.0401960470097,-0.0139146905931,0.0,0.0,0.0
4482000000,447,4482000000,,-0.000660352241045,-0.00402572972065,0.0328710859294,0.0,0.0,0.0
4491000000,448,4491000000,,-0.0250522762246,0.00678332797564,0.00779980877007,0.0,0.0,0.0
4501000000,449,4501000000,,0.0129680161465,0.0131302705946,0.0143388000608,0.0,0.0,0.0
4511000000,450,4511000000,,-0.00187482978071,0.0186976363057,-0.0201981106964,0.0,0.0,0.0
4521000000,451,4521000000,,0.0123689419619,-0.00672214288268,0.0115353364832,0.0,0.0,0.0
4532000000,452,4532000000,,0.0124254682466,0.0158429566014,-0.00370476593599,0.0,0.0,0.0
4541000000,453,4541000000,,-0.00474038978232,0.00575684220189,0.00236070526081,0.0,0.0,0.0
4552000000,454,4552000000,,0.0057663143496,0.0249067629208,-0.0253041179132,0.0,0.0,0.0
4561000000,455,4561000000,,-0.00448870814432,-0.0143241897091,-0.00868668872729,0.0,0.0,0.0
4571000000,456,4571000000,,0.0134872542531,0.00160259385477,-0.0139163345583,0.0,0.0,0.0
4581000000,457,4581000000,,0.0517565078992,0.00891215917056,0.0540561260336,0.0,0.0,0.0
4591000000,458,4591000000,,0.0111668577558,0.0104689455784,0.0284592404697,0.0,0.0,0.0
4601000000,459,4601000000,,-0.0129786126961,0.0250482495782,0.0241569892067,0.0,0.0,0.0
4613000000,460,4613000000,,-0.00089278097486,0.017246367935,-0.0225690570563,0.0,0.0,0.0
4626000000,461,4626000000,,8.53655449191e-05,0.0416097065377,0.0093018421049,0.0,0.0,0.0
4631000000,462,4631000000,,-0.0212059907278,-0.0152671783036,0.033374469344,0.0,0.0,0.0
4642000000,463,4642000000,,-0.0347755402941,0.000452834752052,0.0101564691216,0.0,0.0,0.0
4651000000,464,4651000000,,0.00127026017444,0.0082558919348,0.0299348194766,0.0,0.0,0.0
4661000000,465,4661000000,,-0.00554446305907,0.0318118710493,-0.0044149439046,0.0,0.0,0.0
4671000000,466,4671000000,,-0.0343977592096,-0.0204094922604,-0.0206301710164,0.0,0.0,0.0
4681000000,467,4681000000,,0.0114311887447,-0.0254210677988,0.0220732090754,0.0,0.0,0.0
4692000000,468,4692000000,,-0.0123663020955,-0.004578141375,-0.0312753595613,0.0,0.0,0.0
4702000000,469,4702000000,,-0.00999621599605,0.00513212713754,0.035356615033,0.0,0.0,0.0
4712000000,470,4712000000,,0.00365970826448,0.00433256572612,0.0203132100766,0.0,0.0,0.0
4722000000,471,4722000000,,-0.0179557272563,-0.0192923020167,-0.0159781165992,0.0,0.0,0.0
4731000000,472,4731000000,,-0.0231735975414,0.01953180073,-0.0201667351941,0.0,0.0,0.0
4742000000,473,4742000000,,-0.00973542795867,0.019439955121,0.0127118410378,0.0,0.0,0.0
4752000000,474,4752000000,,-0.00303647998158,0.014103839343,-0.0272800196745,0.0,0.0,0.0
4762000000,475,4762000000,,-0.0065611325378,0.00360663010127,0.0452238404113,0.0,0.0,0.0
4771000000,476,4771000000,,-0.00756511814996,-0.00937048235751,0.0242942327154,0.0,0.0,0.0
4781000000,477,4781000000,,0.00949876793678,0.0195031131144,-0.0048890430406,0.0,0.0,0.0
4792000000,478,4792000000,,0.008775488914,0.0209778889789,-0.0158539209412,0.0,0.0,0.0
4803000000,479,4803000000,,0.0399561465442,-0.0052406333466,-0.0149398645455,0.0,0.0,0.0
4812000000,480,4812000000,,0.0355022974944,-0.00273746093057,-0.0127048339873,0.0,0.0,0.0
4821000000,481,4821000000,,0.00910866579576,-0.0412105425817,-0.00406130431923,0.0,0.0,0.0
4832000000,482,4832000000,,-0.00568977556346,-0.00818315557595,-0.00466675406696,0.0,0.0,0.0
4846000000,483,4846000000,,-0.0140818572061,-0.00599381530155,0.029967734212,0.0,0.0,0.0
4855000000,484,4855000000,,0.00623513532329,0.0275110015473,-0.012902213813,0.0,0.0,0.0
4862000000,485,4862000000,,0.017347653467,-0.00127690731928,0.000228757321681,0.0,0.0,0.0
4871000000,486,4871000000,,0.0184553992152,-0.0346455111594,0.0210025847072,0.0,0.0,0.0
4881000000,487,4881000000,,0.011342337123,0.0190516970837,0.0568235388776,0.0,0.0,0.0
4891000000,488,4891000000,,0.0313434694733,-0.010861708355,0.0235189441423,0.0,0.0,0.0
4901000000,489,4901000000,,0.023085958085,-0.00872166975241,0.0413542736809,0.0,0.0,0.0
4914000000,490,4914000000,,0.0166387193169,0.00394686275135,-0.0286182711982,0.0,0.0,0.0
4927000000,491,4927000000,,0.0188198391611,-0.00187446150978,-0.0113150284045,0.0,0.0,0.0
4938000000,492,4938000000,,-0.0575169410201,-0.00440213414793,0.0570725964578,0.0,0.0,0.0
4951000000,493,4951000000,,0.00267270702204,0.0236175902094,0.0455456960841,0.0,0.0,0.0
4960000000,494,4960000000,,-0.011999963657,0.0457076466762,0.0745869365586,0.0,0.0,0.0
4971000000,495,4971000000,,0.0125855546665,0.00274907116381,0.0147348179212,0.0,0.0,0.0
4971000000,496,4971000000,,0.0182727817625,-0.0159044251044,0.0120502870574,0.0,0.0,0.0
4982000000,497,4982000000,,0.0144620632791,-0.00537104669899,0.00979457743161,0.0,0.0,0.0
4991000000,498,4991000000,,-0.000737892611228,0.0251569302461,0.0433379253098,0.0,0.0,0.0
5012000000,499,5012000000,,-0.0117143507395,0.00617165519575,0.0234105762435,0.0,0.0,0.0
5012000000,500,5012000000,,0.00917301481007,-0.00999750382871,0.0463988059319,0.0,0.0,0.0
5031000000,501,5031000000,,0.0247529879679,0.00650712284534,0.0259611092856,0.0,0.0,0.0
5031000000,502,5031000000,,-0.0479676626981,0.0159494734342,0.0694416267235,0.0,0.0,0.0
5042000000,503,5042000000,,0.0345692174337,0.00905486128379,0.0189948024387,0.0,0.0,0.0
5051000000,504,5051000000,,-0.0420331729592,0.0196578526508,0.0271953340129,0.0,0.0,0.0
5062000000,505,5062000000,,-0.00234038050201,-0.0154033777093,0.062541831285,0.0,0.0,0.0
5074000000,506,5074000000,,-0.00471447967392,0.0107066560193,0.0489743262083,0.0,0.0,0.0
5081000000,507,5081000000,,-0.00100721114469,-0.0396269165061,0.0142166771813,0.0,0.0,0.0
5091000000,508,5091000000,,0.0155969697566,0.00394385356164,0.0326607620019,0.0,0.0,0.0
5101000000,509,5101000000,,0.008469655691,0.0229353047291,0.0169149528444,0.0,0.0,0.0
5111000000,510,5111000000,,0.00941027821731,-0.0321571038001,0.0240750761427,0.0,0.0,0.0
5122000000,511,5122000000,,0.0153256199136,0.0215376527051,0.0471955344115,0.0,0.0,0.0
5131000000,512,5131000000,,0.0154711453142,0.0170998161606,-0.00307376811879,0.0,0.0,0.0
5142000000,513,5142000000,,-0.0156976213943,0.0196868798904,-0.0099568085251,0.0,0.0,0.0
5153000000,514,5153000000,,0.017954057116,0.0240079685715,0.0409613290539,0.0,0.0,0.0
5160000000,515,5160000000,,-0.012614445815,-0.00173940775478,0.00517257074348,0.0,0.0,0.0
5171000000,516,5171000000,,-0.0160647254848,-0.0174852123334,0.0146067010951,0.0,0.0,0.0
5182000000,517,5182000000,,0.0439887340012,-0.0132499781313,0.0127275131001,0.0,0.0,0.0
5194000000,518,5194000000,,-0.00711456742892,-0.00446978670883,0.0199018829687,0.0,0.0,0.0
5201000000,519,5201000000,,-0.00562950985287,0.00472423109907,-0.0115033020763,0.0,0.0,0.0
5211000000,520,5211000000,,0.0261614835628,0.00369866928113,0.0230258188676,0.0,0.0,0.0
5221000000,521,5221000000,,-0.00342395055506,-0.0130032222297,-0.0303700404262,0.0,0.0,0.0
5231000000,522,5231000000,,-0.0134385679779,-0.0623397052657,0.0250883116221,0.0,0.0,0.0
5241000000,523,5241000000,,-0.00535516126396,0.0158340298764,0.000396683562089,0.0,0.0,0.0
5251000000,524,5251000000,,0.0126453548609,0.0107930978298,0.0179178843634,0.0,0.0,0.0
5262000000,525,5262000000,,-0.0101982349794,0.0211355007514,0.00691001717612,0.0,0.0,0.0
5272000000,526,5272000000,,0.0334758778848,0.0198226558478,-0.0189755530999,0.0,0.0,0.0
5285000000,527,5285000000,,0.0204388145317,-0.00575661469925,-0.00751514971146,0.0,0.0,0.0
5305000000,528,5305000000,,-0.0227101406099,0.0279297830482,-0.00395005047152,0.0,0.0,0.0
5308000000,529,5308000000,,0.00124895124694,-0.0183404240528,0.0308907603363,0.0,0.0,0.0
5311000000,530,5311000000,,0.0192223899121,-0.000852868763107,0.014545412597,0.0,0.0,0.0
5321000000,531,5321000000,,-0.0101809827012,-0.0180584802535,-0.0430527605499,0.0,0.0,0.0
5331000000,532,5331000000,,-0.0536753100991,-0.00204810653541,-0.0162448665428,0.0,0.0,0.0
5341000000,533,5341000000,,-0.00416894366201,-0.0290846104415,-0.00896049525486,0.0,0.0,0.0
5354000000,534,5354000000,,0.0023252416458,-0.0271531415186,0.025410184201,0.0,0.0,0.0
5361000000,535,5361000000,,-0.0283773503453,0.0343691269234,0.0213547704181,0.0,0.0,0.0
5372000000,536,5372000000,,0.0181684507684,0.0141333686696,0.00784939000386,0.0,0.0,0.0
5382000000,537,5382000000,,0.00105372507913,-0.00750742652782,-0.0266166668701,0.0,0.0,0.0
5392000000,538,5392000000,,0.000193805512382,0.011676904649,-0.00322224933001,0.0,0.0,0.0
5400000000,539,5400000000,,-0.0614394582628,-0.00223447787838,-0.0286081425906,0.0,0.0,0.0
5411000000,540,5411000000,,-0.00649346336548,-0.00203368145339,0.00499744057451,0.0,0.0,0.0
5420000000,541,5420000000,,0.0537826070712,-0.0108658163532,-0.00328511921172,0.0,0.0,0.0
5431000000,542,5431000000,,-0.0283551557558,0.00817209885116,0.0117631446462,0.0,0.0,0.0
5440000000,543,5440000000,,-0.00608782883152,0.0406682241886,-0.0356938880898,0.0,0.0,0.0
5451000000,544,5451000000,,-0.0324518474502,0.0254601543316,-0.0348733191041,0.0,0.0,0.0
5461000000,545,5461000000,,-0.019108741321,0.00636118501226,0.00138694697059,0.0,0.0,0.0
5472000000,546,5472000000,,-4.74786379307e-05,-0.00530583189525,-0.0261679448997,0.0,0.0,0.0
5480000000,547,5480000000,,0.00178452633486,0.0192769384493,0.00800196654451,0.0,0.0,0.0
5491000000,548,5491000000,,0.00126614735923,-0.00110765054303,-0.0209971673605,0.0,0.0,0.0
5501000000,549,5501000000,,0.000898434688578,-0.0424645900839,-0.0162380894203,0.0,0.0,0.0
5511000000,550,5511000000,,0.0231189782713,-0.00590733939897,-0.0413479474961,0.0,0.0,0.0
5521000000,551,5521000000,,0.00268833683649,-0.0442535910954,-0.0255357220312,0.0,0.0,0.0
5531000000,552,5531000000,,0.0145676073499,-0.0179628490246,-0.0176094628515,0.0,0.0,0.0
5541000000,553,5541000000,,0.0176849750029,-0.0127854752727,0.0107380333744,0.0,0.0,0.0
5552000000,554,5552000000,,-0.0251122863497,0.0236442751367,-0.0132369620345,0.0,0.0,0.0
5561000000,555,5561000000,,-0.0272106706466,-0.0231903996298,0.0239904288651,0.0,0.0,0.0
5571000000,556,5571000000,,0.0180723378671,-0.0435010773774,-0.0290716905692,0.0,0.0,0.0
5581000000,557,5581000000,,-0.0177240689658,0.00856894345265,-0.0157795792738,0.0,0.0,0.0
5591000000,558,5591000000,,0.000486160985611,-0.00870977364815,-0.0141029877881,0.0,0.0,0.0
5601000000,559,5601000000,,-0.0185778160318,-0.0208601675261,-0.00550130909164,0.0,0.0,0.0
5615000000,560,5615000000,,-0.00829638320242,-0.0219193166248,0.00394030612459,0.0,0.0,0.0
5622000000,561,5622000000,,0.000775997775449,0.00896949524524,0.0302428070023,0.0,0.0,0.0
5631000000,562,5631000000,,-0.0147310165951,-0.026738904103,-0.0175689761574,0.0,0.0,0.0
5641000000,563,5641000000,,0.00849596816787,0.0188966609586,0.00185733499063,0.0,0.0,0.0
5652000000,564,5652000000,,-0.03457225406,-0.000826750387049,0.0212124702918,0.0,0.0,0.0
5667000000,565,5667000000,,0.00260178197105,-0.0250053774852,0.038235969945,0.0,0.0,0.0
5673000000,566,5673000000,,-0.0344038587785,-0.0149189788809,0.0177777046683,0.0,0.0,0.0
5701000000,568,5701000000,,-0.00281041089155,-0.0216134443734,-0.00565508509014,0.0,0.0,0.0
5709000000,569,5709000000,,0.00755565278284,0.0237933004362,0.0120153157894,0.0,0.0,0.0
5712000000,570,5712000000,,0.00134634134043,-0.00971920778615,0.00469138763284,0.0,0.0,0.0
5722000000,571,5722000000,,0.0053710452238,0.0256511741854,0.0274917486508,0.0,0.0,0.0
5732000000,572,5732000000,,-0.022434996384,0.00820553825901,0.00839511697017,0.0,0.0,0.0
5746000000,573,5746000000,,0.0182860274276,0.0151957568193,0.0159987920832,0.0,0.0,0.0
5752000000,574,5752000000,,-0.00720841594821,0.0116883406426,0.0200400801217,0.0,0.0,0.0
5761000000,575,5761000000,,-0.00373006566771,0.0115145664891,0.065806382661,0.0,0.0,0.0
5771000000,576,5771000000,,-0.0296183225269,-0.0574943704813,0.0418914234339,0.0,0.0,0.0
5781000000,577,5781000000,,-0.0077615946377,-0.0147605525319,0.0379341419412,0.0,0.0,0.0
5791000000,578,5791000000,,-0.0290169836583,-0.00729446911452,0.00830448694581,0.0,0.0,0.0
5801000000,579,5801000000,,-0.00593985091255,-0.0386555534972,0.0347420824945,0.0,0.0,0.0
5812000000,580,5812000000,,0.0138814907717,-0.0142330949334,0.0681115015772,0.0,0.0,0.0
5822000000,581,5822000000,,0.00424265165447,0.004189685786,0.039269573732,0.0,0.0,0.0
5832000000,582,5832000000,,0.00187113155981,-0.0235428618188,0.0363956290403,0.0,0.0,0.0
5842000000,583,5842000000,,0.003896494944,-0.00488270470054,0.0220338589835,0.0,0.0,0.0
5851000000,584,5851000000,,-0.00802050250021,0.0011467150097,0.0428281165714,0.0,0.0,0.0
5861000000,585,5861000000,,-0.0094781591628,-0.00865305260129,0.017822654234,0.0,0.0,0.0
5872000000,586,5872000000,,-0.0252202699312,0.00231571925852,0.067088572568,0.0,0.0,0.0
5881000000,587,5881000000,,-0.013182686742,0.00568500228289,0.022747211261,0.0,0.0,0.0
5892000000,588,5892000000,,0.0270033978231,0.0227884601145,0.0256924078118,0.0,0.0,0.0
5902000000,589,5902000000,,-0.0184847747518,-0.00479128087723,0.069872581257,0.0,0.0,0.0
5912000000,590,5912000000,,-0.0250473534921,-0.0299189389652,-0.0131195188541,0.0,0.0,0.0
5921000000,591,5921000000,,0.0247813304089,-0.0142953774245,0.0536604043933,0.0,0.0,0.0
5921000000,592,5921000000,,0.00436328129898,0.0169243184554,0.0484087987186,0.0,0.0,0.0
5933000000,593,5933000000,,0.00462045007629,0.00515136930443,0.00551413509662,0.0,0.0,0.0
5954000000,594,5954000000,,-0.0091261039526,-0.0292758035644,0.0621260550179,0.0,0.0,0.0
5961000000,595,5961000000,,0.0191283332957,0.00316335324556,0.0150083055112,0.0,0.0,0.0
5971000000,596,5971000000,,-0.0189798749073,0.0149663810594,-0.00635387525438,0.0,0.0,0.0
5981000000,597,5981000000,,0.00511466829204,-0.0225410403994,0.00568226103851,0.0,0.0,0.0
5993000000,598,5993000000,,0.00286880740621,-0.0527043707431,0.025274484747,0.0,0.0,0.0
6003000000,599,6003000000,,-0.0207311545183,0.0146774053874,0.0380869355503,0.0,0.0,0.0
6012000000,600,6012000000,,0.0133947028114,-0.0175681065215,0.0242445675667,0.0,0.0,0.0
6024000000,601,6024000000,,-0.0279165575368,0.0151984820341,0.0270953371239,0.0,0.0,0.0
6029000000,602,6029000000,,0.000638908584815,0.00404798587851,-0.00687931019215,0.0,0.0,0.0
6041000000,603,6041000000,,-0.0112011528132,-0.00178028843201,0.0238184638189,0.0,0.0,0.0
6052000000,604,6052000000,,-0.000588942029731,-0.0363169336995,-0.0187687967362,0.0,0.0,0.0
6062000000,605,6062000000,,0.00111970322541,0.00234653098196,-0.00655118940887,0.0,0.0,0.0
6071000000,606,6071000000,,0.00952485779336,0.00944039462438,-0.01052806008,0.0,0.0,0.0
6081000000,607,6081000000,,-0.0191261364755,-0.0250671953607,0.00881378350985,0.0,0.0,0.0
6091000000,608,6091000000,,-0.00877369730647,-0.038262042952,-0.00126853180558,0.0,0.0,0.0
6101000000,609,6101000000,,0.00669279552304,0.0278738915712,0.00800501277991,0.0,0.0,0.0
6111000000,610,6111000000,,-0.00567335874337,0.000585431921181,0.0155104908054,0.0,0.0,0.0
6121000000,611,6121000000,,-0.0140972644366,-0.0261721159533,-0.0164713597114,0.0,0.0,0.0
6131000000,612,6131000000,,-0.00587491920874,-0.0133311386514,0.0116306269846,0.0,0.0,0.0
6141000000,613,6141000000,,0.0196725640582,0.0225012812554,-0.0179731606069,0.0,0.0,0.0
6152000000,614,6152000000,,0.00847405599273,-0.00644161568685,0.00741402247084,0.0,0.0,0.0
6162000000,615,6162000000,,0.0126477821984,-0.013273330798,-0.0254643509558,0.0,0.0,0.0
6171000000,616,6171000000,,0.0512634348989,0.0026555660583,0.00354930990895,0.0,0.0,0.0
6181000000,617,6181000000,,0.00707280307689,0.0168247490828,0.0156336861041,0.0,0.0,0.0
6191000000,618,6191000000,,0.0125185652816,0.0271903540489,0.0181589680695,0.0,0.0,0.0
6201000000,619,6201000000,,0.0142079226556,-0.0177757321509,-0.0385634183817,0.0,0.0,0.0
6211000000,620,6211000000,,0.00812494490512,0.0412610500544,-0.0393489900791,0.0,0.0,0.0
6221000000,621,6221000000,,0.0225659617579,0.00697447262306,-0.0166722803742,0.0,0.0,0.0
6232000000,622,6232000000,,0.00366799565186,-0.0223473501738,0.0232746714559,0.0,0.0,0.0
6241000000,623,6241000000,,0.00626362329385,0.00518307219382,-0.00954088325248,0.0,0.0,0.0
6251000000,624,6251000000,,0.00650110904903,0.0245373912268,-0.0316538945204,0.0,0.0,0.0
6262000000,625,6262000000,,0.0105991802261,-0.0147499417744,-0.0152080994354,0.0,0.0,0.0
6272000000,626,6272000000,,0.0143027929606,-0.0348046341927,-0.0226938015235,0.0,0.0,0.0
6281000000,627,6281000000,,-0.00784356421209,-0.0270502012127,-0.00434585119931,0.0,0.0,0.0
6291000000,628,6291000000,,-0.0127711046777,0.00934027193042,0.004747768114,0.0,0.0,0.0
6301000000,629,6301000000,,-0.0166381198118,0.00205599717589,0.0135017253826,0.0,0.0,0.0
6311000000,630,6311000000,,0.00488306552644,0.029230809065,-0.0135136457208,0.0,0.0,0.0
6321000000,631,6321000000,,0.0013279606749,-0.0250363567064,0.0307143815772,0.0,0.0,0.0
6331000000,632,6331000000,,0.00562493689872,-0.0307892411876,-0.0274555784081,0.0,0.0,0.0
6341000000,633,6341000000,,0.043580629273,-0.0456992574403,-0.0222571517365,0.0,0.0,0.0
6351000000,634,6351000000,,-0.00304903666544,0.0178497154139,0.00652144921342,0.0,0.0,0.0
6364000000,635,6364000000,,-0.00678265364602,-0.00672665816986,-0.044181366149,0.0,0.0,0.0
6388000000,636,6388000000,,0.000856104482892,0.0146865647145,-0.00775887932255,0.0,0.0,0.0
6388000000,637,6388000000,,-0.0138122291183,0.0206801800879,0.0196425593931,0.0,0.0,0.0
6395000000,638,6395000000,,-0.017279596602,-0.0170285912552,-0.0311465275567,0.0,0.0,0.0
6401000000,639,6401000000,,0.014370379717,0.0344418467211,0.00615804611799,0.0,0.0,0.0
6412000000,640,6412000000,,0.0216692863793,-0.0216908180025,0.00923982275231,0.0,0.0,0.0
6421000000,641,6421000000,,-0.0165771740199,0.00145195495366,0.00535735781086,0.0,0.0,0.0
6431000000,642,6431000000,,0.0372469312181,0.0134070235875,-0.0172360071538,0.0,0.0,0.0
6441000000,643,6441000000,,0.0352314061544,-0.0142255994688,-0.0026297381979,0.0,0.0,0.0
6451000000,644,6451000000,,-0.014230186999,0.00591319665064,0.00374259756307,0.0,0.0,0.0
6462000000,645,6462000000,,-0.0124130039419,-0.024790939289,-0.0116406634992,0.0,0.0,0.0
6471000000,646,6471000000,,-0.029741623595,0.00377968275332,0.00868986085253,0.0,0.0,0.0
6481000000,647,6481000000,,0.0169607120657,-0.0138851727563,0.0164065234534,0.0,0.0,0.0
6491000000,648,6491000000,,0.0179293027905,-0.0301499842313,-0.0275167585387,0.0,0.0,0.0
6501000000,649,6501000000,,-0.0130428860816,0.0292001211948,0.0263137795505,0.0,0.0,0.0
6511000000,650,6511000000,,0.0076336835249,-0.00257114457757,-0.0141713015389,0.0,0.0,0.0
6521000000,651,6521000000,,-0.0204720185073,0.0209488956011,-0.027516389267,0.0,0.0,0.0
6531000000,652,6531000000,,0.0489865334625,-0.0363943000671,-0.0204738802618,0.0,0.0,0.0
6541000000,653,6541000000,,-0.00123501464834,0.0186518488017,0.00952361203444,0.0,0.0,0.0
6551000000,654,6551000000,,0.0156915193121,-0.0123151636102,0.0204072832704,0.0,0.0,0.0
6560000000,655,6560000000,,-0.0258634423319,-0.00154902221345,-0.00705077097276,0.0,0.0,0.0
6571000000,656,6571000000,,-0.0129646038201,0.00881337191422,0.0193247610314,0.0,0.0,0.0
6581000000,657,6581000000,,-0.0148116166744,-0.00510089091695,-0.0316627131633,0.0,0.0,0.0
6591000000,658,6591000000,,0.00392813879241,-0.000269120546383,-0.0230099827453,0.0,0.0,0.0
6602000000,659,6602000000,,0.0622480929158,-0.00338015108645,0.0207326977246,0.0,0.0,0.0
6611000000,660,6611000000,,0.00400053573804,-0.0323920455072,0.00212941504725,0.0,0.0,0.0
6621000000,661,6621000000,,-0.00516367224214,0.0205985932792,0.0192806641626,0.0,0.0,0.0
6631000000,662,6631000000,,-0.0271390383504,0.0242148317564,-0.00472992619653,0.0,0.0,0.0
6659000000,664,6659000000,,-0.0113633859021,-0.0267586547405,0.00736695502076,0.0,0.0,0.0
6663000000,665,6663000000,,0.0281829458829,0.0135864152888,0.0456858394361,0.0,0.0,0.0
6675000000,666,6675000000,,0.0456906345235,-0.0288683081057,0.0413489883366,0.0,0.0,0.0
6681000000,667,6681000000,,-0.0189756844948,-0.0219393263802,0.0256294587904,0.0,0.0,0.0
6691000000,668,6691000000,,-0.00962176422895,0.0061922214038,0.02106427602,0.0,0.0,0.0
6702000000,669,6702000000,,-0.0109636383857,-0.0172903734545,0.0217234980298,0.0,0.0,0.0
6714000000,670,6714000000,,-0.0198570541623,0.00391623813232,0.0133672357774,0.0,0.0,0.0
6721000000,671,6721000000,,0.0238404346,-0.0218255620777,-0.00342304218469,0.0,0.0,0.0
6731000000,672,6731000000,,-0.00207972039912,-0.00115875502973,0.0386198517543,0.0,0.0,0.0
6743000000,673,6743000000,,-0.0124006187924,-0.00718495959899,0.032821929232,0.0,0.0,0.0
6752000000,674,6752000000,,-0.00882618878011,0.0174952306361,-0.0253101012008,0.0,0.0,0.0
6762000000,675,6762000000,,0.0145053209178,0.0292287696822,0.0190594868248,0.0,0.0,0.0
6771000000,676,6771000000,,-0.00183897591367,-0.0330393690387,0.0204224443806,0.0,0.0,0.0
6782000000,677,6782000000,,0.0102697430102,0.00187272529927,0.0439581433508,0.0,0.0,0.0
6792000000,678,6792000000,,-0.0134179824233,0.0191314805708,0.0103100283415,0.0,0.0,0.0
6804000000,679,6804000000,,0.0171658677051,0.0227111743423,0.0062527045182,0.0,0.0,0.0
6811000000,680,6811000000,,-0.00958244137299,-0.00120616289683,0.0149765564074,0.0,0.0,0.0
6822000000,681,6822000000,,-0.00988247681014,0.0378380294151,0.0563794468571,0.0,0.0,0.0
6831000000,682,6831000000,,0.021752094352,0.00955114297754,0.0172508758512,0.0,0.0,0.0
6841000000,683,6841000000,,0.0201972090491,0.0148738863715,0.00265730056561,0.0,0.0,0.0
6851000000,684,6851000000,,0.00440972550162,0.0438336476897,0.0146927952406,0.0,0.0,0.0
6862000000,685,6862000000,,0.00276279214443,0.0349287877484,-0.0204118697109,0.0,0.0,0.0
6872000000,686,6872000000,,0.0124931825911,-0.00778967570287,-0.00375737432761,0.0,0.0,0.0
