%time,field.header.seq,field.header.stamp,field.header.frame_id,field.roll,field.pitch,field.jaw,field.roll_dot,field.pitch_dot,field.jaw_dot
41000000,0,41000000,,6.5769932965e-24,-4.75279418391e-23,3.75196879893e-24,0.0,0.0,0.0
80000000,1,80000000,,-1.75097372345e-19,-1.30094869613e-19,-4.31217205988e-24,0.0,0.0,0.0
120000000,2,120000000,,2.63085776099e-19,1.33361056886e-19,-6.5616254972e-24,0.0,0.0,0.0
160000000,3,160000000,,-1.00188083252e-06,3.66281369679e-06,-7.66305902289e-07,0.00206893496215,0.00822099205106,-0.000142848206451
200000000,4,200000000,,-4.16665398006e-06,5.6620833675e-06,-3.47437821802e-06,-0.00461520068347,0.00639555091038,-0.000353256677045
240000000,5,240000000,,1.6134698626e-06,-4.64086588181e-06,-7.23296579963e-06,0.00165593309794,-0.00585284456611,-3.07799964503e-05
280000000,6,280000000,,3.68143645346e-07,-2.77130936865e-07,-8.72711007105e-06,-0.00280924071558,0.0038430748973,-0.000222851464059
320000000,7,320000000,,2.05018250199e-06,2.67255109065e-06,-6.96066808814e-06,0.00222382578067,0.00291611347347,0.000150905980263
360000000,8,360000000,,-6.87949466283e-07,1.64570979067e-09,-4.22775747211e-06,5.6339299892e-10,7.16715098728e-13,1.31753527359e-12
400000000,9,400000000,,-9.78000798568e-07,-1.21198286251e-06,-3.21348397847e-06,-9.15013398384e-10,-1.20719911845e-09,5.42103029133e-11
440000000,10,440000000,,-5.01792065677e-08,-1.06825692736e-09,-2.1734836082e-06,2.73781219917e-10,3.72500391643e-10,5.58297115136e-12
480000000,11,480000000,,-4.7617778165e-08,1.51229295753e-09,-2.14995543502e-06,0.0,0.0,0.0
520000000,12,520000000,,-1.12911038741e-06,-5.15560145686e-07,-2.15398085857e-06,-9.25397128718e-13,-6.29774064929e-13,-4.18481286272e-15
561000000,13,561000000,,-2.89602280645e-06,-1.67904852333e-06,-2.16887724491e-06,-1.74557503868e-12,-7.08068369562e-13,-1.75370785602e-14
600000000,14,600000000,,-4.56212501376e-06,-2.7542873795e-06,-2.19010121327e-06,-1.12383431554e-12,-8.04339071476e-13,-1.83607300099e-14
640000000,15,640000000,,-6.85042959958e-06,-3.82752887162e-06,-2.23096617447e-06,-1.84215663557e-12,-1.01341840735e-12,-3.92634601047e-14
680000000,16,680000000,,-8.87990972842e-06,-4.93235438626e-06,-2.28036697081e-06,-1.90762336483e-12,-6.64697788998e-13,-4.78423995299e-14
720000000,17,720000000,,-1.09040311145e-05,-5.97350344833e-06,-2.34237381846e-06,-1.60992356599e-12,-1.01142564376e-12,-5.8146419808e-14
760000000,18,760000000,,-1.30939843075e-05,-2.87511829811e-05,-2.13497492041e-06,-2.68875789688e-11,-6.33977981224e-10,6.91254779112e-12
800000000,19,800000000,,-1.49047100422e-05,-9.45185529417e-05,-1.41562986755e-06,-5.00898968312e-05,-0.00228479621001,2.39766632149e-05
840000000,20,840000000,,-1.66725239978e-05,-0.000206684024306,-2.42889740321e-07,-4.16493639932e-05,-0.00310412980616,3.3994048863e-05
880000000,21,880000000,,-1.83318461495e-05,-0.000331563642249,1.28905981001e-06,-3.08325834339e-05,-0.00311101577245,4.21415898018e-05
920000000,22,920000000,,-1.91904855456e-05,-0.000446372316219,3.11128405883e-06,-1.87576315511e-05,-0.00252546393313,4.85306009068e-05
963000000,23,963000000,,-1.94950298464e-05,-0.00052532373229,4.89420517624e-06,1.98119710741e-12,-1.98843297383e-09,5.29720121933e-11
1000000000,24,1000000000,,-1.89764941751e-05,-0.000591311953031,7.39166944186e-06,7.61688455364e-12,-4.2399589395e-10,2.65541772598e-11
1040000000,25,1040000000,,-1.79411490535e-05,-0.000617494166363,9.76411502052e-06,8.75016205326e-12,-1.10496785333e-10,1.43881677406e-11
1080000000,26,1080000000,,-1.63816021086e-05,-0.00063010759186,1.23127174447e-05,3.78640434978e-12,-1.60375514952e-11,5.97548269546e-12
1122000000,27,1122000000,,-1.44029481817e-05,-0.000632252078503,1.49618826981e-05,2.99922022981e-12,3.23211791532e-12,3.39164417038e-12
1179000000,28,1179000000,,-1.08682052087e-05,-0.00061775156064,1.88505000551e-05,1.56058048428e-11,1.03313489708e-10,1.56979394761e-11
1203000000,29,1203000000,,-9.86664326774e-06,-0.000610493298154,1.98109719349e-05,2.18253505546e-11,1.69837199859e-10,2.02433694807e-11
1243000000,30,1243000000,,-5.75345575271e-06,-0.000571496551856,2.32968905038e-05,4.25330673459e-11,4.8043519163e-10,3.46808380625e-11
1280000000,31,1280000000,,-2.35742709265e-06,-0.000529982615262,2.58546842815e-05,6.92108315103e-11,8.70781113882e-10,4.73250327815e-11
1320000000,32,1320000000,,1.93889877664e-06,-0.000471075909445,2.87342209049e-05,9.02471569697e-11,1.33989608297e-09,5.93718199604e-11
1360000000,33,1360000000,,6.68723350827e-06,-0.000396423361963,3.16485311487e-05,0.000129878942971,0.00207719393075,7.32406770112e-05
1400000000,34,1400000000,,1.24823918668e-05,-0.000298847560771,3.4591594158e-05,0.000143838711665,0.00257001747377,7.38505623303e-05
1440000000,35,1440000000,,1.85097524081e-05,-0.000186684061191,3.75584604626e-05,0.000152737513417,0.0029143106658,7.43764976505e-05
1480000000,36,1480000000,,2.43343220063e-05,-6.87345236656e-05,4.05395767302e-05,0.000135042602778,0.00293642817996,7.46192235965e-05
1520000000,37,1520000000,,2.94993860734e-05,4.85846539959e-05,4.35263136751e-05,0.000116019626148,0.00279420986772,7.45679717511e-05
1560000000,38,1560000000,,3.34944452334e-05,0.000155440779054,4.65049961349e-05,8.91873787623e-05,0.00260609621182,7.43881828384e-05
1600000000,39,1600000000,,3.66068343283e-05,0.000256061786786,4.95481326652e-05,5.76325983275e-05,0.00224253209308,7.40184113965e-05
1640000000,40,1640000000,,3.83369842893e-05,0.000338933547027,5.24284914718e-05,3.48790526914e-05,0.00201347982511,7.37281952752e-05
1680000000,41,1680000000,,3.91836147173e-05,0.000412257591961,5.53668760404e-05,4.02688039164e-12,1.36818545382e-09,6.05956951283e-11
1720000000,42,1720000000,,3.89762426494e-05,0.00046776983072,5.82857683185e-05,-5.82327805768e-12,7.73931196907e-10,4.53135758083e-11
1760000000,43,1760000000,,4.02024925279e-05,0.000510923855472,6.11853392911e-05,3.63514426893e-11,4.5615430877e-10,3.46425561848e-11
1800000000,44,1800000000,,4.63644428237e-05,0.00054582557641,6.40721482341e-05,8.77191930204e-11,3.39900024793e-10,3.02655227269e-11
1840000000,45,1840000000,,5.57821113034e-05,0.00057635770645,6.69514338369e-05,9.68727667527e-11,2.81435874605e-10,2.7812779857e-11
1880000000,46,1880000000,,6.60259247525e-05,0.000605567125604,6.98305666447e-05,9.78278638653e-11,2.5999000175e-10,2.68940720388e-11
1920000000,47,1920000000,,7.62666240917e-05,0.000632015347946,7.27064834791e-05,8.16118284064e-11,2.00147398655e-10,2.36743385312e-11
1960000000,48,1960000000,,8.58991261339e-05,0.000654759933241,7.55796427256e-05,6.82205472669e-11,1.50209525374e-10,2.0711495019e-11
2000000000,49,2000000000,,9.48406086536e-05,0.00067304179538,7.84465009929e-05,4.6351554539e-11,8.58769930168e-11,1.58949051837e-11
2040000000,50,2040000000,,0.000102711550426,0.000685608421918,8.13081205706e-05,2.89879717452e-11,3.71652188191e-11,1.1115098425e-11
2080000000,51,2080000000,,0.000102647631138,0.000691429071594,8.40756256366e-05,-2.13291866807e-11,7.05029611081e-12,7.25058207918e-12
2122000000,52,2122000000,,8.30890567158e-05,0.000690113636665,8.66669142852e-05,-2.29634880555e-10,-5.24369853094e-11,2.15445786211e-11
2160000000,53,2160000000,,5.062258424e-05,0.00067944516195,8.90930677997e-05,-4.61850724331e-10,-1.91857932319e-10,2.94429029768e-11
2200000000,54,2200000000,,1.08502208604e-05,0.000658566597849,9.13782932912e-05,-6.74351796626e-10,-4.04529854059e-10,3.48177701948e-11
2240000000,55,2240000000,,-3.42851089954e-05,0.000627961591817,9.35380667215e-05,-8.50008841091e-10,-6.85669576672e-10,3.89323434602e-11
2280000000,56,2280000000,,-8.2008424215e-05,0.000584733788855,9.55947543844e-05,-1.08299746948e-09,-1.02802455437e-09,4.34137933936e-11
2320000000,57,2320000000,,-0.000132727480377,0.000530865974724,9.75631701294e-05,-1.25916854721e-09,-1.51500478829e-09,4.79724246438e-11
2360000000,58,2360000000,,-0.000184914606507,0.000464333134005,9.94601505226e-05,-0.00134596251883,-0.00174662726931,4.66150522698e-05
2400000000,59,2400000000,,-0.000241853485932,0.000381856225431,0.000101315192296,-0.00145972170867,-0.00230722664855,4.60891169496e-05
2442000000,60,2442000000,,-0.000290795287583,0.000301334570395,0.000102824975329,-0.00146398751531,-0.0024309551809,4.52510175819e-05
2480000000,61,2480000000,,-0.000352412142092,0.000183743002708,0.00010491967987,-0.00114624586422,-0.00252345157787,4.38759598183e-05
2520000000,62,2520000000,,-0.000392254121834,8.68535717018e-05,0.000106646126369,-0.000831274257507,-0.00232361466624,4.25150356023e-05
2560000000,63,2560000000,,-0.000417088158429,-4.231681487e-06,0.000108321997686,-0.000436163070844,-0.00218735542148,4.12588560721e-05
2600000000,64,2600000000,,-0.000427141814725,-8.46630136948e-05,0.000109944172436,-6.07778619099e-11,-1.78197867573e-09,3.77582271005e-11
2640000000,65,2640000000,,-0.000421871576691,-0.00015143523342,0.000111503082735,2.3026099083e-10,-1.07874453814e-09,2.8223701154e-11
2680000000,66,2680000000,,-0.000403730897233,-0.000204929237952,0.000113001660793,4.12430978258e-10,-9.02557861782e-10,2.60895281073e-11
2720000000,67,2720000000,,-0.000375045347027,-0.000257008126937,0.000114474831207,6.58590126879e-10,-1.01362995775e-09,2.84389768679e-11
2760000000,68,2760000000,,-0.000336076220265,-0.000309146242216,0.000115930553875,9.39277100542e-10,-1.17025067414e-09,3.13994732992e-11
2800000000,69,2800000000,,-0.000287069706246,-0.000364616047591,0.000117374416732,1.31853383767e-09,-1.31582700291e-09,3.4561735418e-11
2840000000,70,2840000000,,-0.000227445023484,-0.000419115705881,0.00011879876547,0.00159645010717,-0.00139020883944,3.54309304385e-05
2880000000,71,2880000000,,-0.000151308486238,-0.000478694855701,0.000120252603665,0.00208668923005,-0.0014441171661,3.53974064637e-05
2920000000,72,2920000000,,-6.56406409689e-05,-0.000534248072654,0.000121627963381,0.00226329546422,-0.00137513957452,3.51130474883e-05
2960000000,73,2960000000,,2.77187245956e-05,-0.000582910899539,0.000123019824969,0.00233943085186,-0.00102051952854,3.44400432368e-05
3000000000,74,3000000000,,0.000119652824651,-0.000617025187239,0.000124418758787,0.00218424433842,-0.000638507772237,3.39056787197e-05
3040000000,75,3040000000,,0.00020427077834,-0.000633089104667,0.000125761260279,0.00199690856971,-0.00018842513964,3.32303934556e-05
3080000000,76,3080000000,,0.00027605026844,-0.000632193055935,0.00012704844994,1.48840695324e-09,1.8985291117e-10,2.84090095198e-11
3120000000,77,3120000000,,0.000334674055921,-0.000615633965936,0.000128356943605,8.68571548018e-10,3.94054788799e-10,2.17812799047e-11
3160000000,78,3160000000,,0.000379804434488,-0.000587211863603,0.000129581370857,7.47891415465e-10,5.97279115055e-10,2.15799079994e-11
3200000000,79,3200000000,,0.000421818171162,-0.000547703821212,0.000130827262183,7.66452346035e-10,8.57691306866e-10,2.36284308092e-11
3240000000,80,3240000000,,0.000461649382487,-0.000496074615512,0.000132077679154,8.49344372611e-10,1.22029497618e-09,2.69435307398e-11
3280000000,81,3280000000,,0.000499752699398,-0.000434202083852,0.000133329464006,8.88771056751e-10,1.66675007129e-09,3.05124502054e-11
3320000000,82,3320000000,,0.000535032595508,-0.000359623896657,0.000134587622597,0.000846544513479,0.00195154151879,3.14057360811e-05
3360000000,83,3360000000,,0.00056846026564,-0.000269604875939,0.000135864480399,0.000789956306107,0.00249846163206,3.2260442822e-05
3401000000,84,3401000000,,0.000596728059463,-0.000165097007994,0.000137157127028,0.000589188886806,0.00260305521078,3.21417828673e-05
3440000000,85,3440000000,,0.000613306590822,-5.95016790612e-05,0.000138434930705,0.000251001561992,0.00264837336726,3.17661833833e-05
3480000000,86,3480000000,,0.000615006196313,4.36687441834e-05,0.000139719923027,-0.000156614070875,0.00235576182604,3.08743146888e-05
3520000000,87,3520000000,,0.000600901839789,0.000131582433823,0.000140911128256,-0.000537564337719,0.00211735279299,3.01466043311e-05
3560000000,88,3560000000,,0.000570203468669,0.000209303587326,0.000142126227729,-9.23936760433e-10,1.69539082773e-09,2.87630266826e-11
3602000000,89,3602000000,,0.000532649341039,0.000263845315203,0.000143156124977,-9.47680822705e-10,1.02747377273e-09,2.31097918579e-11
3640000000,90,3640000000,,0.000476370216347,0.000309794559143,0.000144326506415,-1.27897714641e-09,8.60656879098e-10,2.36943849957e-11
3680000000,91,3680000000,,0.000411705928855,0.000348300003679,0.000145405923831,-0.00180393294431,0.000926883134525,2.6872548915e-05
3720000000,92,3720000000,,0.000324983586324,0.000388510728953,0.000146500067785,-0.00228104018606,0.000990623608232,2.73166497209e-05
3760000000,93,3760000000,,0.000227620170335,0.000426283833804,0.00014758972975,-0.00265517877415,0.00089135079179,2.71745047939e-05
3800000000,94,3800000000,,0.000154151173774,0.000448922219221,0.000148321516463,-0.00275139976293,0.000787827826571,2.70142136287e-05
3840000000,95,3840000000,,9.79756623565e-06,0.00048179118312,0.000149734230945,-0.00271145813167,0.000440554198576,2.62600442511e-05
3880000000,96,3880000000,,-9.43225531955e-05,0.000493029248901,0.000150777937961,-0.00247208448127,0.000138420320582,2.58953496086e-05
3920000000,97,3920000000,,-0.000189918617252,0.000492497289088,0.000151803047629,-0.00228014192544,-0.000147816550452,2.54424903687e-05
3960000000,98,3960000000,,-0.000274055812042,0.000480543763842,0.000152816384798,-0.00195701420307,-0.000427891296567,2.52039899351e-05
4000000000,99,4000000000,,-0.000347410532413,0.000459174363641,0.000153817221872,-1.50258983034e-09,-5.65764213256e-10,2.22894445956e-11
4040000000,100,4040000000,,-0.000402986945119,0.000431051681517,0.000154795183334,-8.17070799908e-10,-5.32381916329e-10,1.678878217e-11
4080000000,101,4080000000,,-0.000446052290499,0.000400493270718,0.000155721980263,-6.16042161727e-10,-5.00362695721e-10,1.41004178819e-11
4120000000,102,4120000000,,-0.000483249255922,0.000367330416339,0.000156590758706,-5.69568781028e-10,-5.38874334044e-10,1.31876159298e-11
4160000000,103,4160000000,,-0.000519168272149,0.000330911338096,0.000157412767294,-5.61608315408e-10,-6.61084631481e-10,1.32405935174e-11
4200000000,104,4200000000,,-0.000552281970158,0.00028665579157,0.000158201699378,-5.68482261265e-10,-8.27305668416e-10,1.36288419786e-11
4240000000,105,4240000000,,-0.000583031389397,0.000234431150602,0.000158976996318,-5.15345377483e-10,-1.08123698883e-09,1.4387895389e-11
4280000000,106,4280000000,,-0.000606580695603,0.000176786066731,0.000159687566338,-4.45226550072e-10,-1.2252701076e-09,1.44316104206e-11
4320000000,107,4320000000,,-0.000625208660495,0.000108859196189,0.000160411043908,-3.11581427326e-10,-1.60190583021e-09,1.5736401765e-11
4360000000,108,4360000000,,-0.00063524057623,3.758638195e-05,0.000161078278325,-1.34651498285e-10,-1.72617409255e-09,1.56141297808e-11
4400000000,109,4400000000,,-0.00063604436582,-4.18516756326e-05,0.000161743926583,0.000120767967019,-0.00206245761365,1.63936310855e-05
4440000000,110,4440000000,,-0.000625502842013,-0.000132307584863,0.000162413009093,0.000410795473726,-0.0022838562727,1.64875145856e-05
4480000000,111,4480000000,,-0.000602029787842,-0.000226565156481,0.000163070610142,0.000750813516788,-0.00228741532192,1.60410709213e-05
4520000000,112,4520000000,,-0.00056500104256,-0.000310843810439,0.000163693417562,0.00108128401916,-0.00200149905868,1.5219137822e-05
4560000000,113,4560000000,,-0.000512595055625,-0.0003851368092,0.000164312368724,0.00147993175779,-0.00157777487766,1.49463021444e-05
4600000000,114,4600000000,,-0.000447837257525,-0.000437301408965,0.000164894605405,0.00178307108581,-0.00114694540389,1.48827448356e-05
4640000000,115,4640000000,,-0.00036976163392,-0.000473304477055,0.000165488119819,0.00206012651324,-0.000658537785057,1.46302463691e-05
4680000000,116,4680000000,,-0.000285140995402,-0.000491014623549,0.000166072160937,0.0021518652793,-0.000253266451182,1.45848134707e-05
4720000000,117,4720000000,,-0.000196582768694,-0.000493444502354,0.000166649828316,0.00225566816516,0.000123267673189,1.43904981087e-05
4760000000,118,4760000000,,-0.000106807136035,-0.000481349241454,0.000167227510246,0.00221267342567,0.000432301050751,1.43816751006e-05
4800000000,119,4800000000,,-1.83434094652e-05,-0.000458916823845,0.000167799938936,0.00215558917262,0.000665849074721,1.42472626976e-05
4840000000,120,4840000000,,6.49730136502e-05,-0.000427403836511,0.000168371334439,0.00202821823768,0.000871005642693,1.42299595609e-05
4880000000,121,4880000000,,0.00014363732771,-0.00038999519893,0.000168938524439,0.00186525017489,0.00100649264641,1.41529253597e-05
4920000000,122,4920000000,,0.000214431682252,-0.000346810062183,0.000169505510712,0.00169617007487,0.00111133174505,1.40846168506e-05
4960000000,123,4960000000,,0.000278197287116,-0.000301098887576,0.000170068160514,1.37603684003e-09,1.1083153284e-09,1.31818002694e-11
5000000000,124,5000000000,,0.000327529123751,-0.000257020583376,0.000170612795046,8.89806173188e-10,8.437480159e-10,1.0506956416e-11
5040000000,125,5040000000,,0.000369405781385,-0.000212328188354,0.000171147461515,7.70302099884e-10,9.2424040643e-10,1.04051264133e-11
5080000000,126,5080000000,,0.000409396772739,-0.000162187643582,0.000171684034285,8.19426027032e-10,1.06475073203e-09,1.09892251549e-11
5120000000,127,5120000000,,0.000449104176369,-0.000105650135083,0.00017222466704,8.8366702844e-10,1.36287303665e-09,1.22744939213e-11
5167000000,128,5167000000,,0.000487766112201,-4.44773868367e-05,0.000172755375388,9.14034736788e-10,1.51834678164e-09,1.28081772618e-11
5200000000,129,5200000000,,0.000525693641976,2.58299824054e-05,0.000173315420398,0.000915352255106,0.00181021343451,1.37472079587e-05
5241000000,130,5241000000,,0.000564309884794,0.000104533137346,0.000173867825652,0.000914037926123,0.00202614767477,1.41230684676e-05
5280000000,131,5280000000,,0.000597555947024,0.000189410711755,0.000174441127456,0.000723421690054,0.00208308734,1.37530187203e-05
5320000000,132,5320000000,,0.000620491977315,0.000268746371148,0.000174977671122,3.96252974877e-10,1.8458864437e-09,1.26951314044e-11
5360000000,133,5360000000,,0.000628348032478,0.000334474025294,0.000175469584065,-4.47437486367e-12,9.39753275198e-10,7.88023032244e-12
5400000000,134,5400000000,,0.000621055485681,0.000383024278563,0.000175910943653,-1.99809988e-10,6.6883043548e-10,6.36012987068e-12
5440000000,135,5440000000,,0.000601392879616,0.000425583304605,0.000176332425326,-3.87343407349e-10,5.72187075498e-10,6.02231285673e-12
5480000000,136,5480000000,,0.000569230818655,0.000463053642306,0.000176736037247,-6.11668604655e-10,5.91319160304e-10,6.52115817942e-12
5520000000,137,5520000000,,0.000524616683833,0.000496671767905,0.000177126610652,-9.64645141543e-10,5.78504522064e-10,7.17708574863e-12
5562000000,138,5562000000,,0.000462499563582,0.000527164433151,0.00017753195425,-1.39581657344e-09,5.45832379295e-10,8.00830408931e-12
5600000000,139,5600000000,,0.000395647686673,0.000547199917492,0.000177866459126,-0.00196116464213,0.000459275499452,8.88260092324e-06
5640000000,140,5640000000,,0.000303782144329,0.000563645851798,0.000178238420631,-0.0024527371861,0.000291324307909,9.11211100174e-06
5680000000,141,5680000000,,0.000202145252842,0.000569825409912,0.000178584552486,-0.00271533988416,2.18974328163e-05,8.88847262104e-06
5720000000,142,5720000000,,8.75620025909e-05,0.000562824483495,0.000178951537237,-0.00276157190092,-0.000341703125741,8.49494063004e-06
5760000000,143,5760000000,,-2.09599966183e-05,0.00054226157954,0.000179293900146,-0.00258179311641,-0.000692561094183,8.64795038069e-06
5800000000,144,5800000000,,-0.000119175747386,0.000507508288138,0.000179643087904,-0.00236875447445,-0.00099936418701,8.73959925229e-06
5842000000,145,5842000000,,-0.000180086004548,0.000477887981106,0.000179881928489,-0.00213503348641,-0.0012130032992,8.95248467714e-06
5884000000,146,5884000000,,-0.000287635688437,0.000400948454626,0.000180392933544,-0.00167848542333,-0.00141956808511,8.93718970474e-06
5920000000,147,5920000000,,-0.000342106912285,0.000343677616911,0.000180725270184,-0.00135590264108,-0.00170107185841,9.40601512411e-06
5960000000,148,5960000000,,-0.000389334716601,0.000276111764833,0.000181091425475,-0.00106667971704,-0.0017356723547,9.38934044825e-06
6000000000,149,6000000000,,-0.00042558889254,0.000202568480745,0.00018147706578,-7.12317760332e-10,-1.8175057015e-09,9.34281124687e-12
6040000000,150,6040000000,,-0.000446436053608,0.000136150425533,0.000181832176168,-3.0155908326e-10,-1.31818489457e-09,7.10919647803e-12
6080000000,151,6080000000,,-0.000456287467387,7.01020981069e-05,0.000182178016985,-1.34867034207e-10,-1.45675471686e-09,7.40076316202e-12
6120000000,152,6120000000,,-0.000460138136987,2.52285872193e-07,0.000182526680874,-2.33842632757e-11,-1.69916170023e-09,8.11507111509e-12
6160000000,153,6160000000,,-0.000458472059108,-7.88078614278e-05,0.000182885472896,0.00010956528422,-0.00203669909388,8.9532295533e-06
6200000000,154,6200000000,,-0.00045100148418,-0.000168553975527,0.000183256735909,0.000264070258709,-0.00244367867708,9.51832589635e-06
6240000000,155,6240000000,,-0.000436628324678,-0.000268995325314,0.000183640135219,0.000444391858764,-0.00243040616624,9.4554379757e-06
6281000000,156,6281000000,,-0.000414481590269,-0.000367116212146,0.000184025353519,0.000614639546257,-0.00228538434021,9.23441166378e-06
6320000000,157,6320000000,,-0.000386863335734,-0.00044801319018,0.000184374235687,0.000787673110608,-0.0018456679536,8.70203530212e-06
6360000000,158,6360000000,,-0.000352455273969,-0.000514358573128,0.00018471488147,7.99183996758e-10,-1.25867283263e-09,7.18433689276e-12
6400000000,159,6400000000,,-0.000315515178954,-0.000557155464776,0.000185018434422,6.03845640157e-10,-5.20783138835e-10,4.57645076349e-12
6440000000,160,6440000000,,-0.000275199301541,-0.000584079360124,0.000185302109458,6.62811860952e-10,-3.32175231765e-10,4.23958741377e-12
6480000000,161,6480000000,,-0.00022767262999,-0.000601599109359,0.000185577388038,8.3521811689e-10,-2.32639449371e-10,4.50301818403e-12
6520000000,162,6520000000,,-0.000172725776793,-0.00061317771906,0.000185852579307,1.11260867186e-09,-1.52163198708e-10,5.08358502863e-12
6560000000,163,6560000000,,-0.000109242806502,-0.000617550511379,0.000186122619198,1.38407962869e-09,-2.51920619782e-11,5.61109448835e-12
6600000000,164,6600000000,,-3.82345388061e-05,-0.000614875403699,0.000186391291209,1.80850989739e-09,1.50334661386e-10,6.31744743324e-12
6640000000,165,6640000000,,4.07631268899e-05,-0.000604073982686,0.000186656528967,0.00202418584377,0.000388289539842,6.62551747155e-06
6680000000,166,6680000000,,0.000131593769765,-0.000582882727031,0.000186931531061,0.00245219795033,0.000654686067719,7.04690501152e-06
6720000000,167,6720000000,,0.000230478748563,-0.000550658151042,0.000187218247447,0.00247069913894,0.000942915852647,7.27829410607e-06
6760000000,168,6760000000,,0.000327093875967,-0.00050883955555,0.000187504949281,0.00230954540893,0.00114083883818,7.11372013029e-06
6800000000,169,6800000000,,0.000411130866269,-0.000458384223748,0.000187788318726,0.00191700819414,0.00135177036282,7.01647923051e-06
6840000000,170,6840000000,,0.000480554939713,-0.000400730525143,0.000188071629964,0.00143479229882,0.00144629727583,6.73003751217e-06
6880000000,171,6880000000,,0.000525812036358,-0.000341214763466,0.000188333040569,8.36435753993e-10,1.41141998089e-09,5.93201009147e-12
6920000000,172,6920000000,,0.000547828094568,-0.000283902540104,0.000188558362424,2.39209263508e-10,1.10836284595e-09,4.12303568023e-12
6960000000,173,6960000000,,0.000552979530767,-0.000222619448323,0.000188774953131,-3.01310330852e-11,1.23166210564e-09,4.16740296785e-12
7000000000,174,7000000000,,0.000545783434063,-0.000156404072186,0.000188990976312,-2.72511790911e-10,1.60932955851e-09,4.99062857012e-12
7040000000,175,7040000000,,0.000528494361788,-8.11012141639e-05,0.000189215061255,-0.000565101334359,0.00193380576093,5.606979812e-06
7081000000,176,7081000000,,0.000502406561282,-1.08911115149e-06,0.000189436395885,-0.000837513885926,0.00237302388996,6.31419470665e-06
7120000000,177,7120000000,,0.00045811891323,0.000104612001451,0.00018971087411,-0.00117672747001,0.00239179842174,6.16619763605e-06
7160000000,178,7160000000,,0.000406613893574,0.000199699381483,0.0001899516501,-0.00139741040766,0.00233322870918,5.88781358601e-06
7200000000,179,7200000000,,0.000345365551766,0.000285710266326,0.000190173843293,-0.00162183737848,0.00198010471649,5.28034206582e-06
7240000000,180,7240000000,,0.000278603023617,0.000358376390068,0.000190376187675,-0.00173460342921,0.00163160683587,4.81658025819e-06
7280000000,181,7280000000,,0.000208301164093,0.000412671972299,0.000190553022549,-0.00182563613635,0.00119893020019,4.3381278374e-06
7320000000,182,7320000000,,0.000133207722683,0.000453251064755,0.0001907255064,-0.00184665271081,0.000784267787822,3.9504252527e-06
7360000000,183,7360000000,,6.44482643111e-05,0.000474972970551,0.000190868013306,-1.66720626193e-09,4.03848898767e-10,3.42612136578e-12
7401000000,184,7401000000,,-1.38957566378e-05,0.000486692006234,0.000191026425455,-1.48205669959e-09,8.58583482088e-11,2.84299276829e-12
7442000000,185,7442000000,,-6.87197607476e-05,0.000482248316985,0.000191129249288,-9.42037781115e-10,-1.71205369326e-10,1.79468972236e-12
7481000000,186,7481000000,,-0.000129572305013,0.00046842332813,0.00019123867969,-1.27123789273e-09,-3.03733704854e-10,2.16906332305e-12
7520000000,187,7520000000,,-0.00019186361169,0.000451063941,0.00019134413742,-1.52960077937e-09,-4.7580328566e-10,2.58703583729e-12
7560000000,188,7560000000,,-0.000265028356807,0.000427775550634,0.00019145157421,-0.00190548622049,-0.000630080292467,2.49050322054e-06
7600000000,189,7600000000,,-0.00034374432289,0.000398355216021,0.000191548097064,-0.00222521484829,-0.00087245128816,2.64663981397e-06
7640000000,190,7640000000,,-0.000435321795521,0.000361807411537,0.000191650673514,-0.00233208551072,-0.000999886193313,2.50195694207e-06
7680000000,191,7680000000,,-0.000524785427842,0.000317346479278,0.000191747327335,-0.00196967017837,-0.00109620322473,2.08174606087e-06
7720000000,192,7720000000,,-0.000594828336034,0.000273748650216,0.000191821702174,-1.37871514205e-09,-1.03030550758e-09,1.54428336438e-12
7760000000,193,7760000000,,-0.000640918384306,0.000230675883358,0.000191871629795,-4.91707952133e-10,-6.08954886516e-10,3.17442198829e-13
7800000000,194,7800000000,,-0.000663242477458,0.000192011997569,0.000191884362721,-1.87302270915e-10,-5.39284894518e-10,1.21545717826e-13
7840000000,195,7840000000,,-0.000671346322633,0.000149582047015,0.000191892540897,-5.01574302925e-11,-5.87148552e-10,8.06467861784e-14
7880000000,196,7880000000,,-0.000670118664857,0.000102587975562,0.000191901359358,9.86946843695e-11,-8.13130784927e-10,1.9954593262e-13
7920000000,197,7920000000,,-0.000658587261569,4.97750115755e-05,0.000191910832655,2.93397667273e-10,-9.49379908022e-10,1.23015421634e-13
7960000000,198,7960000000,,-0.000636182609014,-7.31399359211e-06,0.000191905972315,5.86594328666e-10,-1.21575916001e-09,-3.72114285999e-13
8000000000,199,8000000000,,-0.000600787403528,-6.59730358166e-05,0.000191868035472,9.4447882848e-10,-1.32537458786e-09,-1.22508318594e-12
8040000000,200,8040000000,,-0.000552064389922,-0.000127455597976,0.000191803148482,0.00140266760718,-0.00156364659779,-1.97970030058e-06
8080000000,201,8080000000,,-0.000489059602842,-0.000189284968656,0.000191732367966,0.00188777095173,-0.00171658559702,-2.08461779039e-06
8120000000,202,8120000000,,-0.000399437645683,-0.000263816385996,0.000191632381757,0.00226196157746,-0.00166369637009,-2.74131593869e-06
8160000000,203,8160000000,,-0.000306137575535,-0.00032352618291,0.000191502840607,0.00244444515556,-0.00143311347347,-3.40648739439e-06
8200000000,204,8200000000,,-0.000204836032935,-0.000374781840947,0.00019135446928,0.00260999985039,-0.00108900794294,-4.08888217862e-06
8240000000,205,8240000000,,-9.97727329377e-05,-0.000410782085964,0.000191174302017,0.00248169992119,-0.000698134826962,-4.66080473416e-06
8280000000,206,8280000000,,-2.00907629733e-06,-0.000430350512033,0.000190975173609,0.0023996240925,-0.00027929872158,-5.20084586242e-06
8320000000,207,8320000000,,8.68149436428e-05,-0.000434259796748,0.000190767590539,0.00217611039989,6.20081118541e-05,-5.40437440577e-06
8360000000,208,8360000000,,0.000170542101841,-0.000425468868343,0.000190543680219,0.00198467285372,0.000360271602403,-5.72182761971e-06
8400000000,209,8400000000,,0.00024398585083,-0.000405626604334,0.000190312464838,1.58043067522e-09,5.66414193326e-10,-5.33542307557e-12
8440000000,210,8440000000,,0.000304627901642,-0.000378646422178,0.000190062899492,9.34182065038e-10,5.37706323911e-10,-4.87328146587e-12
8480000000,211,8480000000,,0.000351146009052,-0.000345835345797,0.000189794896869,8.07248823342e-10,6.48232134637e-10,-4.84401537978e-12
8520000000,212,8520000000,,0.000395719398512,-0.000306786037982,0.000189526559552,8.4036111403e-10,8.24678103584e-10,-5.10356123681e-12
8560000000,213,8560000000,,0.000440112431534,-0.000259443069808,0.000189265047084,9.43568889689e-10,1.05612185664e-09,-5.52043957422e-12
8600000000,214,8600000000,,0.000484741904074,-0.000205634190934,0.000189005106222,9.94744731031e-10,1.33083410958e-09,-5.85217117821e-12
8640000000,215,8640000000,,0.000526705523953,-0.000145526559209,0.000188755046111,1.04249797683e-09,1.52917611906e-09,-6.17072278691e-12
8682000000,216,8682000000,,0.000566438829992,-8.10874844319e-05,0.000188514342881,0.000995078124106,0.00180473015644,-6.24118001724e-06
8720000000,217,8720000000,,0.000609644688666,3.6393814753e-06,0.000188257879927,0.000985531602055,0.00207322370261,-5.75206831854e-06
8760000000,218,8760000000,,0.000645416148473,9.14998454391e-05,0.000188037200132,0.000748357560951,0.00216870335862,-5.61971319257e-06
8800000000,219,8800000000,,0.000668278720696,0.000173481312231,0.000187804093002,3.77583381228e-10,1.9052375233e-09,-5.91073977957e-12
8840000000,220,8840000000,,0.000673103437293,0.000238740103669,0.000187529352843,-5.68410318813e-11,1.11754683285e-09,-5.34516918574e-12
8880000000,221,8880000000,,0.000661989324726,0.000292537995847,0.00018723210087,-3.08053083042e-10,8.42451775007e-10,-5.07875555847e-12
8920000000,222,8920000000,,0.000636860495433,0.000341606442817,0.000186929610209,-5.74636893624e-10,8.3581214172e-10,-5.45188720558e-12
8960000000,223,8960000000,,0.000597326201387,0.000387088366551,0.000186623932677,-9.17807108092e-10,8.9042784257e-10,-6.12866658464e-12
9000000000,224,9000000000,,0.000543933943845,0.000430662126746,0.000186318429769,-1.42823675109e-09,9.30967303248e-10,-7.21499422707e-12
9040000000,225,9040000000,,0.000474966480397,0.000469057529699,0.000186003322597,-0.0018794820644,0.000932844995987,-7.85379415902e-06
9080000000,226,9080000000,,0.000385055667721,0.000506203796249,0.000185702141607,-0.00251997914165,0.000862807617523,-7.48183310861e-06
9120000000,227,9120000000,,0.000276416976703,0.000537374638952,0.000185407770914,-0.00277616572566,0.000643027364276,-7.53944368626e-06
9161000000,228,9161000000,,0.00016636075452,0.000555161619559,0.000185113516636,-0.00294466968626,0.000301269203192,-7.91760885477e-06
9200000000,229,9200000000,,4.47693673777e-05,0.000558530038688,0.000184778269613,-0.0028179208748,-0.000121223747556,-8.1763982962e-06
9240000000,230,9240000000,,-6.67654021527e-05,0.000545345305,0.000184448523214,-0.00264908163808,-0.000499395944644,-8.39773929329e-06
9280000000,231,9280000000,,-0.000166715530213,0.000516979838721,0.000184115560842,-0.00237674219534,-0.000864700938109,-8.41159817355e-06
9320000000,232,9320000000,,-0.000256636616541,0.000476797722513,0.000183780910447,-0.00206096819602,-0.00114325177856,-8.36645631352e-06
9360000000,233,9360000000,,-0.000334108219249,0.000423818186391,0.000183442374691,-0.00175934762228,-0.00135721138213,-8.34377169667e-06
9400000000,234,9400000000,,-0.000395912560634,0.000367793109035,0.000183119875146,-0.0013992813183,-0.00153545173816,-8.20774130261e-06
9440000000,235,9440000000,,-0.000445651327027,0.000304235814838,0.000182792209671,-1.07548503436e-09,-1.53158996596e-09,-7.9679015122e-12
9482000000,236,9482000000,,-0.000477810011944,0.000247607997153,0.000182422314538,-5.43036504652e-10,-1.17129339561e-09,-8.13262998611e-12
9520000000,237,9520000000,,-0.000501333503053,0.000189501675777,0.000181976181921,-3.60135976596e-10,-1.01567054767e-09,-8.44078626439e-12
9560000000,238,9560000000,,-0.000517995795235,0.000129693537019,0.000181502764462,-2.85539092371e-10,-1.30836774748e-09,-9.91722242522e-12
9600000000,239,9600000000,,-0.000530228251591,6.29128262517e-05,0.000181003240868,-2.20099161119e-10,-1.54505686023e-09,-1.13008812377e-11
9640000000,240,9640000000,,-0.000537420623004,-1.35324062285e-05,0.000180484363227,-0.000102480567875,-0.00201688800007,-1.32638733703e-05
9680000000,241,9680000000,,-0.000538991123904,-0.000105269769847,0.000179944283445,5.04828349221e-05,-0.00234775897115,-1.33737485157e-05
9720000000,242,9720000000,,-0.000532786478288,-0.000201808521524,0.00017942028353,0.000263177382294,-0.00241247960366,-1.38743989737e-05
9760000000,243,9760000000,,-0.000517357024364,-0.000293655466521,0.000178850852535,0.000497732020449,-0.00222218991257,-1.45812045957e-05
9800000000,244,9800000000,,-0.000491967308335,-0.000376661948394,0.000178254602361,7.41224692735e-10,-1.82000736704e-09,-1.52714871998e-11
9840000000,245,9840000000,,-0.000459936680272,-0.000436216854723,0.000177604801138,6.85833112524e-10,-1.01088293292e-09,-1.30244287577e-11
9880000000,246,9880000000,,-0.000420160125941,-0.000481420691358,0.000176924571861,8.24481538597e-10,-7.2762140757e-10,-1.2798236429e-11
9920000000,247,9920000000,,-0.000371253758203,-0.000519276130944,0.000176231580554,1.08825592982e-09,-7.33064386971e-10,-1.40733657367e-11
9960000000,248,9960000000,,-0.000311261741444,-0.000553387624677,0.000175531909917,1.46892642494e-09,-6.97728097521e-10,-1.59129237565e-11
10000000000,249,10000000000,,-0.000241301444476,-0.000583024229854,0.000174824046553,0.00188687210903,-0.000695845927112,-1.77742695087e-05
10040000000,250,10040000000,,-0.000157017231686,-0.000608102825936,0.000174112094101,0.0023961183615,-0.000626196851954,-1.74855940713e-05
10080000000,251,10080000000,,-5.57383464184e-05,-0.000629934540484,0.000173414533492,0.00263162748888,-0.000435298046796,-1.75567765837e-05
10120000000,252,10120000000,,5.07578006363e-05,-0.000640636309981,0.000172708198079,0.0025889670942,-0.000111842848128,-1.77870279003e-05
10160000000,253,10160000000,,0.000153423956363,-0.000637289602309,0.000171977852006,0.00240844977088,0.000254227634287,-1.80003917194e-05
10200000000,254,10200000000,,0.000241278801695,-0.000619657686912,0.0001712776575,0.00204237340949,0.000613834825344,-1.80330443982e-05
10240000000,255,10240000000,,0.000316021585604,-0.000588342605624,0.000170556275407,1.65382996187e-09,8.86703543923e-10,-1.75136988245e-11
10281000000,256,10281000000,,0.000372806331143,-0.000546159746591,0.000169799604919,8.33231927899e-10,8.78493000567e-10,-1.4685213115e-11
10320000000,257,10320000000,,0.000409509200836,-0.000498370616697,0.000169061677298,6.39088781895e-10,1.02059416474e-09,-1.46692605979e-11
10360000000,258,10360000000,,0.000439354538685,-0.000438971270341,0.000168315076735,6.19501561161e-10,1.46117040689e-09,-1.64167984762e-11
10400000000,259,10400000000,,0.00046565811499,-0.000368812412489,0.000167582940776,6.03500194263e-10,1.86479187647e-09,-1.79698218111e-11
10440000000,260,10440000000,,0.000487783952849,-0.000285946269287,0.000166864454513,0.000511002959684,0.00222355057485,-1.78352220246e-05
10480000000,261,10480000000,,0.00050651183119,-0.000185832992429,0.000166162484675,0.000371386646293,0.00266382726841,-1.76697849383e-05
10520000000,262,10520000000,,0.000516057829373,-7.40550894989e-05,0.000165449120686,0.000105865619844,0.00284530455247,-1.80842762347e-05
10560000000,263,10560000000,,0.000513746286742,3.623334851e-05,0.000164709374076,-0.000214483996388,0.00277734803967,-1.86913130165e-05
10600000000,264,10600000000,,0.000498221663292,0.000143266210216,0.000163949138368,-0.000548214593437,0.00245651369914,-1.95162901946e-05
10640000000,265,10640000000,,0.00047070151777,0.000234274644754,0.00016315265384,-0.000839656975586,0.0021448910702,-2.00965187105e-05
10680000000,266,10680000000,,0.000430373649579,0.000311160838464,0.000162335782079,-0.00114848685917,0.00168414600194,-2.07796820177e-05
10720000000,267,10720000000,,0.00038059160579,0.00037076958688,0.000161495001521,-1.22743548658e-09,1.21643894957e-09,-1.97347901909e-11
10760000000,268,10760000000,,0.000327870482579,0.000409375294112,0.000160610012244,-1.09967712714e-09,6.22681795015e-10,-1.78364250453e-11
10800000000,269,10800000000,,0.000270131160505,0.000436229020124,0.000159706760314,-1.24394061718e-09,4.65397193006e-10,-1.85186744411e-11
10840000000,270,10840000000,,0.000204803538509,0.000455955829239,0.000158816881594,-1.64353430865e-09,4.14848905228e-10,-2.10651773802e-11
10880000000,271,10880000000,,0.000126788625494,0.000472564424854,0.000157878122991,-0.00205772393383,0.000361506041372,-2.29690231208e-05
10920000000,272,10920000000,,3.03951419482e-05,0.000486441043904,0.000156969894306,-0.00249104737304,0.000290344411042,-2.27466662182e-05
10960000000,273,10960000000,,-7.42998890928e-05,0.000495099578984,0.00015606218949,-0.00268544186838,0.000126244398416,-2.28353710554e-05
11000000000,274,11000000000,,-0.000181149458513,0.000496019609272,0.000155150220962,-0.00252374843694,-8.57291961438e-05,-2.28559365496e-05
11045000000,275,11045000000,,-0.000268831674475,0.000488940335345,0.00015432665532,-0.0023659307044,-0.000290628377115,-2.29256111197e-05
11080000000,276,11080000000,,-0.000358987192158,0.000471685780212,0.000153365981532,-0.00193657714408,-0.000539716158528,-2.27338296099e-05
11120000000,277,11120000000,,-0.000432458356954,0.00044462500955,0.000152411361341,-1.3369153562e-09,-6.18787132645e-10,-1.94856266539e-11
11160000000,278,11160000000,,-0.000480442977278,0.000413330475567,0.000151490501594,-6.01274585676e-10,-5.412421622e-10,-1.47228063074e-11
11200000000,279,11200000000,,-0.000512858503498,0.000377151009161,0.000150562176714,-4.08466510615e-10,-5.80311410037e-10,-1.38113765216e-11
11240000000,280,11240000000,,-0.00053642684361,0.000333264732035,0.000149641869939,-3.36221800401e-10,-7.84027398559e-10,-1.49658636178e-11
11280000000,281,11280000000,,-0.000555217673536,0.000281027285382,0.000148705279571,-2.76578954184e-10,-9.9652153196e-10,-1.63565376521e-11
11320000000,282,11320000000,,-0.000566920964047,0.000222121088882,0.000147823317093,-1.90659349419e-10,-1.29504629243e-09,-1.82674153582e-11
11360000000,283,11360000000,,-0.000572477234527,0.000155584639288,0.000146920458064,-4.72483926983e-11,-1.61706370516e-09,-2.01850602205e-11
11400000000,284,11400000000,,-0.000570499454625,7.91802740423e-05,0.000146026854054,1.5812628984e-10,-1.88060300665e-09,-2.18017617848e-11
11440000000,285,11440000000,,-0.000558766536415,-1.78438767762e-06,0.00014513010683,0.00041880007484,-0.00214762147516,-2.23326223932e-05
11480000000,286,11480000000,,-0.000534737890121,-9.70069158939e-05,0.000144256599015,0.000748324731831,-0.00236341473646,-2.1885121896e-05
11520000000,287,11520000000,,-0.000499268528074,-0.000192543608136,0.000143377619679,0.00105122302193,-0.00247382232919,-2.17618926399e-05
11560000000,288,11560000000,,-0.000450488150818,-0.000286369671812,0.000142499819049,0.00133298395667,-0.00216121529229,-2.22298749577e-05
11600000000,289,11600000000,,-0.000392707850551,-0.000366859603673,0.000141605298268,0.00153749482706,-0.00181670754682,-2.26017546083e-05
11640000000,290,11640000000,,-0.00032734812703,-0.000428176979767,0.000140691146953,0.00169955496676,-0.00130154448561,-2.29996076087e-05
11681000000,291,11681000000,,-0.0002536388929,-0.000472521496704,0.000139722818858,1.8013719405e-09,-8.05382038838e-10,-2.30634643328e-11
11720000000,292,11720000000,,-0.000189135942492,-0.000491151178721,0.000138813236845,1.41581868451e-09,-2.53161380748e-10,-2.04621927041e-11
11760000000,293,11760000000,,-0.00012018414418,-0.00049691926688,0.000137849172461,1.61151580969e-09,-9.6024295286e-13,-2.17136950781e-11
11800000000,294,11800000000,,-4.46842132078e-05,-0.000492442282848,0.000136886446853,1.93569271723e-09,2.08653330724e-10,-2.36223384603e-11
11840000000,295,11840000000,,3.76815296477e-05,-0.000480817601783,0.000135957845487,0.00224679755047,0.000384860235499,-2.38049960899e-05
11881000000,296,11881000000,,0.000145040190546,-0.000456576352008,0.000134956731927,0.00256221322343,0.000720822019503,-2.30764071603e-05
11920000000,297,11920000000,,0.000244913389906,-0.000423626042902,0.000134080983116,0.00263859168626,0.000990567612462,-2.29951838264e-05
11960000000,298,11960000000,,0.000345210486557,-0.00037853277172,0.000133161724079,0.00239650625736,0.00124105764553,-2.29416564252e-05
12000000000,299,12000000000,,0.000435250170995,-0.000326646026224,0.000132241111714,0.00205222703516,0.00133896875195,-2.30686455325e-05
12040000000,300,12040000000,,0.000507371034473,-0.000270986172836,0.000131319102366,0.00160069437698,0.00142852938734,-2.30162131629e-05
12080000000,301,12080000000,,0.000563133973628,-0.000212977509364,0.000130374814034,9.95845628182e-10,1.27164767605e-09,-2.0712298196e-11
12120000000,302,12120000000,,0.00059279584093,-0.000162856638781,0.000129454725538,3.9031494703e-10,8.65191918109e-10,-1.63397888969e-11
12160000000,303,12160000000,,0.00060890649911,-0.000111160807137,0.000128483778099,1.50379389496e-10,8.4650231269e-10,-1.55210445191e-11
12200000000,304,12200000000,,0.000613545940723,-5.87423710385e-05,0.000127564911963,1.01899053431e-11,9.32075638893e-10,-1.60743501842e-11
12240000000,305,12240000000,,0.000610061921179,-5.9608180436e-07,0.000126628612634,-1.45451539701e-10,1.20654009006e-09,-1.81441181524e-11
12280000000,306,12280000000,,0.000598041631747,6.33741583442e-05,0.00012569775572,-3.54780677059e-10,1.35658895228e-09,-1.95095623684e-11
12320000000,307,12320000000,,0.00057613273384,0.000131381151732,0.000124766520457,-6.24752360956e-10,1.70785863229e-09,-2.2089040666e-11
12360000000,308,12360000000,,0.000543552916497,0.000202976589208,0.000123833611724,-0.000947410531808,0.00182739691809,-2.32761885854e-05
12400000000,309,12400000000,,0.000497108499985,0.00028586332337,0.000122921468574,-0.00130860542413,0.00209876638837,-2.28332319239e-05
12440000000,310,12440000000,,0.000436745409388,0.000367608387023,0.000122006000311,-0.00162127264775,0.00194492423907,-2.3076459911e-05
12480000000,311,12480000000,,0.000368487439118,0.000440202275058,0.000121076889627,-0.00181768008042,0.00165060104337,-2.34127001022e-05
12520000000,312,12520000000,,0.000291691249004,0.000496562919579,0.000120134121971,-0.001919920207,0.00119775719941,-2.37930253206e-05
12560000000,313,12560000000,,0.000211659105844,0.000535533588845,0.000119153577543,-0.00197177147493,0.000707156723365,-2.42454079853e-05
12600000000,314,12600000000,,0.000135330541525,0.00055403332226,0.000118204974569,-1.81934489696e-09,2.58441018586e-10,-2.34020285789e-11
12640000000,315,12640000000,,6.64494218654e-05,0.000554675410967,0.00011720071052,-1.45788636718e-09,-1.35819716585e-10,-2.1691532251e-11
12680000000,316,12680000000,,-5.87005558828e-07,0.000541758956388,0.000116186245577,-1.44046163886e-09,-4.13848205705e-10,-2.19247259237e-11
12720000000,317,12720000000,,-7.09764426574e-05,0.000517827633303,0.000115173847007,-1.82915849134e-09,-6.89132473308e-10,-2.49603376162e-11
12760000000,318,12760000000,,-0.000147458049469,0.000484037445858,0.000114169408334,-0.00197911052965,-0.000979103846475,-2.50003977271e-05
12800000000,319,12800000000,,-0.000236146821408,0.000438667513663,0.000113181224151,-0.00239918939769,-0.00129583128728,-2.43500817305e-05
12841000000,320,12841000000,,-0.000334840849973,0.000379542761948,0.000112220339361,-0.00243345787749,-0.00155804818496,-2.40403714997e-05
12880000000,321,12880000000,,-0.00042997932178,0.000316344841849,0.000111247994937,-0.00227131042629,-0.00165262271184,-2.4489218049e-05
12920000000,322,12920000000,,-0.000514893326908,0.000247867283178,0.000110263594252,-0.00195967289619,-0.00168521853629,-2.49611002801e-05
12961000000,323,12961000000,,-0.000585800386034,0.000180526971235,0.000109231485112,-0.00146540289279,-0.00165060989093,-2.53296129813e-05
13000000000,324,13000000000,,-0.000633406627458,0.000117552350275,0.000108236839878,-9.2191382306e-10,-1.40479206046e-09,-2.35990046948e-11
13040000000,325,13040000000,,-0.000659589713905,6.22014413239e-05,0.000107179388579,-2.44436415553e-10,-8.86627493646e-10,-1.82187147313e-11
13080000000,326,13080000000,,-0.000665998610202,1.14207687147e-05,0.000106096798845,6.71244613712e-12,-7.51641637819e-10,-1.66857638817e-11
13120000000,327,13120000000,,-0.000659466488287,-4.07183688367e-05,0.000105011546111,2.15541501314e-10,-9.69431868114e-10,-1.90457389443e-11
13160000000,328,13160000000,,-0.000641690858174,-9.71468689386e-05,0.000103929014585,4.50722542622e-10,-1.11465670027e-09,-2.10021808972e-11
13200000000,329,13200000000,,-0.00061265937984,-0.000158686219947,0.00010284880409,8.05698174844e-10,-1.46010725732e-09,-2.46810159116e-11
13240000000,330,13240000000,,-0.000570513133425,-0.000222864138777,0.000101763493149,0.00120949314442,-0.00163264852017,-2.72223114735e-05
13280000000,331,13280000000,,-0.000513142091222,-0.000293386023259,0.000100683399069,0.00170793139841,-0.00191384425852,-2.66682036454e-05
13320000000,332,13320000000,,-0.000436951580923,-0.000367895729141,9.96121525532e-05,0.00206611212343,-0.00187327794265,-2.67966497631e-05
13360000000,333,13360000000,,-0.000348188244971,-0.000439379131421,9.85355727607e-05,0.00231813662685,-0.00159711274318,-2.73056539299e-05
13400000000,334,13400000000,,-0.000253857346252,-0.000494670122862,9.74349823082e-05,0.002357799327,-0.00120987487026,-2.76601367659e-05
13441000000,335,13441000000,,-0.000158605442266,-0.000533453072421,9.63208585745e-05,0.00241386168636,-0.000716426060535,-2.7982159736e-05
13480000000,336,13480000000,,-6.51648952044e-05,-0.000553270452656,9.52000991674e-05,0.00228920811787,-0.000279495376162,-2.79233645415e-05
13520000000,337,13520000000,,2.54569149547e-05,-0.000555324426387,9.40824029385e-05,0.00218666484579,0.000132276065415,-2.79952764686e-05
13560000000,338,13560000000,,0.000108115695184,-0.000542579742614,9.29657835513e-05,0.0019814139232,0.000487805053126,-2.78105526377e-05
13600000000,339,13600000000,,0.000184047356015,-0.000517113308888,9.1855035862e-05,1.7196530866e-09,7.34911853595e-10,-2.68085241506e-11
13640000000,340,13640000000,,0.000247674848652,-0.000482730363728,9.07428766368e-05,1.06676367739e-09,7.31325722203e-10,-2.2736553959e-11
13680000000,341,13680000000,,0.000297260354273,-0.000443514727522,8.96127094165e-05,9.30485133388e-10,8.6167534219e-10,-2.24168114626e-11
13720000000,342,13720000000,,0.000344074738678,-0.000395304465201,8.8496504759e-05,1.03541775154e-09,1.13799325518e-09,-2.43923891502e-11
13760000000,343,13760000000,,0.000391810113797,-0.000339211692335,8.7391177658e-05,1.16835419117e-09,1.50365431217e-09,-2.67613483457e-11
13800000000,344,13800000000,,0.000441037263954,-0.000272625213256,8.63020686666e-05,0.00124185124878,0.00172360299621,-2.71882690868e-05
13840000000,345,13840000000,,0.000492616381962,-0.000194567110157,8.52313896758e-05,0.0013367861975,0.0021975566633,-2.62679477601e-05
13880000000,346,13880000000,,0.000545377319213,-0.000103651866084,8.41862347443e-05,0.00127421901561,0.00228512031026,-2.60225497186e-05
13920000000,347,13920000000,,0.000590096518863,-1.19203396025e-05,8.3146878751e-05,0.00099181663245,0.00231072795577,-2.58266936726e-05
13960000000,348,13960000000,,0.000625144981313,7.580480451e-05,8.21413341328e-05,0.000741179159377,0.0020306755323,-2.45454266405e-05
14000000000,349,14000000000,,0.000649276189506,0.000152395703481,8.11841819086e-05,4.26953361554e-10,1.62637525669e-09,-2.14592614511e-11
14040000000,350,14040000000,,0.000657554599456,0.00021176203154,8.02244176157e-05,-3.85346823895e-11,7.20208503946e-10,-1.48920181742e-11
14081000000,351,14081000000,,0.00064354139613,0.000257071806118,7.91749916971e-05,-3.1852828708e-10,5.67246749572e-10,-1.435620893e-11
14120000000,352,14120000000,,0.000614909105934,0.000293327611871,7.82169809099e-05,-6.03848526737e-10,6.18427253851e-10,-1.66040254462e-11
14160000000,353,14160000000,,0.000571137643419,0.000330908806063,7.72066487116e-05,-1.01470931657e-09,7.17916170956e-10,-2.00180289012e-11
14200000000,354,14200000000,,0.000512722413987,0.000367037690012,7.61896226322e-05,-1.47366607806e-09,8.2337647811e-10,-2.34124820225e-11
14240000000,355,14240000000,,0.000440445524873,0.000401592842536,7.51658008085e-05,-0.00201761070639,0.00081237393897,-2.57614246948e-05
14280000000,356,14280000000,,0.000345396401826,0.000436315691331,7.41510884836e-05,-0.00247754179873,0.000805940537248,-2.54916321865e-05
14320000000,357,14320000000,,0.000236732375924,0.000465387856821,7.31295076548e-05,-0.00279125012457,0.000602975313086,-2.57835927187e-05
14360000000,358,14360000000,,0.000124492871691,0.000484198331833,7.2095564974e-05,-0.00278470595367,0.000329758360749,-2.59719217865e-05
14400000000,359,14400000000,,1.25707183543e-05,0.000490702688694,7.10514359525e-05,-0.00272021163255,1.16201726996e-05,-2.62065368588e-05
14440000000,360,14440000000,,-9.10507660592e-05,0.000484184885863,7.00053205946e-05,-0.00248703081161,-0.000315743614919,-2.61739787675e-05
14480000000,361,14480000000,,-0.000186421530088,0.000465902034193,6.89598382451e-05,-0.0022220632527,-0.000593874836341,-2.60870983766e-05
14520000000,362,14520000000,,-0.000268306554062,0.000436390022514,6.79213699186e-05,-0.00191993429326,-0.000851355609484,-2.59160751739e-05
14560000000,363,14560000000,,-0.000338652869686,0.000398866104661,6.68883876642e-05,-1.47960388386e-09,-9.91940862782e-10,-2.42522824739e-11
14600000000,364,14600000000,,-0.000392821297282,0.000354968011379,6.58562858007e-05,-7.99956934028e-10,-7.91710530468e-10,-1.97556693227e-11
14640000000,365,14640000000,,-0.000429350213381,0.000310213683406,6.48055720376e-05,-5.76875214264e-10,-8.88101314711e-10,-1.90018452362e-11
14680000000,366,14680000000,,-0.000459442322608,0.000257944659097,6.37664852547e-05,-5.57544843627e-10,-1.04619968244e-09,-1.99191461936e-11
14720000000,367,14720000000,,-0.000486687757075,0.00019745004829,6.27403860562e-05,-5.60647639425e-10,-1.45349865477e-09,-2.24666275167e-11
14760000000,368,14760000000,,-0.000511892721988,0.000126657745568,6.16984107182e-05,-5.37581035243e-10,-1.70186087445e-09,-2.39592286982e-11
14802000000,369,14802000000,,-0.000532402482349,4.50077350251e-05,6.06375506322e-05,-0.000441318261437,-0.00206927885301,-2.51260189543e-05
14840000000,370,14840000000,,-0.000547273084521,-3.68017717847e-05,5.96871905145e-05,-0.000376277632313,-0.00246007670648,-2.43683080043e-05
14880000000,371,14880000000,,-0.000557969557121,-0.000136101181852,5.87418653595e-05,-0.000212592116441,-0.0027094676625,-2.38274769799e-05
14920000000,372,14920000000,,-0.000560795946512,-0.000238894324866,5.77847422392e-05,7.44851276977e-05,-0.00245432602242,-2.40920726355e-05
14960000000,373,14960000000,,-0.000550956290681,-0.000329427828547,5.68151190237e-05,0.000406117498642,-0.0020119624678,-2.45006831392e-05
15000000000,374,15000000000,,-0.000527888711076,-0.000399382988689,5.58280335099e-05,6.15929807157e-10,-1.32009903009e-09,-2.11752577278e-11
15040000000,375,15040000000,,-0.00049405527534,-0.000447858386906,5.48135540157e-05,6.06347194676e-10,-5.34330857338e-10,-1.65595141766e-11
15080000000,376,15080000000,,-0.000451427331427,-0.000474694941659,5.37673440704e-05,7.79593334332e-10,-3.6025263328e-10,-1.71068922916e-11
15120000000,377,15120000000,,-0.000397177500417,-0.000492694787681,5.27238989889e-05,1.16478771073e-09,-2.80801604191e-10,-2.01476110101e-11
15160000000,378,15160000000,,-0.000331424438627,-0.000505317235366,5.16883192176e-05,1.62263735781e-09,-2.26292068417e-10,-2.33650564174e-11
15200000000,379,15200000000,,-0.000252330850344,-0.000512250058819,5.06554752064e-05,0.00212350813672,-9.56814255915e-05,-2.58129439317e-05
15240000000,380,15240000000,,-0.000153462693561,-0.000513388484251,4.96439242852e-05,0.00260506547056,6.38224955765e-05,-2.5316272513e-05
15280000000,381,15280000000,,-4.14395763073e-05,-0.00050634535728,4.863751019e-05,0.00277525489219,0.000285289483145,-2.52390855167e-05
15320000000,382,15320000000,,6.88862419338e-05,-0.000489792611916,4.7630899644e-05,0.00275310827419,0.000524288334418,-2.51791061601e-05
15360000000,383,15360000000,,0.000175029141246,-0.000464051117888,4.66258170491e-05,0.00250620674342,0.000766505778302,-2.50401481026e-05
15400000000,384,15400000000,,0.000269403273705,-0.000429404666647,4.56254310848e-05,0.00225763441995,0.000954484625254,-2.49292734225e-05
15440000000,385,15440000000,,0.000351441645762,-0.000386892963434,4.4634052756e-05,0.00184039957821,0.00115264195483,-2.46707459155e-05
15480000000,386,15480000000,,0.000417939911131,-0.000338700250722,4.36485788669e-05,1.43308287459e-09,1.19734155923e-09,-2.37548748033e-11
15520000000,387,15520000000,,0.000464073295007,-0.000289877469186,4.26508995588e-05,6.85979328896e-10,9.34275656839e-10,-1.91166752567e-11
15560000000,388,15560000000,,0.000494949053973,-0.000238800275838,4.16191978729e-05,4.60731813812e-10,9.40805211513e-10,-1.81302473035e-11
15602000000,389,15602000000,,0.000516829604749,-0.000183523763553,4.06514373026e-05,3.9407316299e-10,1.20648069313e-09,-1.9639949389e-11
15640000000,390,15640000000,,0.000534113030881,-0.00012015500397,3.96692594222e-05,3.14202552865e-10,1.44832457138e-09,-2.10234867709e-11
15680000000,391,15680000000,,0.000546098570339,-4.74800217489e-05,3.86997526221e-05,2.15401876891e-10,1.8142262137e-09,-2.31391121541e-11
15720000000,392,15720000000,,0.000551326374989,3.04635814246e-05,3.77322394343e-05,4.71771418233e-05,0.00206257938407,-2.40802291955e-05
15760000000,393,15760000000,,0.000549420190509,0.000121498138469,3.67847023881e-05,-0.000150456718984,0.00240899669006,-2.34390954574e-05
15803000000,394,15803000000,,0.000540396024007,0.000206470678677,3.59959522029e-05,-0.000364459527191,0.00247804797255,-2.33176433539e-05
15840000000,395,15840000000,,0.000516339903697,0.000314302829793,3.49136607838e-05,-0.000693608133588,0.00214280840009,-2.37799449678e-05
15881000000,396,15881000000,,0.000482771371026,0.000393804715713,3.39570724464e-05,-0.000947268912569,0.00180889933836,-2.40957415372e-05
15920000000,397,15920000000,,0.000439076655312,0.000455661793239,3.29822141794e-05,-1.09732678499e-09,1.16615195278e-09,-2.19488247022e-11
15960000000,398,15960000000,,0.00039044310688,0.000493596715387,3.19699283864e-05,-9.70684088664e-10,5.62748236899e-10,-1.90793648241e-11
16000000000,399,16000000000,,0.000331737683155,0.000517233740538,3.0918912671e-05,-1.22103760436e-09,3.42264688813e-10,-2.04998639591e-11
16040000000,400,16040000000,,0.00026755273575,0.000530497462023,2.9918139262e-05,-1.60365365431e-09,2.23026708213e-10,-2.31022249941e-11
16080000000,401,16080000000,,0.0001896234171,0.000536835461389,2.88905939669e-05,-0.00207711639814,9.29592861212e-05,-2.56090661424e-05
16120000000,402,16120000000,,9.50004759943e-05,0.000537566782441,2.78817824437e-05,-0.00260316161439,-6.5058011387e-05,-2.50990342465e-05
16160000000,403,16160000000,,-1.34616593641e-05,0.000530765682925,2.687957749e-05,-0.00278814532794,-0.000287271628622,-2.49012755376e-05
16200000000,404,16200000000,,-0.000125466598547,0.000514111830853,2.58843720076e-05,-0.00283763045445,-0.000522582035046,-2.48818287218e-05
16240000000,405,16240000000,,-0.000234519757214,0.000487756886287,2.48947308137e-05,-0.00253224233165,-0.000779333757237,-2.47049501922e-05
16280000000,406,16280000000,,-0.000330289185513,0.00045224634232,2.39084638451e-05,-0.00224015442654,-0.000945855514146,-2.4649540137e-05
16320000000,407,16320000000,,-0.000410066655604,0.000409459520597,2.29285287787e-05,-0.00176908029243,-0.00116294133477,-2.43727463385e-05
16360000000,408,16360000000,,-0.000472935120342,0.000360968377208,2.19549747271e-05,-1.26227484021e-09,-1.15803078238e-09,-2.24520107367e-11
16400000000,409,16400000000,,-0.000514155253768,0.000310845905915,2.09716981772e-05,-5.53928014568e-10,-9.15682307756e-10,-1.81711451441e-11
16440000000,410,16440000000,,-0.000538378488272,0.000260252156295,1.99774931389e-05,-3.33772676164e-10,-9.4036434195e-10,-1.74590498309e-11
16480000000,411,16480000000,,-0.000469502178021,0.000201979841222,1.88447684195e-05,0.00233330740593,-0.001551502035,-2.95835652651e-05
16520000000,412,16520000000,,-0.000310280738631,0.000132710920298,1.74149463419e-05,0.00388857861981,-0.00190419855062,-3.87599720852e-05
16560000000,413,16560000000,,-0.000131848020828,5.08677840116e-05,1.5586403606e-05,0.000867813185323,-0.00201290193945,-4.4087144488e-05
16604000000,414,16604000000,,-0.000172575833858,-2.32612583204e-05,1.38828354466e-05,-0.00663443934172,-0.00198661815375,-4.29716274084e-05
16640000000,415,16640000000,,-0.000809674500488,-0.00010595346248,1.22022775031e-05,-0.0216268673539,-0.00172493967693,-3.44676736859e-05
16680000000,416,16680000000,,-0.00195805286057,-0.000170129846083,1.10668033813e-05,-0.0384110286832,-0.00155548821203,-2.47050629696e-05
16720000000,417,16720000000,,-0.00393521646038,-0.000226071817451,1.02356316347e-05,-0.0610451288521,-0.00123754690867,-1.77832753252e-05
16761000000,418,16761000000,,-0.00691556138918,-0.000272204953944,9.67300366028e-06,-0.085021622479,-0.00100711919367,-1.13636961032e-05
16802000000,419,16802000000,,-0.0111214118078,-0.00030773220351,9.22793878999e-06,-0.1128385216,-0.00072305026697,-9.98995619739e-06
16840000000,420,16840000000,,-0.0157291498035,-0.000330854323693,8.85561712494e-06,-0.137337788939,-0.000522625923622,-1.05481913124e-05
16880000000,421,16880000000,,-0.0217894744128,-0.000346935907146,8.37248808239e-06,-0.162787139416,-0.000309470051434,-1.35370601129e-05
16920000000,422,16920000000,,-0.0288204159588,-0.000355561438482,7.71591567172e-06,-0.188620626926,-0.00013181239774,-1.85862863873e-05
16960000000,423,16960000000,,-0.0368326343596,-0.000357536133379,6.83684038449e-06,-0.207349658012,1.09664233605e-05,-2.46320232691e-05
17002000000,424,17002000000,,-0.0463077425957,-0.000353772600647,5.58192914468e-06,-0.233173444867,0.000159241622896,-3.29235881509e-05
17040000000,425,17040000000,,-0.0551450178027,-0.000346302374965,4.19072648583e-06,-0.242511183023,0.000243366506766,-4.09420936194e-05
17080000000,426,17080000000,,-0.065251044929,-0.000334577809554,2.36097275774e-06,-0.260122805834,0.000328630208969,-4.89212507091e-05
17122000000,427,17122000000,,-0.0756829530001,-0.000320263585309,2.26315648888e-07,-0.262764662504,0.000388543994632,-5.74097684876e-05
17171000000,428,17171000000,,-0.0895372256637,-0.000298529746942,-2.89326976599e-06,-0.263327568769,0.000436086731497,-6.18552512606e-05
17200000000,429,17200000000,,-0.097223341465,-0.000285165180685,-4.86703038405e-06,-0.26578488946,0.000473754626,-7.00867458363e-05
17240000000,430,17240000000,,-0.108165942132,-0.000265129317995,-8.08330605651e-06,-0.269633740187,0.000501637521666,-8.2740218204e-05
17280000000,431,17280000000,,-0.11845600605,-0.000245253322646,-1.14162739919e-05,-0.261147171259,0.000514977611601,-8.74228790053e-05
17320000000,432,17320000000,,-0.128944888711,-0.000224307063036,-1.50423365994e-05,-0.244070038199,0.00050078012282,-8.78378923517e-05
17360000000,433,17360000000,,-0.138399109244,-0.000204278010642,-1.86052347999e-05,-0.231943383813,0.000508746015839,-9.16373392101e-05
17400000000,434,17400000000,,-0.147015273571,-0.000185426761163,-2.20940837607e-05,-0.207845702767,0.00047302574967,-8.89844595804e-05
17440000000,435,17440000000,,-0.155004188418,-0.000166789250216,-2.56424045801e-05,-0.192276000977,0.000456783745904,-8.80303196027e-05
17480000000,436,17480000000,,-0.1621324718,-0.000149502026034,-2.90405951091e-05,-0.165748819709,0.000420352997025,-8.39024069137e-05
17521000000,437,17521000000,,-0.168389931321,-0.0001332158281,-3.23322856275e-05,-0.145847856998,0.000383430538932,-7.83236173447e-05
17560000000,438,17560000000,,-0.173662483692,-0.000118609488709,-3.53517498297e-05,-0.120451964438,0.000348022702383,-7.27160368115e-05
