%time,field.header.seq,field.header.stamp,field.header.frame_id,field.angular_velocities0,field.angular_velocities1,field.angular_velocities2,field.angular_velocities3
63000000,0,63000000,,-1.1700688937e-15,-1.17322563753e-15,-1.17322521349e-15,-1.17006850039e-15
66000000,1,66000000,,-2.35970664405e-15,-2.36163876347e-15,-2.36164466168e-15,-2.35971254116e-15
88000000,2,88000000,,-3.55420298556e-15,-3.55681062245e-15,-3.55695690016e-15,-3.55434927854e-15
140000000,3,140000000,,-4.74849866004e-15,-4.75219892997e-15,-4.75219681104e-15,-4.74849645415e-15
171000000,4,171000000,,-0.000109957307585,2.75941534646e-05,0.000109957307574,-2.75941534762e-05
212000000,5,212000000,,-0.000132257826653,-5.03230958433e-05,0.000132257826639,5.03230958298e-05
253000000,6,253000000,,2.52641774432e-05,1.21223912934e-06,-2.52641774584e-05,-1.21223914434e-06
291000000,7,291000000,,-4.14827592472e-05,-3.52645749381e-05,4.1482759231e-05,3.5264574922e-05
332000000,8,332000000,,-6.24017363161e-05,1.53535006306e-05,6.24017362994e-05,-1.53535006472e-05
372000000,9,372000000,,-3.30647953837e-05,5.93825534952e-06,3.30647953667e-05,-5.93825536634e-06
409000000,10,409000000,,-2.14246949447e-05,8.12056489803e-07,2.14246949275e-05,-8.120565068e-07
445000000,11,445000000,,-1.75843994082e-05,-1.07359187269e-06,1.7584399391e-05,1.07359185562e-06
492000000,12,492000000,,-1.63045108328e-05,-1.15559605033e-06,1.63045108157e-05,1.15559603337e-06
531000000,13,531000000,,-1.53696554041e-05,-7.80440110657e-07,1.53696553873e-05,7.80440093985e-07
566000000,14,566000000,,-1.44275271317e-05,-4.94452373369e-07,1.44275271153e-05,4.94452357128e-07
620000000,15,620000000,,-1.35582961756e-05,-4.21496135725e-07,1.35582961598e-05,4.21496120019e-07
659000000,16,659000000,,-1.2840725584e-05,-5.4292028993e-07,1.28407255688e-05,5.42920274868e-07
702000000,17,702000000,,-1.23174467109e-05,-7.65538599814e-07,1.23174466964e-05,7.65538585433e-07
734000000,18,734000000,,-1.19540936195e-05,-1.03396576812e-06,1.19540936057e-05,1.03396575445e-06
782000000,19,782000000,,2.5694877952e-05,-1.32535805351e-06,-2.56948779652e-05,1.32535804044e-06
816000000,20,816000000,,6.80570353507e-05,-2.2894657957e-06,-6.80570353634e-05,2.28946578316e-06
852000000,21,852000000,,9.50686271893e-05,-2.73441032201e-06,-9.50686272015e-05,2.73441030992e-06
894000000,22,894000000,,0.000108423116294,-2.95651055041e-06,-0.000108423116306,2.95651053862e-06
934000000,23,934000000,,0.000112096767808,-3.07641631607e-06,-0.00011209676782,3.07641630444e-06
981000000,24,981000000,,8.69132482729e-05,-3.06048045691e-06,-8.69132482845e-05,3.06048044533e-06
1006000000,25,1006000000,,8.37951383598e-05,-3.20765988892e-06,-8.37951383716e-05,3.20765987725e-06
1067000000,26,1067000000,,8.82749260453e-05,-3.38516613962e-06,-8.82749260572e-05,3.38516612774e-06
1095000000,27,1095000000,,9.39321892808e-05,-3.53412319828e-06,-9.3932189293e-05,3.53412318613e-06
1173000000,28,1173000000,,9.70051776995e-05,-3.63700635179e-06,-9.70051777121e-05,3.63700633933e-06
1194000000,29,1194000000,,9.91693076054e-05,-3.64386379292e-06,-9.91693076182e-05,3.64386378019e-06
1216000000,30,1216000000,,0.000103272149465,-3.68007052446e-06,-0.000103272149478,3.68007051147e-06
1252000000,31,1252000000,,0.000106828561238,-3.63747839702e-06,-0.000106828561251,3.63747838381e-06
1296000000,32,1296000000,,0.000109846147516,-3.54733018703e-06,-0.000109846147529,3.54733017364e-06
1344000000,33,1344000000,,0.000111756193074,-3.38183080032e-06,-0.000111756193088,3.38183078681e-06
1362000000,34,1362000000,,8.47286406532e-05,-1.40613255649e-06,-8.47286406669e-05,1.40613254289e-06
1414000000,35,1414000000,,6.6937365352e-05,-2.37446991236e-07,-6.69373653658e-05,2.37446977581e-07
1443000000,36,1443000000,,5.27969496999e-05,6.52811872384e-07,-5.27969497137e-05,-6.52811886065e-07
1488000000,37,1488000000,,4.30131387757e-05,1.1447041465e-06,-4.30131387894e-05,-1.14470416019e-06
1536000000,38,1536000000,,3.56205904294e-05,1.52101263597e-06,-3.56205904432e-05,-1.52101264965e-06
1572000000,39,1572000000,,2.91184333103e-05,1.74769666955e-06,-2.91184333241e-05,-1.74769668324e-06
1617000000,40,1617000000,,2.4966199492e-05,1.83401518422e-06,-2.49661995058e-05,-1.83401519794e-06
1652000000,41,1652000000,,2.01860470541e-05,1.92921660093e-06,-2.01860470679e-05,-1.92921661469e-06
1689000000,42,1689000000,,3.91233302255e-05,1.82227519508e-06,-3.91233302394e-05,-1.82227520892e-06
1734000000,43,1734000000,,4.06676355582e-05,2.0458600349e-06,-4.06676355723e-05,-2.04586004884e-06
1772000000,44,1772000000,,4.13208710087e-05,7.43376099979e-06,-4.13208710229e-05,-7.43376101388e-06
1812000000,45,1812000000,,3.66938751368e-05,9.20982001168e-06,-3.66938751512e-05,-9.20982002595e-06
1843000000,46,1843000000,,3.01634408154e-05,9.71906796503e-06,-3.016344083e-05,-9.71906797953e-06
1884000000,47,1884000000,,2.33815066908e-05,1.02508848294e-05,-2.33815067057e-05,-1.02508848442e-05
1938000000,48,1938000000,,1.6369720079e-05,1.09967284236e-05,-1.6369720094e-05,-1.09967284385e-05
1972000000,49,1972000000,,9.04657831928e-06,1.19432964446e-05,-9.04657833451e-06,-1.19432964598e-05
2019000000,50,2019000000,,1.55841879271e-06,1.30272174536e-05,-1.55841880814e-06,-1.30272174689e-05
2064000000,51,2064000000,,-6.05922394388e-06,1.41871261618e-05,6.05922392824e-06,-1.41871261773e-05
2086000000,52,2086000000,,-1.36334410454e-05,-2.22232723246e-07,1.36334410296e-05,2.22232707571e-07
2136000000,53,2136000000,,-2.09101830471e-05,-3.26753373479e-06,2.09101830312e-05,3.26753371902e-06
2177000000,54,2177000000,,-2.78486594551e-05,-3.48468567523e-06,2.78486594391e-05,3.48468565937e-06
2206000000,55,2206000000,,-3.41738341928e-05,-3.65773695007e-06,3.41738341768e-05,3.65773693413e-06
2259000000,56,2259000000,,-3.97726308413e-05,-4.65680117977e-06,3.97726308251e-05,4.65680116376e-06
2296000000,57,2296000000,,-4.44994459891e-05,-6.51234372638e-06,4.44994459729e-05,6.51234371029e-06
2341000000,58,2341000000,,-4.82132957561e-05,-9.14417810043e-06,4.82132957398e-05,9.14417808425e-06
2376000000,59,2376000000,,-2.7426274323e-05,-3.04386192714e-05,2.74262743066e-05,3.04386192551e-05
2408000000,60,2408000000,,-1.21726340279e-05,-4.23860189073e-05,1.21726340114e-05,4.23860188909e-05
2449000000,61,2449000000,,-4.31404340641e-06,-5.00780365829e-05,4.31404338978e-06,5.00780365663e-05
2497000000,62,2497000000,,3.19049087858e-06,-5.32313207584e-05,-3.19049089533e-06,5.32313207418e-05
2532000000,63,2532000000,,7.19053655698e-06,-5.4728285842e-05,-7.19053657384e-06,5.47282858253e-05
2576000000,64,2576000000,,1.12707419848e-05,-5.43155816302e-05,-1.12707420017e-05,5.43155816134e-05
2618000000,65,2618000000,,-1.17983637285e-05,-5.20327362253e-05,1.17983637115e-05,5.20327362083e-05
2663000000,66,2663000000,,-1.63493483016e-05,-5.40990114519e-05,1.63493482844e-05,5.40990114348e-05
2698000000,67,2698000000,,-1.42228341076e-05,-5.70244642367e-05,1.42228340903e-05,5.70244642196e-05
2737000000,68,2737000000,,-1.01815085536e-05,-5.9503595008e-05,1.01815085363e-05,5.95035949908e-05
2768000000,69,2768000000,,-5.66631770845e-06,-6.11687673709e-05,5.66631769104e-06,6.11687673536e-05
2816000000,70,2816000000,,-6.58562775555e-07,-6.19452012391e-05,6.58562758046e-07,6.19452012217e-05
2858000000,71,2858000000,,2.35649706158e-05,-4.04451663742e-05,-2.35649706334e-05,4.04451663567e-05
2897000000,72,2897000000,,3.8070906044e-05,-2.42232957707e-05,-3.80709060617e-05,2.42232957531e-05
2933000000,73,2933000000,,4.76173334341e-05,-1.3399363612e-05,-4.76173334519e-05,1.33993635943e-05
2984000000,74,2984000000,,5.22350395837e-05,-4.51070145373e-06,-5.22350396016e-05,4.51070143593e-06
3012000000,75,3012000000,,5.48305957394e-05,1.79479902255e-06,-5.48305957574e-05,-1.79479904044e-06
3059000000,76,3059000000,,5.5350564522e-05,7.07889141676e-06,-5.53505645401e-05,-7.07889143474e-06
3088000000,77,3088000000,,5.78205161702e-05,-1.20351713436e-05,-5.78205161884e-05,1.20351713256e-05
3144000000,78,3144000000,,6.26519370241e-05,-1.38991133983e-05,-6.26519370423e-05,1.38991133801e-05
3177000000,79,3177000000,,6.74907671982e-05,-1.00372450085e-05,-6.74907672165e-05,1.00372449903e-05
3213000000,80,3213000000,,7.1521692023e-05,-4.54228168919e-06,-7.15216920414e-05,4.54228167091e-06
3262000000,81,3262000000,,7.45052764781e-05,1.27205024691e-06,-7.45052764965e-05,-1.27205026524e-06
3297000000,82,3297000000,,7.64535070183e-05,7.34786949233e-06,-7.64535070368e-05,-7.34786951071e-06
3335000000,83,3335000000,,5.11789488746e-05,2.50213936809e-05,-5.11789488931e-05,-2.50213936993e-05
3373000000,84,3373000000,,3.32882260229e-05,3.53945107101e-05,-3.32882260415e-05,-3.53945107287e-05
3419000000,85,3419000000,,2.28729861066e-05,4.13075997466e-05,-2.28729861252e-05,-4.13075997651e-05
3450000000,86,3450000000,,1.4510208861e-05,4.38813547082e-05,-1.45102088797e-05,-4.38813547268e-05
3491000000,87,3491000000,,1.03311445655e-05,4.40190019099e-05,-1.03311445843e-05,-4.40190019286e-05
3543000000,88,3543000000,,6.63752115491e-06,4.29637619777e-05,-6.63752117377e-06,-4.29637619965e-05
3582000000,89,3582000000,,2.80287947869e-05,5.27142418762e-05,-2.80287948058e-05,-5.2714241895e-05
3611000000,90,3611000000,,3.16648069463e-05,5.88209624242e-05,-3.16648069653e-05,-5.88209624431e-05
3647000000,91,3647000000,,2.85633028435e-05,6.22308644428e-05,-2.85633028625e-05,-6.22308644617e-05
3683000000,92,3683000000,,1.16705580941e-05,4.00504007394e-05,-1.16705581132e-05,-4.00504007584e-05
3744000000,93,3744000000,,1.41844031816e-06,2.49410570682e-05,-1.41844033729e-06,-2.49410570872e-05
3770000000,94,3770000000,,-4.63359574378e-06,1.22407368018e-05,4.6335957246e-06,-1.22407368208e-05
3809000000,95,3809000000,,-8.95016329004e-06,4.32488154578e-06,8.95016327082e-06,-4.3248815649e-06
3848000000,96,3848000000,,-1.02672246429e-05,-3.9065697901e-06,1.02672246236e-05,3.90656977094e-06
3890000000,97,3890000000,,-1.06378381342e-05,-9.27009363702e-06,1.06378381149e-05,9.2700936178e-06
3935000000,98,3935000000,,-1.04264307743e-05,-1.46435002509e-05,1.04264307549e-05,1.46435002317e-05
3975000000,99,3975000000,,-9.49465757712e-06,-1.82729645516e-05,9.49465755769e-06,1.82729645323e-05
4017000000,100,4017000000,,-1.70784921281e-05,6.68000457706e-07,1.70784921086e-05,-6.68000477111e-07
4057000000,101,4057000000,,-2.15989959287e-05,2.61324125338e-06,2.15989959091e-05,-2.61324127286e-06
4095000000,102,4095000000,,-2.9051119295e-05,-1.45983371755e-06,2.90511192754e-05,1.459833698e-06
4131000000,103,4131000000,,-3.22729261686e-05,-7.02444137688e-06,3.22729261488e-05,7.02444135728e-06
4167000000,104,4167000000,,-3.38617230397e-05,-1.2900074863e-05,3.386172302e-05,1.29000748434e-05
4203000000,105,4203000000,,-3.46078458518e-05,-1.89824573189e-05,3.4607845832e-05,1.89824572992e-05
4262000000,106,4262000000,,-3.4631191004e-05,-2.54290960886e-05,3.46311909842e-05,2.54290960689e-05
4291000000,107,4291000000,,-3.38880849483e-05,-3.21922898895e-05,3.38880849284e-05,3.21922898697e-05
4326000000,108,4326000000,,-3.21313091515e-05,-3.91200280077e-05,3.21313091316e-05,3.91200279879e-05
4366000000,109,4366000000,,-2.94533070775e-05,-4.60345770677e-05,2.94533070575e-05,4.60345770479e-05
4407000000,110,4407000000,,1.88476078113e-06,-5.11565020971e-05,-1.88476080107e-06,5.11565020773e-05
4450000000,111,4450000000,,2.03044685006e-05,-5.29934343052e-05,-2.03044685206e-05,5.29934342854e-05
4500000000,112,4500000000,,3.21989397216e-05,-5.24041827326e-05,-3.21989397416e-05,5.24041827127e-05
4541000000,113,4541000000,,3.87956781319e-05,-5.02610788777e-05,-3.87956781519e-05,5.02610788579e-05
4575000000,114,4575000000,,4.20308927877e-05,-4.33409561929e-05,-4.20308928077e-05,4.33409561731e-05
4607000000,115,4607000000,,4.35714618718e-05,-3.76409742983e-05,-4.35714618918e-05,3.76409742784e-05
4654000000,116,4654000000,,4.32434960882e-05,-3.15515997597e-05,-4.32434961082e-05,3.15515997398e-05
4702000000,117,4702000000,,4.24572335651e-05,-2.65910216245e-05,-4.24572335852e-05,2.65910216046e-05
4724000000,118,4724000000,,4.09564705421e-05,-2.09341731025e-05,-4.09564705622e-05,2.09341730826e-05
4771000000,119,4771000000,,3.92679622895e-05,-1.63759813704e-05,-3.92679623096e-05,1.63759813504e-05
4811000000,120,4811000000,,3.76417291743e-05,-1.17380896109e-05,-3.76417291944e-05,1.17380895909e-05
4855000000,121,4855000000,,3.56917258394e-05,-7.66123322087e-06,-3.56917258596e-05,7.66123320083e-06
4894000000,122,4894000000,,3.39634784395e-05,-3.97282968031e-06,-3.39634784596e-05,3.97282966025e-06
4927000000,123,4927000000,,3.22008333652e-05,-4.31624959954e-07,-3.22008333854e-05,4.3162493986e-07
4967000000,124,4967000000,,4.6242789424e-05,-1.72385931592e-05,-4.62427894442e-05,1.7238593139e-05
5007000000,125,5007000000,,5.11114934155e-05,-1.92985313049e-05,-5.11114934357e-05,1.92985312848e-05
5052000000,126,5052000000,,5.24758261844e-05,-1.62190332947e-05,-5.24758262046e-05,1.62190332745e-05
5085000000,127,5085000000,,5.248242954e-05,-1.16129795256e-05,-5.24824295603e-05,1.16129795054e-05
5125000000,128,5125000000,,5.16772534102e-05,-6.46369765809e-06,-5.16772534305e-05,6.46369763787e-06
5193000000,129,5193000000,,5.01099500026e-05,-8.66821195016e-07,-5.01099500229e-05,8.66821174774e-07
5203000000,130,5203000000,,2.27016298534e-05,1.82957379797e-05,-2.27016298737e-05,-1.8295738e-05
5261000000,131,5261000000,,7.41613564621e-06,2.90490141126e-05,-7.41613566661e-06,-2.90490141329e-05
5294000000,132,5294000000,,-4.76455790498e-06,3.549899567e-05,4.76455788455e-06,-3.54989956903e-05
5338000000,133,5338000000,,1.370019674e-05,3.33055025966e-05,-1.37001967605e-05,-3.33055026169e-05
5363000000,134,5363000000,,1.55468168921e-05,3.72711633562e-05,-1.55468169126e-05,-3.72711633766e-05
5409000000,135,5409000000,,1.11263580929e-05,4.30338452985e-05,-1.11263581134e-05,-4.30338453189e-05
5459000000,136,5459000000,,5.1482174124e-06,4.86300515077e-05,-5.14821743286e-06,-4.86300515281e-05
5495000000,137,5495000000,,-1.02317162214e-06,5.34117329428e-05,1.02317160168e-06,-5.34117329632e-05
5535000000,138,5535000000,,-7.16310406658e-06,5.71441297983e-05,7.16310404611e-06,-5.71441298186e-05
5579000000,139,5579000000,,-1.34050238358e-05,5.95786294751e-05,1.34050238153e-05,-5.95786294955e-05
5605000000,140,5605000000,,-2.58173467338e-05,3.48683688738e-05,2.58173467133e-05,-3.48683688942e-05
5647000000,141,5647000000,,-3.22159733918e-05,1.83099765488e-05,3.22159733713e-05,-1.83099765692e-05
5696000000,142,5696000000,,-3.49829085918e-05,6.46805013456e-06,3.49829085712e-05,-6.46805015498e-06
5735000000,143,5735000000,,-3.48669698013e-05,-2.72028752365e-06,3.48669697808e-05,2.7202875032e-06
5779000000,144,5779000000,,-3.3299516457e-05,-7.29375712289e-06,3.32995164364e-05,7.29375710242e-06
5812000000,145,5812000000,,-3.09500179238e-05,-1.19868371956e-05,3.09500179032e-05,1.19868371751e-05
5884000000,146,5884000000,,-2.94216887531e-05,-1.56951197432e-05,2.94216887325e-05,1.56951197227e-05
5900000000,147,5900000000,,-2.46668270364e-05,-1.84062401403e-05,2.46668270158e-05,1.84062401198e-05
5934000000,148,5934000000,,-2.01655045302e-05,-1.96619506678e-05,2.01655045096e-05,1.96619506472e-05
5986000000,149,5986000000,,-1.71396809749e-05,-2.12041498524e-05,1.71396809543e-05,2.12041498318e-05
6012000000,150,6012000000,,-3.73346481832e-05,-1.20856506379e-05,3.73346481625e-05,1.20856506173e-05
6048000000,151,6048000000,,-4.29679863319e-05,-1.25837887821e-05,4.29679863111e-05,1.25837887615e-05
6084000000,152,6084000000,,-4.29013618773e-05,-1.61044268946e-05,4.29013618566e-05,1.6104426874e-05
6125000000,153,6125000000,,-4.08175710332e-05,-2.01665079712e-05,4.08175710125e-05,2.01665079506e-05
6169000000,154,6169000000,,-1.04167134302e-05,-2.26504095428e-05,1.04167134094e-05,2.26504095221e-05
6214000000,155,6214000000,,9.87561288016e-06,-2.37665779852e-05,-9.87561290088e-06,2.37665779646e-05
6244000000,156,6244000000,,2.19283037793e-05,-2.38112128491e-05,-2.19283038001e-05,2.38112128285e-05
6299000000,157,6299000000,,3.0513256916e-05,-2.3285713248e-05,-3.05132569367e-05,2.32857132274e-05
6332000000,158,6332000000,,3.46944546719e-05,-2.20993521245e-05,-3.46944546926e-05,2.20993521039e-05
6369000000,159,6369000000,,1.85637551866e-05,-3.30325638592e-05,-1.85637552073e-05,3.30325638386e-05
6410000000,160,6410000000,,1.88019482362e-05,-3.76118318286e-05,-1.88019482569e-05,3.7611831808e-05
6453000000,161,6453000000,,2.42503622279e-05,-3.95133946713e-05,-2.42503622486e-05,3.95133946507e-05
6485000000,162,6485000000,,3.06388657973e-05,-4.01622897804e-05,-3.0638865818e-05,4.01622897598e-05
6540000000,163,6540000000,,3.68315145158e-05,-3.9943217866e-05,-3.68315145365e-05,3.99432178455e-05
6581000000,164,6581000000,,4.27626171931e-05,-3.87631080861e-05,-4.27626172138e-05,3.87631080655e-05
6610000000,165,6610000000,,4.8450878346e-05,-3.65305531641e-05,-4.84508783667e-05,3.65305531435e-05
6656000000,166,6656000000,,4.86726970266e-05,-6.16406949982e-06,-4.86726970473e-05,6.1640694792e-06
6696000000,167,6696000000,,4.81532724892e-05,1.46913004159e-05,-4.81532725099e-05,-1.46913004365e-05
6739000000,168,6739000000,,4.6569478899e-05,2.75492671684e-05,-4.65694789197e-05,-2.7549267189e-05
6776000000,169,6776000000,,4.51121331535e-05,3.63724280581e-05,-4.51121331742e-05,-3.63724280788e-05
6803000000,170,6803000000,,4.27845597561e-05,4.13240469013e-05,-4.27845597769e-05,-4.1324046922e-05
6852000000,171,6852000000,,4.09479938271e-05,4.38066524243e-05,-4.09479938479e-05,-4.38066524449e-05
6884000000,172,6884000000,,5.83517107486e-05,3.12336871532e-05,-5.83517107694e-05,-3.12336871738e-05
6934000000,173,6934000000,,6.42825885712e-05,3.22164226599e-05,-6.4282588592e-05,-3.22164226806e-05
6977000000,174,6977000000,,6.57212247846e-05,3.70008318374e-05,-6.57212248054e-05,-3.70008318581e-05
7021000000,175,7021000000,,6.53417230959e-05,4.21235643384e-05,-6.53417231167e-05,-4.21235643591e-05
7048000000,176,7048000000,,3.80132399488e-05,3.91088511158e-05,-3.80132399697e-05,-3.91088511365e-05
7097000000,177,7097000000,,1.99955741977e-05,3.64693389884e-05,-1.99955742186e-05,-3.64693390091e-05
7139000000,178,7139000000,,8.933672684e-06,3.21903442932e-05,-8.93367270485e-06,-3.2190344314e-05
7176000000,179,7176000000,,6.66162540781e-07,2.82787412072e-05,-6.66162561634e-07,-2.8278741228e-05
7219000000,180,7219000000,,-3.44957014343e-06,2.36549839625e-05,3.44957012259e-06,-2.36549839832e-05
7259000000,181,7259000000,,-6.36373218281e-06,1.94480991354e-05,6.36373216199e-06,-1.94480991561e-05
7289000000,182,7289000000,,-7.40948260161e-06,1.50188040861e-05,7.40948258081e-06,-1.50188041068e-05
7325000000,183,7325000000,,-7.55139763453e-06,1.07610901179e-05,7.55139761374e-06,-1.07610901386e-05
7401000000,184,7401000000,,-1.61274073756e-06,3.11557768871e-05,1.61274071679e-06,-3.11557769078e-05
7423000000,185,7423000000,,-7.83791673166e-07,4.08311892484e-05,7.83791652392e-07,-4.08311892691e-05
7469000000,186,7469000000,,-5.74727918805e-06,3.64207472625e-05,5.74727916727e-06,-3.64207472832e-05
7498000000,187,7498000000,,-9.99080659639e-06,3.17174330232e-05,9.99080657561e-06,-3.17174330438e-05
7532000000,188,7532000000,,-1.3390140355e-05,2.74435496938e-05,1.33901403342e-05,-2.74435497145e-05
7591000000,189,7591000000,,-9.02944679745e-06,-2.74149413239e-06,9.02944677667e-06,2.74149411171e-06
7603000000,190,7603000000,,-3.38789846299e-06,-3.02184598489e-05,3.3878984422e-06,3.02184598282e-05
7663000000,191,7663000000,,-2.21665206162e-06,-3.95497888827e-05,2.21665204084e-06,3.9549788862e-05
7692000000,192,7692000000,,-5.06572368551e-07,-4.52902188082e-05,5.06572347774e-07,4.52902187876e-05
7746000000,193,7746000000,,-1.41432791595e-05,-2.8776040323e-05,1.41432791387e-05,2.87760403024e-05
7776000000,194,7776000000,,-1.88262760782e-05,-2.94710401506e-05,1.88262760574e-05,2.94710401299e-05
7826000000,195,7826000000,,-1.981569258e-05,-3.61804761135e-05,1.98156925593e-05,3.61804760929e-05
7854000000,196,7854000000,,-1.95672108714e-05,-4.36895811316e-05,1.95672108506e-05,4.36895811109e-05
7897000000,197,7897000000,,-1.87886579761e-05,-5.04797364106e-05,1.87886579553e-05,5.047973639e-05
7932000000,198,7932000000,,-1.74002891883e-05,-5.64834584131e-05,1.74002891675e-05,5.64834583925e-05
7971000000,199,7971000000,,-1.72570054781e-05,-6.18124324412e-05,1.72570054573e-05,6.18124324205e-05
8008000000,200,8008000000,,-1.48098745659e-05,-6.64253923974e-05,1.48098745451e-05,6.64253923767e-05
8051000000,201,8051000000,,9.81605636706e-06,-5.15073427989e-05,-9.8160563878e-06,5.15073427783e-05
8093000000,202,8093000000,,2.43294453586e-05,-4.07236615181e-05,-2.43294453794e-05,4.07236614974e-05
8154000000,203,8154000000,,3.35159617924e-05,-3.13215212366e-05,-3.35159618132e-05,3.1321521216e-05
8176000000,204,8176000000,,4.06104183315e-05,-2.0777766814e-05,-4.06104183522e-05,2.07777667934e-05
8213000000,205,8213000000,,4.21204632592e-05,-1.46596244857e-05,-4.212046328e-05,1.46596244651e-05
8263000000,206,8263000000,,4.24908405809e-05,-1.01473102662e-05,-4.24908406016e-05,1.01473102456e-05
8296000000,207,8296000000,,4.15373442092e-05,-4.90940473356e-06,-4.15373442299e-05,4.90940471294e-06
8338000000,208,8338000000,,4.03877846099e-05,-1.09857203028e-06,-4.03877846306e-05,1.09857200965e-06
8380000000,209,8380000000,,3.88911479133e-05,2.84155407383e-06,-3.8891147934e-05,-2.84155409447e-06
8421000000,210,8421000000,,4.5194077672e-05,-1.71080519461e-05,-4.51940776927e-05,1.71080519254e-05
8445000000,211,8445000000,,4.90524006381e-05,-2.00918281636e-05,-4.90524006588e-05,2.0091828143e-05
8495000000,212,8495000000,,5.1386658239e-05,-1.68183778429e-05,-5.13866582597e-05,1.68183778223e-05
8529000000,213,8529000000,,5.28530462445e-05,-1.19132790904e-05,-5.28530462652e-05,1.19132790697e-05
8575000000,214,8575000000,,5.35801114364e-05,-6.56351134974e-06,-5.35801114572e-05,6.56351132911e-06
8630000000,215,8630000000,,5.35709229177e-05,-7.58119466467e-07,-5.35709229384e-05,7.58119445823e-07
8652000000,216,8652000000,,5.23049025691e-05,6.41315524574e-06,-5.23049025898e-05,-6.41315526638e-06
8697000000,217,8697000000,,2.69068408992e-05,2.59719057126e-05,-2.690684092e-05,-2.59719057332e-05
8724000000,218,8724000000,,1.10947558266e-05,3.83223117611e-05,-1.10947558473e-05,-3.83223117817e-05
8776000000,219,8776000000,,5.7037873754e-07,4.50195469574e-05,-5.7037875827e-07,-4.5019546978e-05
8803000000,220,8803000000,,2.08670321509e-05,4.31168561121e-05,-2.08670321716e-05,-4.31168561327e-05
8854000000,221,8854000000,,2.35039963427e-05,4.76200918572e-05,-2.35039963634e-05,-4.76200918778e-05
8894000000,222,8894000000,,1.99266754965e-05,5.37722926796e-05,-1.99266755172e-05,-5.37722927002e-05
8929000000,223,8929000000,,1.45436024081e-05,5.96442383368e-05,-1.45436024288e-05,-5.96442383574e-05
8964000000,224,8964000000,,8.80979253568e-06,6.45265497052e-05,-8.80979255632e-06,-6.45265497257e-05
9026000000,225,9026000000,,2.8734120765e-06,6.82324777131e-05,-2.87341209713e-06,-6.82324777336e-05
9053000000,226,9053000000,,-1.57890660082e-05,4.55660931077e-05,1.57890659876e-05,-4.55660931283e-05
9086000000,227,9086000000,,-2.60955474175e-05,2.8251704796e-05,2.60955473969e-05,-2.82517048165e-05
9131000000,228,9131000000,,-3.14688208122e-05,1.6699400425e-05,3.14688207915e-05,-1.66994004455e-05
9164000000,229,9164000000,,-3.35694405145e-05,6.77734807474e-06,3.35694404939e-05,-6.77734809525e-06
9204000000,230,9204000000,,-3.31130528437e-05,-2.55116710756e-07,3.31130528231e-05,2.55116690261e-07
9249000000,231,9249000000,,-3.16049100541e-05,-6.36155162646e-06,3.16049100335e-05,6.36155160598e-06
9289000000,232,9289000000,,-2.89361272764e-05,-1.10696344216e-05,2.89361272558e-05,1.10696344011e-05
9325000000,233,9325000000,,-2.60508675797e-05,-1.47333898305e-05,2.60508675591e-05,1.47333898101e-05
9374000000,234,9374000000,,-2.29198829573e-05,-1.8018692592e-05,2.29198829367e-05,1.80186925716e-05
9418000000,235,9418000000,,-1.94534533679e-05,-1.99780918402e-05,1.94534533473e-05,1.99780918197e-05
9444000000,236,9444000000,,-3.78752412744e-05,-7.24046854087e-06,3.78752412538e-05,7.2404685204e-06
9496000000,237,9496000000,,-4.79635599795e-05,-7.10196083345e-06,4.79635599589e-05,7.10196081297e-06
9534000000,238,9534000000,,-5.0065099358e-05,-1.10185648574e-05,5.00650993374e-05,1.10185648369e-05
9572000000,239,9572000000,,-4.93633909572e-05,-1.59040152957e-05,4.93633909366e-05,1.59040152752e-05
9606000000,240,9606000000,,-4.74981678816e-05,-2.09003036756e-05,4.74981678611e-05,2.09003036551e-05
9649000000,241,9649000000,,-1.77610596903e-05,-2.72333912105e-05,1.77610596698e-05,2.72333911901e-05
9687000000,242,9687000000,,1.06320040168e-06,-3.06716657526e-05,-1.06320042218e-06,3.06716657322e-05
9733000000,243,9733000000,,1.33952105345e-05,-3.21133210812e-05,-1.33952105549e-05,3.21133210608e-05
9765000000,244,9765000000,,2.12940134531e-05,-3.22587383551e-05,-2.12940134735e-05,3.22587383348e-05
9810000000,245,9810000000,,1.17033372879e-06,-4.12243216857e-05,-1.17033374923e-06,4.12243216654e-05
9851000000,246,9851000000,,-7.2584015763e-08,-4.63623612948e-05,7.25839953261e-08,4.63623612745e-05
9892000000,247,9892000000,,5.13306488471e-06,-4.95637856694e-05,-5.13306490515e-06,4.95637856491e-05
9923000000,248,9923000000,,1.18155698654e-05,-5.15946833717e-05,-1.18155698858e-05,5.15946833514e-05
9978000000,249,9978000000,,1.8584000578e-05,-5.25846314699e-05,-1.85840005984e-05,5.25846314495e-05
10027000000,250,10027000000,,3.46546348207e-05,-2.73316328768e-05,-3.46546348411e-05,2.73316328565e-05
10055000000,251,10055000000,,4.42924590555e-05,-9.09375678168e-06,-4.42924590759e-05,9.09375676136e-06
10093000000,252,10093000000,,4.97724538738e-05,3.44492669475e-06,-4.97724538942e-05,-3.44492671508e-06
10128000000,253,10128000000,,5.21282599308e-05,1.1989034068e-05,-5.21282599512e-05,-1.19890340883e-05
10163000000,254,10163000000,,5.25555588077e-05,1.84853668271e-05,-5.25555588282e-05,-1.84853668474e-05
10217000000,255,10217000000,,5.17809461276e-05,2.21590809381e-05,-5.1780946148e-05,-2.21590809584e-05
10253000000,256,10253000000,,6.26237851796e-05,2.52168597837e-06,-6.26237851999e-05,-2.52168599864e-06
10299000000,257,10299000000,,6.89453389756e-05,5.57570241474e-07,-6.89453389959e-05,-5.57570261725e-07
10339000000,258,10339000000,,7.28096996663e-05,4.67168753997e-06,-7.28096996867e-05,-4.67168756021e-06
10375000000,259,10375000000,,7.51833836572e-05,1.0050624725e-05,-7.51833836775e-05,-1.00506247453e-05
10423000000,260,10423000000,,7.63926366039e-05,1.53869285569e-05,-7.63926366242e-05,-1.53869285771e-05
10450000000,261,10450000000,,4.67041276299e-05,2.7451931823e-05,-4.67041276502e-05,-2.74519318432e-05
10499000000,262,10499000000,,2.80694059877e-05,3.1580888324e-05,-2.8069406008e-05,-3.15808883442e-05
10542000000,263,10542000000,,1.5330812903e-05,3.33386312594e-05,-1.53308129232e-05,-3.33386312796e-05
10569000000,264,10569000000,,6.75277543898e-06,3.33068848834e-05,-6.75277545927e-06,-3.33068849036e-05
10632000000,265,10632000000,,2.16610783401e-06,3.19919702035e-05,-2.16610785428e-06,-3.19919702237e-05
10652000000,266,10652000000,,-2.27709345108e-06,2.88710875711e-05,2.27709343083e-06,-2.88710875912e-05
10693000000,267,10693000000,,-3.219946279e-06,2.62906541164e-05,3.21994625876e-06,-2.62906541365e-05
10724000000,268,10724000000,,1.32135463202e-05,4.13181355158e-05,-1.32135463404e-05,-4.13181355359e-05
10777000000,269,10777000000,,1.44635991083e-05,4.69623605466e-05,-1.44635991285e-05,-4.69623605667e-05
10803000000,270,10803000000,,1.09694607217e-05,4.86930253997e-05,-1.09694607419e-05,-4.86930254198e-05
10863000000,271,10863000000,,6.45563349784e-06,4.86194621141e-05,-6.455633518e-06,-4.86194621341e-05
10885000000,272,10885000000,,-2.98942111964e-06,1.98111196701e-05,2.9894210995e-06,-1.98111196902e-05
10928000000,273,10928000000,,-8.45029238229e-06,8.65605634915e-07,8.45029236217e-06,-8.65605654923e-07
10965000000,274,10965000000,,-1.13394951882e-05,-1.26740265861e-05,1.13394951681e-05,1.26740265661e-05
11016000000,275,11016000000,,-1.26652450069e-05,-2.09593240563e-05,1.26652449868e-05,2.09593240363e-05
11055000000,276,11055000000,,-1.33372198399e-05,-2.79916604144e-05,1.33372198198e-05,2.79916603944e-05
11094000000,277,11094000000,,-1.27412623919e-05,-3.17991669222e-05,1.27412623719e-05,3.17991669022e-05
11134000000,278,11134000000,,-2.16137603135e-05,-1.40934872041e-05,2.16137602934e-05,1.40934871842e-05
11175000000,279,11175000000,,-2.6423473172e-05,-1.32802592124e-05,2.64234731519e-05,1.32802591924e-05
11217000000,280,11217000000,,-2.92615902409e-05,-1.80240638276e-05,2.92615902208e-05,1.80240638076e-05
11256000000,281,11256000000,,-3.0996029033e-05,-2.38903379839e-05,3.09960290129e-05,2.38903379639e-05
11305000000,282,11305000000,,-3.18692546519e-05,-2.97227548468e-05,3.18692546319e-05,2.97227548268e-05
11354000000,283,11354000000,,-3.18970414716e-05,-3.53746462695e-05,3.18970414515e-05,3.53746462495e-05
11365000000,284,11365000000,,-3.05287176714e-05,-4.15005094614e-05,3.05287176514e-05,4.15005094415e-05
11422000000,285,11422000000,,-2.87598928031e-05,-4.65318092203e-05,2.87598927831e-05,4.65318092004e-05
11448000000,286,11448000000,,2.95236406413e-06,-4.59874944715e-05,-2.95236408411e-06,4.59874944516e-05
11509000000,287,11509000000,,2.11908830514e-05,-4.41049324205e-05,-2.11908830713e-05,4.41049324006e-05
11529000000,288,11529000000,,3.44424810792e-05,-4.13729157334e-05,-3.44424810992e-05,4.13729157136e-05
11570000000,289,11570000000,,4.08085346277e-05,-3.79379418698e-05,-4.08085346476e-05,3.793794185e-05
11620000000,290,11620000000,,4.50075014154e-05,-3.43192359047e-05,-4.50075014354e-05,3.43192358848e-05
11654000000,291,11654000000,,4.61308806328e-05,-3.02366280024e-05,-4.61308806528e-05,3.02366279826e-05
11689000000,292,11689000000,,3.51720287056e-05,-4.99476994197e-05,-3.51720287255e-05,4.99476993999e-05
11744000000,293,11744000000,,3.59289596616e-05,-5.57578517853e-05,-3.59289596815e-05,5.57578517655e-05
11776000000,294,11776000000,,4.00823802916e-05,-5.60532205969e-05,-4.00823803115e-05,5.60532205771e-05
11803000000,295,11803000000,,4.45898675866e-05,-5.40801194911e-05,-4.45898676065e-05,5.40801194713e-05
11849000000,296,11849000000,,4.34990252249e-05,-2.1033116728e-05,-4.34990252447e-05,2.10331167082e-05
11898000000,297,11898000000,,3.74284049588e-05,-3.62072529567e-06,-3.74284049787e-05,3.6207252759e-06
11938000000,298,11938000000,,3.3334354505e-05,9.14222401408e-06,-3.33343545249e-05,-9.14222403384e-06
11972000000,299,11972000000,,2.95029272513e-05,1.69073095614e-05,-2.95029272711e-05,-1.69073095811e-05
12025000000,300,12025000000,,2.70251203276e-05,2.25658277716e-05,-2.70251203474e-05,-2.25658277913e-05
12050000000,301,12050000000,,2.43708340322e-05,2.60967152061e-05,-2.4370834052e-05,-2.60967152257e-05
12085000000,302,12085000000,,4.13882567884e-05,1.31459588187e-05,-4.13882568082e-05,-1.31459588384e-05
12148000000,303,12148000000,,4.65532997286e-05,1.43632900884e-05,-4.65532997483e-05,-1.4363290108e-05
12181000000,304,12181000000,,4.73164483102e-05,1.98327087548e-05,-4.73164483299e-05,-1.98327087744e-05
12213000000,305,12213000000,,4.64189198851e-05,2.59747725211e-05,-4.64189199049e-05,-2.59747725407e-05
12254000000,306,12254000000,,4.46947161736e-05,3.17256451927e-05,-4.46947161933e-05,-3.17256452123e-05
12313000000,307,12313000000,,4.21575176721e-05,3.69857626444e-05,-4.21575176919e-05,-3.6985762664e-05
12356000000,308,12356000000,,3.79951258895e-05,4.2154950978e-05,-3.79951259092e-05,-4.21549509975e-05
12368000000,309,12368000000,,8.61290109684e-06,3.38512370751e-05,-8.61290111653e-06,-3.38512370947e-05
12410000000,310,12410000000,,-9.06515242443e-06,2.72763343247e-05,9.06515240475e-06,-2.72763343443e-05
12461000000,311,12461000000,,-1.87365472868e-05,2.14620309216e-05,1.87365472671e-05,-2.14620309412e-05
12484000000,312,12484000000,,-2.45401956344e-05,1.64074736807e-05,2.45401956148e-05,-1.64074737002e-05
12523000000,313,12523000000,,-2.69228499873e-05,1.19842375534e-05,2.69228499677e-05,-1.1984237573e-05
12573000000,314,12573000000,,-2.77805950984e-05,7.54520158521e-06,2.77805950788e-05,-7.54520160472e-06
12607000000,315,12607000000,,-2.38308961484e-05,2.94837199236e-05,2.38308961288e-05,-2.94837199431e-05
12659000000,316,12659000000,,-2.65773754624e-05,3.48811300351e-05,2.65773754429e-05,-3.48811300545e-05
12699000000,317,12699000000,,-3.08522319768e-05,3.42015417384e-05,3.08522319572e-05,-3.42015417578e-05
12731000000,318,12731000000,,-3.48548528618e-05,3.13246399685e-05,3.48548528423e-05,-3.13246399879e-05
12779000000,319,12779000000,,-2.50683676942e-05,1.05078099147e-06,2.50683676747e-05,-1.05078101083e-06
12806000000,320,12806000000,,-1.82020658901e-05,-1.98870221233e-05,1.82020658707e-05,1.98870221039e-05
12861000000,321,12861000000,,-1.25347091673e-05,-3.29879595909e-05,1.25347091479e-05,3.29879595716e-05
12885000000,322,12885000000,,-8.51219505232e-06,-4.40887830561e-05,8.51219503291e-06,4.40887830368e-05
12937000000,323,12937000000,,-5.22123843584e-06,-5.10815584065e-05,5.22123841644e-06,5.10815583872e-05
12978000000,324,12978000000,,-2.44116445839e-06,-5.45637475986e-05,2.44116443901e-06,5.45637475793e-05
13015000000,325,13015000000,,-2.10988518898e-05,-4.32930743557e-05,2.10988518705e-05,4.32930743364e-05
13056000000,326,13056000000,,-2.59187965823e-05,-4.51496292518e-05,2.5918796563e-05,4.51496292325e-05
13092000000,327,13092000000,,-2.55573672129e-05,-5.09342788559e-05,2.55573671935e-05,5.09342788367e-05
13131000000,328,13131000000,,-2.3557371145e-05,-5.7041825694e-05,2.35573711256e-05,5.70418256747e-05
13168000000,329,13168000000,,-2.08664415582e-05,-6.24669821573e-05,2.08664415388e-05,6.24669821381e-05
13212000000,330,13212000000,,-1.74517538638e-05,-6.70956222755e-05,1.74517538444e-05,6.70956222562e-05
13250000000,331,13250000000,,8.54937345791e-06,-5.47865378518e-05,-8.54937347724e-06,5.47865378326e-05
13301000000,332,13301000000,,2.61725530319e-05,-4.46629271301e-05,-2.61725530511e-05,4.46629271109e-05
13327000000,333,13327000000,,3.6780675199e-05,-3.63884635222e-05,-3.67806752183e-05,3.6388463503e-05
13377000000,334,13377000000,,4.26126389101e-05,-2.89843117298e-05,-4.26126389294e-05,2.89843117107e-05
13423000000,335,13423000000,,4.57508830554e-05,-2.32596383323e-05,-4.57508830746e-05,2.32596383133e-05
13460000000,336,13460000000,,4.63176940444e-05,-1.70161398835e-05,-4.63176940635e-05,1.70161398644e-05
13486000000,337,13486000000,,4.59889597046e-05,-1.23842427081e-05,-4.59889597238e-05,1.23842426891e-05
13539000000,338,13539000000,,4.48317012291e-05,-7.7173098823e-06,-4.48317012482e-05,7.71730986331e-06
13571000000,339,13571000000,,4.30577909244e-05,-4.0941822838e-06,-4.30577909435e-05,4.09418226483e-06
13629000000,340,13629000000,,5.14019324523e-05,-2.44279649386e-05,-5.14019324714e-05,2.44279649196e-05
13652000000,341,13652000000,,5.63541124429e-05,-2.80055334242e-05,-5.63541124619e-05,2.80055334052e-05
13683000000,342,13683000000,,5.93246370878e-05,-2.49575901209e-05,-5.93246371068e-05,2.49575901019e-05
13741000000,343,13741000000,,6.12184377483e-05,-2.02686859543e-05,-6.12184377673e-05,2.02686859354e-05
13763000000,344,13763000000,,6.22757438484e-05,-1.5106085879e-05,-6.22757438675e-05,1.51060858601e-05
13820000000,345,13820000000,,3.94924368276e-05,6.95732106842e-06,-3.94924368466e-05,-6.95732108737e-06
13858000000,346,13858000000,,2.33169653528e-05,2.08920779169e-05,-2.33169653719e-05,-2.08920779359e-05
13905000000,347,13905000000,,1.38715766227e-05,3.01413123291e-05,-1.38715766418e-05,-3.0141312348e-05
13924000000,348,13924000000,,6.41488962532e-06,3.5412117954e-05,-6.41488964441e-06,-3.5412117973e-05
13972000000,349,13972000000,,2.96609584748e-06,4.47410204027e-05,-2.96609586655e-06,-4.47410204216e-05
14014000000,350,14014000000,,2.37729606898e-05,4.33689625705e-05,-2.37729607088e-05,-4.33689625894e-05
14042000000,351,14042000000,,2.7183499603e-05,4.28529560245e-05,-2.71834996221e-05,-4.28529560434e-05
14092000000,352,14092000000,,2.41576312641e-05,4.7230464002e-05,-2.41576312831e-05,-4.72304640208e-05
14134000000,353,14134000000,,1.99156681471e-05,5.23022669923e-05,-1.9915668166e-05,-5.23022670111e-05
14169000000,354,14169000000,,1.54889320086e-05,5.65706622095e-05,-1.54889320275e-05,-5.65706622283e-05
14215000000,355,14215000000,,1.09456910656e-05,5.95880350404e-05,-1.09456910845e-05,-5.95880350592e-05
14243000000,356,14243000000,,-4.75004144e-06,3.44147555122e-05,4.75004142115e-06,-3.4414755531e-05
14284000000,357,14284000000,,-1.40398497116e-05,1.82808940142e-05,1.40398496927e-05,-1.8280894033e-05
14331000000,358,14331000000,,-1.87288914816e-05,5.82877525107e-06,1.87288914627e-05,-5.8287752698e-06
14371000000,359,14371000000,,-2.09426694437e-05,-2.58465570156e-06,2.09426694249e-05,2.58465568284e-06
14412000000,360,14412000000,,-2.14163109338e-05,-9.87150723323e-06,2.1416310915e-05,9.87150721452e-06
14454000000,361,14454000000,,-2.05880168639e-05,-1.51002465885e-05,2.05880168451e-05,1.51002465698e-05
14497000000,362,14497000000,,-1.92510553342e-05,-1.9441462444e-05,1.92510553154e-05,1.94414624254e-05
14539000000,363,14539000000,,-1.71952963042e-05,-2.2858142837e-05,1.71952962854e-05,2.28581428184e-05
14589000000,364,14589000000,,-2.89212539281e-05,-4.21361539797e-06,2.89212539093e-05,4.21361537932e-06
14613000000,365,14613000000,,-3.4063057991e-05,-1.91862565619e-06,3.40630579723e-05,1.91862563757e-06
14655000000,366,14655000000,,-3.60337088613e-05,-5.81216612109e-06,3.60337088426e-05,5.81216610249e-06
14692000000,367,14692000000,,-3.66438221884e-05,-1.10101307674e-05,3.66438221697e-05,1.10101307488e-05
14729000000,368,14729000000,,-3.63870789516e-05,-1.62750926883e-05,3.6387078933e-05,1.62750926698e-05
14799000000,369,14799000000,,-3.51518023705e-05,-2.16160314047e-05,3.51518023519e-05,2.16160313862e-05
14832000000,370,14832000000,,-5.10049551965e-06,-3.30112506575e-05,5.10049550109e-06,3.30112506391e-05
14849000000,371,14849000000,,2.22237570837e-05,-4.23040054628e-05,-2.22237571022e-05,4.23040054444e-05
14886000000,372,14886000000,,3.21616686996e-05,-4.52672191616e-05,-3.21616687181e-05,4.52672191432e-05
14938000000,373,14938000000,,3.75024742692e-05,-4.62224756168e-05,-3.75024742877e-05,4.62224755984e-05
14973000000,374,14973000000,,4.02250837376e-05,-4.56546078196e-05,-4.02250837561e-05,4.56546078013e-05
15012000000,375,15012000000,,2.11936419393e-05,-5.37867202631e-05,-2.11936419578e-05,5.37867202447e-05
15048000000,376,15048000000,,1.99247818329e-05,-5.91091435355e-05,-1.99247818514e-05,5.91091435171e-05
15102000000,377,15102000000,,2.46370661485e-05,-6.25763581181e-05,-2.4637066167e-05,6.25763580997e-05
15127000000,378,15127000000,,3.02836255115e-05,-6.47478277056e-05,-3.028362553e-05,6.47478276872e-05
15174000000,379,15174000000,,3.55641505888e-05,-6.57589690082e-05,-3.55641506073e-05,6.57589689899e-05
15204000000,380,15204000000,,4.17819692771e-05,-3.7197737468e-05,-4.17819692956e-05,3.71977374497e-05
15244000000,381,15244000000,,4.48778543234e-05,-1.82658445797e-05,-4.48778543418e-05,1.82658445614e-05
15297000000,382,15297000000,,4.59034148404e-05,-5.41583330447e-06,-4.59034148588e-05,5.4158332862e-06
15338000000,383,15338000000,,4.56429365884e-05,4.23260579991e-06,-4.56429366067e-05,-4.23260581814e-06
15389000000,384,15389000000,,4.44337346321e-05,1.06574378697e-05,-4.44337346504e-05,-1.06574378879e-05
15410000000,385,15410000000,,4.29599141157e-05,1.62749349968e-05,-4.2959914134e-05,-1.6274935015e-05
15460000000,386,15460000000,,4.07420889355e-05,1.92692484013e-05,-4.07420889538e-05,-1.92692484194e-05
15495000000,387,15495000000,,5.55009811956e-05,2.10319330527e-06,-5.55009812139e-05,-2.10319332345e-06
15527000000,388,15527000000,,6.0963288703e-05,1.10555464238e-06,-6.09632887212e-05,-1.10555466054e-06
15567000000,389,15567000000,,6.25075977511e-05,5.53200463772e-06,-6.25075977693e-05,-5.53200465586e-06
15617000000,390,15617000000,,6.25647613733e-05,1.09765230473e-05,-6.25647613916e-05,-1.09765230654e-05
15649000000,391,15649000000,,6.1668902684e-05,1.64152053663e-05,-6.16689027022e-05,-1.64152053844e-05
15701000000,392,15701000000,,5.97673391521e-05,2.17264764543e-05,-5.97673391703e-05,-2.17264764724e-05
15739000000,393,15739000000,,2.9299103963e-05,2.76378932318e-05,-2.92991039811e-05,-2.76378932499e-05
15763000000,394,15763000000,,9.70704389173e-06,3.04223348588e-05,-9.70704390986e-06,-3.04223348768e-05
15818000000,395,15818000000,,-2.23880381306e-06,3.1669437145e-05,2.23880379496e-06,-3.1669437163e-05
15847000000,396,15847000000,,-8.77669671177e-06,3.02572783143e-05,8.77669669371e-06,-3.02572783322e-05
15899000000,397,15899000000,,-1.32603084845e-05,2.83798582507e-05,1.32603084664e-05,-2.83798582687e-05
15924000000,398,15924000000,,2.62400696101e-06,4.15089167412e-05,-2.62400697901e-06,-4.15089167591e-05
15982000000,399,15982000000,,2.76250524616e-06,4.7098469548e-05,-2.76250526414e-06,-4.70984695658e-05
16010000000,400,16010000000,,-1.91329559817e-06,4.92782787212e-05,1.91329558021e-06,-4.92782787391e-05
16072000000,401,16072000000,,-7.46504754575e-06,4.97963765502e-05,7.4650475278e-06,-4.97963765681e-05
16094000000,402,16094000000,,-1.46956344133e-05,2.08823209916e-05,1.46956343954e-05,-2.08823210094e-05
16143000000,403,16143000000,,-1.76405890726e-05,1.29605524295e-06,1.76405890547e-05,-1.29605526077e-06
16180000000,404,16180000000,,-1.86123354579e-05,-1.22161980055e-05,1.861233544e-05,1.22161979877e-05
16205000000,405,16205000000,,-1.84299412974e-05,-2.30385099396e-05,1.84299412795e-05,2.30385099218e-05
16251000000,406,16251000000,,-1.71597669186e-05,-2.93230994954e-05,1.71597669008e-05,2.93230994776e-05
16291000000,407,16291000000,,-1.60598143983e-05,-3.48089305292e-05,1.60598143804e-05,3.48089305114e-05
16336000000,408,16336000000,,-1.37305574502e-05,-3.75916823764e-05,1.37305574323e-05,3.75916823586e-05
16377000000,409,16377000000,,-2.86682629116e-05,-2.16774341138e-05,2.86682628937e-05,2.16774340961e-05
16406000000,410,16406000000,,-3.42721929875e-05,-2.13489398705e-05,3.42721929697e-05,2.13489398528e-05
16451000000,411,16451000000,,-3.59742967587e-05,0.000330666977345,3.59742967409e-05,-0.000330666977362
16494000000,412,16494000000,,-1.5431445874e-05,0.000849744466429,1.54314458562e-05,-0.000849744466447
16525000000,413,16525000000,,-1.90860202529e-06,0.00143059553541,1.90860200756e-06,-0.00143059553543
16565000000,414,16565000000,,6.61555608642e-06,0.00198448794686,-6.61555610412e-06,-0.00198448794687
16622000000,415,16622000000,,1.24442031193e-05,0.00248480593481,-1.2444203137e-05,-0.00248480593483
16650000000,416,16650000000,,1.5578227954e-05,0.00287025390135,-1.55782279716e-05,-0.00287025390137
16689000000,417,16689000000,,1.87521194334e-05,0.00316832126503,-1.8752119451e-05,-0.00316832126505
16726000000,418,16726000000,,2.00292548103e-05,0.00332809750695,-2.00292548279e-05,-0.00332809750697
16773000000,419,16773000000,,2.15644392684e-05,0.00337444548568,-2.1564439286e-05,-0.0033744454857
16820000000,420,16820000000,,2.21254851897e-05,0.00326091054751,-2.21254852073e-05,-0.00326091054752
16863000000,421,16863000000,,2.29164954425e-05,0.00308586996521,-2.29164954601e-05,-0.00308586996522
16883000000,422,16883000000,,2.33066798601e-05,0.00278283339506,-2.33066798776e-05,-0.00278283339508
16935000000,423,16935000000,,2.37109941279e-05,0.00235091450919,-2.37109941454e-05,-0.00235091450921
16974000000,424,16974000000,,2.4212039908e-05,0.00186964217938,-2.42120399255e-05,-0.00186964217939
17014000000,425,17014000000,,2.43649529226e-05,0.0011626188102,-2.436495294e-05,-0.00116261881022
17055000000,426,17055000000,,2.50502445943e-05,0.000554286150227,-2.50502446117e-05,-0.000554286150245
17095000000,427,17095000000,,2.56509520042e-05,-0.000238426220391,-2.56509520216e-05,0.000238426220374
17171000000,428,17171000000,,2.63528076378e-05,-0.000981454575301,-2.63528076551e-05,0.000981454575284
17200000000,429,17200000000,,2.65655302089e-05,-0.00199609786542,-2.65655302262e-05,0.00199609786541
17221000000,430,17221000000,,2.71624113697e-05,-0.00290617687971,-2.7162411387e-05,0.00290617687969
17254000000,431,17254000000,,2.81512745715e-05,-0.00376251723767,-2.81512745888e-05,0.00376251723765
17288000000,432,17288000000,,2.90114876455e-05,-0.00462903489268,-2.90114876628e-05,0.00462903489267
17327000000,433,17327000000,,3.00092023756e-05,-0.00546559267303,-3.00092023929e-05,0.00546559267301
17370000000,434,17370000000,,3.06898538207e-05,-0.00637996682169,-3.0689853838e-05,0.00637996682167
17412000000,435,17412000000,,3.17838721172e-05,-0.00717781999871,-3.17838721345e-05,0.00717781999869
17452000000,436,17452000000,,3.26990219456e-05,-0.00806321067677,-3.26990219628e-05,0.00806321067676
17508000000,437,17508000000,,3.37840670764e-05,-0.00883971854521,-3.37840670936e-05,0.00883971854519
17545000000,438,17545000000,,3.4911665566e-05,-0.00965993514292,-3.49116655831e-05,0.00965993514291
17571000000,439,17571000000,,3.60295025647e-05,-0.0104129659956,-3.60295025818e-05,0.0104129659955
17620000000,440,17620000000,,3.72444348942e-05,-0.0111627424582,-3.72444349113e-05,0.0111627424581
17643000000,441,17643000000,,3.84842536986e-05,-0.0118735733067,-3.84842537156e-05,0.0118735733067
17718000000,442,17718000000,,3.97839378131e-05,-0.0125534681964,-3.97839378301e-05,0.0125534681964
17742000000,443,17742000000,,4.1272555138e-05,-0.0131852141791,-4.12725551549e-05,0.0131852141791
17774000000,444,17774000000,,4.27081549652e-05,-0.0138291779851,-4.27081549821e-05,0.013829177985
17818000000,445,17818000000,,4.42597438287e-05,-0.0144264654276,-4.42597438456e-05,0.0144264654276
17856000000,446,17856000000,,4.61923959166e-05,-0.0149333366292,-4.61923959334e-05,0.0149333366292
17891000000,447,17891000000,,4.78318251014e-05,-0.0154951967064,-4.78318251182e-05,0.0154951967064
17948000000,448,17948000000,,4.9709928194e-05,-0.0160485963597,-4.97099282108e-05,0.0160485963597
17979000000,449,17979000000,,5.16612563092e-05,-0.0165590938042,-5.1661256326e-05,0.0165590938042
18024000000,450,18024000000,,5.38774924316e-05,-0.0170620538837,-5.38774924483e-05,0.0170620538836
18057000000,451,18057000000,,6.37310141079e-05,-0.0175474314727,-6.37310141246e-05,0.0175474314727
18096000000,452,18096000000,,7.09963346654e-05,-0.0180073479067,-7.0996334682e-05,0.0180073479067
18138000000,453,18138000000,,7.6097722733e-05,-0.0184969688031,-7.60977227496e-05,0.0184969688031
18183000000,454,18183000000,,7.98866983158e-05,-0.0189401762657,-7.98866983323e-05,0.0189401762657
18228000000,455,18228000000,,8.30012341367e-05,-0.0194272632565,-8.30012341532e-05,0.0194272632565
18255000000,456,18255000000,,8.52590725385e-05,-0.0198734607775,-8.52590725549e-05,0.0198734607775
18298000000,457,18298000000,,8.75121823383e-05,-0.0203588575538,-8.75121823546e-05,0.0203588575538
18323000000,458,18323000000,,8.9302774398e-05,-0.020831291213,-8.93027744143e-05,0.020831291213
18369000000,459,18369000000,,9.22224982905e-05,-0.0213229932427,-9.22224983067e-05,0.0213229932427
18436000000,460,18436000000,,9.45654353806e-05,-0.0218280270899,-9.45654353967e-05,0.0218280270899
18451000000,461,18451000000,,9.69146750687e-05,-0.0223107801836,-9.69146750848e-05,0.0223107801836
18486000000,462,18486000000,,9.89258263571e-05,-0.0228408828174,-9.89258263732e-05,0.0228408828174
18553000000,463,18553000000,,0.000100976560059,-0.0233534939099,-0.000100976560076,0.0233534939099
18573000000,464,18573000000,,0.000103061273883,-0.0238840603894,-0.000103061273899,0.0238840603894
18612000000,465,18612000000,,0.000105265542851,-0.0244154266982,-0.000105265542867,0.0244154266982
18649000000,466,18649000000,,0.000107596828323,-0.0249633877695,-0.000107596828339,0.0249633877695
18686000000,467,18686000000,,0.000109974824068,-0.0255130041436,-0.000109974824084,0.0255130041436
18736000000,468,18736000000,,0.00011243456065,-0.0260730360676,-0.000112434560666,0.0260730360676
18773000000,469,18773000000,,0.000114889201373,-0.0266446163766,-0.000114889201388,0.0266446163766
18813000000,470,18813000000,,0.000117393215126,-0.0272238717689,-0.000117393215142,0.0272238717688
18848000000,471,18848000000,,0.000119823492511,-0.0278122454681,-0.000119823492527,0.027812245468
18892000000,472,18892000000,,0.000122265098574,-0.0284154547634,-0.00012226509859,0.0284154547634
18930000000,473,18930000000,,0.000124693128311,-0.0290171381203,-0.000124693128327,0.0290171381203
18978000000,474,18978000000,,0.00012709238804,-0.0296363128606,-0.000127092388056,0.0296363128606
19006000000,475,19006000000,,0.000129585979272,-0.030251254297,-0.000129585979287,0.030251254297
19054000000,476,19054000000,,0.00013208318293,-0.0308752540907,-0.000132083182945,0.0308752540907
19099000000,477,19099000000,,0.000134623681478,-0.0314964288175,-0.000134623681494,0.0314964288174
19137000000,478,19137000000,,0.000137199212836,-0.0321199133741,-0.000137199212851,0.0321199133741
19177000000,479,19177000000,,0.000139840629942,-0.032744174892,-0.000139840629957,0.032744174892
19213000000,480,19213000000,,0.000142542920659,-0.0333606454209,-0.000142542920674,0.0333606454209
19255000000,481,19255000000,,0.000145265755461,-0.0339857124204,-0.000145265755476,0.0339857124203
19305000000,482,19305000000,,0.000148129428463,-0.0345927866002,-0.000148129428478,0.0345927866002
19353000000,483,19353000000,,0.000150927586226,-0.0352120879367,-0.000150927586241,0.0352120879367
19380000000,484,19380000000,,0.000154120924035,-0.0358177121738,-0.000154120924051,0.0358177121738
19402000000,485,19402000000,,0.00015693873671,-0.0364240159273,-0.000156938736726,0.0364240159273
19458000000,486,19458000000,,0.000159879100931,-0.0370194143466,-0.000159879100947,0.0370194143465
19496000000,487,19496000000,,0.000162758045595,-0.0376163455709,-0.00016275804561,0.0376163455709
19554000000,488,19554000000,,0.000165745576082,-0.0382054336148,-0.000165745576097,0.0382054336148
19578000000,489,19578000000,,0.000168931951784,-0.0387794141985,-0.000168931951799,0.0387794141985
19610000000,490,19610000000,,0.000171866693893,-0.0393639010942,-0.000171866693908,0.0393639010942
19653000000,491,19653000000,,0.000174795495506,-0.0399405032214,-0.000174795495521,0.0399405032214
19700000000,492,19700000000,,0.000177672372082,-0.0404918448486,-0.000177672372097,0.0404918448486
19733000000,493,19733000000,,0.000180617340768,-0.0410860828212,-0.000180617340783,0.0410860828211
19777000000,494,19777000000,,0.000183892812047,-0.0416447861098,-0.000183892812062,0.0416447861098
19817000000,495,19817000000,,0.000187193491369,-0.0422095401695,-0.000187193491383,0.0422095401694
19854000000,496,19854000000,,0.000190730011378,-0.0427472769722,-0.000190730011393,0.0427472769722
19910000000,497,19910000000,,0.000194026506765,-0.0433046999148,-0.00019402650678,0.0433046999147
19940000000,498,19940000000,,0.000197569297259,-0.0438416732384,-0.000197569297274,0.0438416732383
19966000000,499,19966000000,,0.000200953877702,-0.0443912243176,-0.000200953877717,0.0443912243176
20004000000,500,20004000000,,0.00020433929341,-0.0449411594553,-0.000204339293425,0.0449411594553
20060000000,501,20060000000,,0.000207766694725,-0.0454831670774,-0.00020776669474,0.0454831670774
20097000000,502,20097000000,,0.000211342110389,-0.0460279467503,-0.000211342110403,0.0460279467502
20137000000,503,20137000000,,0.000214829181762,-0.0465656726716,-0.000214829181777,0.0465656726716
20163000000,504,20163000000,,0.000218539990223,-0.0471078158677,-0.000218539990237,0.0471078158676
20203000000,505,20203000000,,0.000222139362983,-0.0476460845259,-0.000222139362997,0.0476460845259
20247000000,506,20247000000,,0.000225905279377,-0.0481871153967,-0.000225905279391,0.0481871153967
20283000000,507,20283000000,,0.000224204995987,-0.0487222270363,-0.000224204996002,0.0487222270363
20331000000,508,20331000000,,0.000224474154513,-0.0492689731018,-0.000224474154527,0.0492689731018
20364000000,509,20364000000,,0.000226199725005,-0.0498155922767,-0.00022619972502,0.0498155922767
20405000000,510,20405000000,,0.00022903875568,-0.0503587682056,-0.000229038755694,0.0503587682056
20447000000,511,20447000000,,0.000232447252856,-0.0512619287378,-0.000232447252871,0.0512619287378
20484000000,512,20484000000,,0.000236389499647,-0.052328517789,-0.000236389499661,0.052328517789
20531000000,513,20531000000,,0.000241576364298,-0.0534537636061,-0.000241576364312,0.0534537636061
20561000000,514,20561000000,,0.000245619361752,-0.0545495990102,-0.000245619361767,0.0545495990102
20602000000,515,20602000000,,0.00025007238694,-0.055572647923,-0.000250072386954,0.055572647923
20657000000,516,20657000000,,0.000254549536577,-0.0564956911156,-0.000254549536591,0.0564956911156
20707000000,517,20707000000,,0.000259237874417,-0.0573391461489,-0.000259237874431,0.0573391461488
20741000000,518,20741000000,,0.000263940422287,-0.058059533842,-0.000263940422301,0.058059533842
20781000000,519,20781000000,,0.000268526502642,-0.0586350520159,-0.000268526502657,0.0586350520159
20826000000,520,20826000000,,0.000273162442876,-0.0591169200644,-0.00027316244289,0.0591169200644
20863000000,521,20863000000,,0.000277743129484,-0.0594036936596,-0.000277743129498,0.0594036936596
20888000000,522,20888000000,,0.000282078415993,-0.0596560514912,-0.000282078416007,0.0596560514912
20933000000,523,20933000000,,0.000286346053661,-0.0597407517985,-0.000286346053675,0.0597407517984
20981000000,524,20981000000,,0.00029043606493,-0.0597840757678,-0.000290436064943,0.0597840757678
21014000000,525,21014000000,,0.000294625405931,-0.0596976594126,-0.000294625405945,0.0596976594126
21061000000,526,21061000000,,0.000298588180381,-0.0595644821336,-0.000298588180395,0.0595644821336
21101000000,527,21101000000,,0.000302901618697,-0.0593763492961,-0.00030290161871,0.0593763492961
21147000000,528,21147000000,,0.000306274029959,-0.0590924839019,-0.000306274029973,0.0590924839018
21201000000,529,21201000000,,0.000310928228175,-0.0588465820898,-0.000310928228189,0.0588465820898
21234000000,530,21234000000,,0.000315862341261,-0.0583937662262,-0.000315862341274,0.0583937662262
21251000000,531,21251000000,,0.000320148917407,-0.0579780906352,-0.00032014891742,0.0579780906352
21290000000,532,21290000000,,0.00032441636026,-0.0576653764679,-0.000324416360274,0.0576653764679
21326000000,533,21326000000,,0.000327761648347,-0.0574312615546,-0.000327761648361,0.0574312615546
21374000000,534,21374000000,,0.000327153287061,-0.0571092439755,-0.000327153287075,0.0571092439755
21415000000,535,21415000000,,0.000327678657594,-0.0568283241751,-0.000327678657608,0.0568283241751
21473000000,536,21473000000,,0.000329721000113,-0.0565094244683,-0.000329721000127,0.0565094244683
21496000000,537,21496000000,,0.00033133340985,-0.0561437547442,-0.000331333409863,0.0561437547442
21538000000,538,21538000000,,0.000334645932911,-0.0557733951607,-0.000334645932925,0.0557733951607
21577000000,539,21577000000,,0.000336899481873,-0.0553652976079,-0.000336899481887,0.0553652976079
21612000000,540,21612000000,,0.000340633272485,-0.055014091547,-0.000340633272498,0.055014091547
21661000000,541,21661000000,,0.000344415054669,-0.0546694548672,-0.000344415054683,0.0546694548672
21688000000,542,21688000000,,0.000347591807261,-0.0544152935382,-0.000347591807274,0.0544152935381
21734000000,543,21734000000,,0.00035080775619,-0.0542034290689,-0.000350807756203,0.0542034290689
21790000000,544,21790000000,,0.000353736253935,-0.0544144172887,-0.000353736253948,0.0544144172886
21818000000,545,21818000000,,0.000356668151108,-0.0548476321503,-0.000356668151121,0.0548476321503
21848000000,546,21848000000,,0.000359731044071,-0.0553728783162,-0.000359731044084,0.0553728783162
21892000000,547,21892000000,,0.000362802429346,-0.0559018965839,-0.000362802429359,0.0559018965839
21925000000,548,21925000000,,0.000365877736034,-0.0564031598867,-0.000365877736047,0.0564031598867
21964000000,549,21964000000,,0.000367595589887,-0.0568056419657,-0.0003675955899,0.0568056419657
22023000000,550,22023000000,,0.000369122073207,-0.0571294448795,-0.00036912207322,0.0571294448795
22061000000,551,22061000000,,0.000371071230428,-0.057342516392,-0.000371071230441,0.057342516392
22102000000,552,22102000000,,0.000373236375556,-0.0574565992952,-0.000373236375569,0.0574565992951
22148000000,553,22148000000,,0.000375492603966,-0.0575430560436,-0.000375492603979,0.0575430560436
22181000000,554,22181000000,,0.000377913445882,-0.0574371414111,-0.000377913445895,0.0574371414111
22222000000,555,22222000000,,0.000380040953547,-0.0571782402348,-0.00038004095356,0.0571782402348
22267000000,556,22267000000,,0.000382519794594,-0.0568152566991,-0.000382519794607,0.0568152566991
22314000000,557,22314000000,,0.000383742179971,-0.0563615843912,-0.000383742179984,0.0563615843911
22334000000,558,22334000000,,0.000386459342131,-0.0558034660254,-0.000386459342144,0.0558034660254
22373000000,559,22373000000,,0.0003852880587,-0.0551533165306,-0.000385288058713,0.0551533165306
22412000000,560,22412000000,,0.000389135977816,-0.0544907458949,-0.000389135977829,0.0544907458949
22459000000,561,22459000000,,0.000393110563391,-0.0536811269713,-0.000393110563404,0.0536811269713
22483000000,562,22483000000,,0.000394499582847,-0.0529096166172,-0.00039449958286,0.0529096166172
22532000000,563,22532000000,,0.000397051799028,-0.0520325218318,-0.000397051799041,0.0520325218318
22576000000,564,22576000000,,0.000397215785652,-0.0511934232157,-0.000397215785665,0.0511934232157
22613000000,565,22613000000,,0.0003989197297,-0.0502937235891,-0.000398919729712,0.0502937235891
22655000000,566,22655000000,,0.000397171084121,-0.0493968253995,-0.000397171084134,0.0493968253995
22696000000,567,22696000000,,0.000399929956936,-0.0485138220572,-0.000399929956948,0.0485138220571
22729000000,568,22729000000,,0.00039434659996,-0.0475766708303,-0.000394346599973,0.0475766708303
22774000000,569,22774000000,,0.000399416741993,-0.0467275369003,-0.000399416742005,0.0467275369003
22812000000,570,22812000000,,0.000404531794972,-0.0457967081433,-0.000404531794985,0.0457967081433
22846000000,571,22846000000,,0.000405412776235,-0.0449599501764,-0.000405412776248,0.0449599501764
22886000000,572,22886000000,,0.000407298339089,-0.0440739945657,-0.000407298339101,0.0440739945657
22924000000,573,22924000000,,0.000406992340416,-0.0432405564569,-0.000406992340428,0.0432405564569
22985000000,574,22985000000,,0.000408100191423,-0.0423953227639,-0.000408100191436,0.0423953227639
23013000000,575,23013000000,,0.000407005479114,-0.0415804293106,-0.000407005479126,0.0415804293106
23068000000,576,23068000000,,0.000408467705362,-0.0407859727364,-0.000408467705374,0.0407859727364
23092000000,577,23092000000,,0.000406342528817,-0.0400359198421,-0.000406342528829,0.0400359198421
23126000000,578,23126000000,,0.000408421393984,-0.0392887756505,-0.000408421393996,0.0392887756505
23171000000,579,23171000000,,0.000409216229598,-0.0385477316286,-0.00040921622961,0.0385477316286
23204000000,580,23204000000,,0.000411552095606,-0.037872133572,-0.000411552095618,0.037872133572
23254000000,581,23254000000,,0.000410912180757,-0.0371972595095,-0.000410912180769,0.0371972595095
23313000000,582,23313000000,,0.000410708847608,-0.0365261100747,-0.00041070884762,0.0365261100747
23328000000,583,23328000000,,0.000409718317452,-0.0359848199599,-0.000409718317464,0.0359848199599
23376000000,584,23376000000,,0.000410661707941,-0.0353971791139,-0.000410661707953,0.0353971791139
23407000000,585,23407000000,,0.000409376160992,-0.0348149628781,-0.000409376161003,0.0348149628781
23458000000,586,23458000000,,0.00041258448799,-0.0342537158963,-0.000412584488002,0.0342537158963
23499000000,587,23499000000,,0.000409492894494,-0.0336881255297,-0.000409492894506,0.0336881255297
23528000000,588,23528000000,,0.000406161822279,-0.0331681103963,-0.00040616182229,0.0331681103963
23577000000,589,23577000000,,0.00040620847881,-0.0326057754349,-0.000406208478821,0.0326057754349
23620000000,590,23620000000,,0.000403626953839,-0.0320806502801,-0.000403626953851,0.0320806502801
23657000000,591,23657000000,,0.000405143805869,-0.0315261328913,-0.00040514380588,0.0315261328913
23703000000,592,23703000000,,0.000404792879635,-0.0309894883239,-0.000404792879646,0.0309894883239
23734000000,593,23734000000,,0.000406735406578,-0.0304373524818,-0.00040673540659,0.0304373524818
23779000000,594,23779000000,,0.000405593356123,-0.02988230931,-0.000405593356134,0.02988230931
23804000000,595,23804000000,,0.000409636580268,-0.0293265665685,-0.000409636580279,0.0293265665685
