%time,field.header.seq,field.header.stamp,field.header.frame_id,field.angular_velocities0,field.angular_velocities1,field.angular_velocities2,field.angular_velocities3
101000000,1,101000000,,427.0,427.0,427.0,427.0
200000000,2,200000000,,777.026562056,776.972825443,777.029015418,776.972209583
301000000,3,301000000,,509.856706445,509.91021438,509.860760982,509.910176768
401000000,4,401000000,,655.849594541,655.841234953,655.854429762,655.841292924
500000000,5,500000000,,644.781099264,644.783556792,644.786223498,644.783559563
601000000,6,601000000,,579.935022369,579.937542003,579.940255664,579.937544774
700000000,7,700000000,,422.695235187,422.697778305,422.700491966,422.697781077
800000000,8,800000000,,311.569635929,311.582706276,311.57403397,311.582709047
900000000,9,900000000,,300.764647579,300.779142534,300.766223281,300.779145305
1000000000,10,1000000000,,358.919092254,358.905176192,358.918012476,358.905178964
1100000000,11,1100000000,,425.504145623,425.502735911,425.500805344,425.502738682
1203000000,12,1203000000,,472.272594833,472.270097494,472.267096382,472.270100265
1300000000,13,1300000000,,461.310870702,461.307354329,461.303385649,461.3073571
1400000000,14,1400000000,,451.296763353,451.325817479,451.288037642,451.32582025
1500000000,15,1500000000,,409.408768049,409.415993927,409.400042352,409.415918993
1600000000,16,1600000000,,390.169951126,390.176977066,390.161823327,390.176796162
1700000000,17,1700000000,,369.129484529,369.103675559,369.121652675,369.103404323
1800000000,18,1800000000,,405.293959001,405.290479013,405.286168706,405.290004441
1901000000,19,1901000000,,407.806912912,407.803631963,407.799319442,407.802878523
2000000000,20,2000000000,,473.675492107,473.672547264,473.668332372,473.671495891
2100000000,21,2100000000,,429.8202868,429.817715256,429.813882167,429.816694656
2200000000,22,2200000000,,416.862619098,416.860415867,416.857198368,416.859625287
2301000000,23,2301000000,,404.884256321,404.882460505,404.879985788,404.881983454
2400000000,24,2400000000,,429.837313347,429.856508299,429.833680566,429.856850258
2500000000,25,2500000000,,430.930621287,430.934057989,430.926678422,430.935725755
2600000000,26,2600000000,,423.048548259,423.032270873,423.043885881,423.035257223
2700000000,27,2700000000,,419.280154384,419.276116782,419.275354164,419.280240394
2801000000,28,2801000000,,418.649794658,418.645207521,418.644926425,418.650403185
2900000000,29,2900000000,,428.628767803,428.639778264,428.622963455,428.645083668
3000000000,30,3000000000,,421.964888914,421.963996506,421.957723277,421.968669636
3100000000,31,3100000000,,443.408674074,443.392667371,443.400252154,443.396869836
3200000000,32,3200000000,,420.232342137,420.226055885,420.222672154,420.229926914
3300000000,33,3300000000,,428.211593596,428.219159014,428.20069271,428.222484758
3402000000,34,3402000000,,422.967977591,422.966568162,422.95692772,422.968772413
3500000000,35,3500000000,,436.421502063,436.420148538,436.411129687,436.421180502
3602000000,36,3602000000,,428.300459243,428.286819381,428.290456022,428.286651222
3700000000,37,3700000000,,430.581038867,430.58958584,430.571509553,430.588734816
3800000000,38,3800000000,,422.933172078,422.933520669,422.924462602,422.932845224
3901000000,39,3901000000,,417.380147629,417.38012278,417.372275926,417.380289914
4000000000,40,4000000000,,436.531677101,436.520281612,436.524452216,436.521525199
4100000000,41,4100000000,,434.42390661,434.420287599,434.417542772,434.422103412
4200000000,42,4200000000,,443.907019725,443.903631519,443.901603959,443.905981323
4300000000,43,4300000000,,435.785067353,435.781747794,435.780469958,435.784893308
4400000000,44,4400000000,,438.746352331,438.750283151,438.742383181,438.754440351
4500000000,45,4500000000,,428.777148145,428.775128459,428.772653509,428.780327152
4600000000,46,4600000000,,420.257988096,420.255126906,420.252292875,420.260916919
4700000000,47,4700000000,,435.806898431,435.803244699,435.800026065,435.809145535
4800000000,48,4800000000,,425.945202563,425.941349878,425.937498962,425.946847897
4900000000,49,4900000000,,435.414402002,435.410668071,435.406251844,435.415420806
5000000000,50,5000000000,,422.047268709,422.037143272,422.038564037,422.041471934
5100000000,51,5100000000,,430.780804297,430.77478616,430.771448017,430.778816416
5200000000,52,5200000000,,436.78453057,436.784608938,436.774610516,436.788205078
5300000000,53,5300000000,,440.355388567,440.351827565,440.346123608,440.354357008
5400000000,54,5400000000,,428.338905959,428.330240504,428.330136656,428.331646596
5502000000,55,5502000000,,427.82062006,427.816829213,427.812392947,427.817032056
5600000000,56,5600000000,,427.898670724,427.899897022,427.891188737,427.898906677
5700000000,57,5700000000,,434.482441007,434.481627088,434.476004764,434.480753732
5800000000,58,5800000000,,422.488911973,422.488121727,422.483410284,422.488070793
5900000000,59,5900000000,,432.171318757,432.170638277,432.166466796,432.171607889
6000000000,60,6000000000,,441.06751001,441.062254011,441.06280223,441.064222651
6100000000,61,6100000000,,433.949729385,433.946995921,433.945563349,433.949647756
6200000000,62,6200000000,,437.202894121,437.204260303,437.198692517,437.207524955
6300000000,63,6300000000,,435.688115703,435.68567328,435.682848929,435.689406875
6400000000,64,6400000000,,421.099659554,421.092661315,421.093501125,421.096944166
6500000000,65,6500000000,,431.674416086,431.669374706,431.667456254,431.674284113
6600000000,66,6600000000,,431.602739064,431.596961164,431.594847541,431.602419896
6700000000,67,6700000000,,429.642781497,429.640025449,429.634044649,429.644805484
6800000000,68,6800000000,,433.259181801,433.254386961,433.249845005,433.25772286
6901000000,69,6901000000,,424.913833679,424.906349361,424.903800845,424.908486584
7000000000,70,7000000000,,436.48323138,436.477958347,436.472382455,436.479060656
7100000000,71,7100000000,,442.117812086,442.115623573,442.107207042,442.115933938
7200000000,72,7200000000,,440.096887233,440.093257525,440.0872476,440.093147721
7300000000,73,7300000000,,419.540172116,419.536892692,419.531607978,419.536844577
7400000000,74,7400000000,,430.040298332,430.035767711,430.032738237,430.036011127
7500000000,75,7500000000,,435.33732324,435.3344954,435.330542001,435.334601118
7600000000,76,7600000000,,431.108610126,431.107182714,431.102398283,431.107739182
7701000000,77,7701000000,,430.767584614,430.764627811,430.761578442,430.766624352
7800000000,78,7800000000,,431.059199102,431.055050708,431.053639284,431.058170532
7900000000,79,7900000000,,439.55282357,439.548991842,439.547745142,439.553259252
8000000000,80,8000000000,,431.124032469,431.119776782,431.119351239,431.12533139
8101000000,81,8101000000,,428.487492005,428.481772908,428.482282171,428.487924963
8201000000,82,8201000000,,426.651539881,426.645016988,426.645246891,426.651005181
8302000000,83,8302000000,,432.437005672,432.430327822,432.429721139,432.435631867
8400000000,84,8400000000,,433.675656522,433.671754701,433.667640319,433.676174669
8500000000,85,8500000000,,426.491782046,426.48616568,426.482973824,426.490221995
8600000000,86,8600000000,,438.187046834,438.181165083,438.177449207,438.18490128
8700000000,87,8700000000,,435.850620582,435.842460055,435.840942079,435.845285902
8800000000,88,8800000000,,435.986732295,435.983596559,435.9777625,435.985086614
8900000000,89,8900000000,,429.19972443,429.195879932,429.191111076,429.196045163
9000000000,90,9000000000,,426.998703337,426.995670048,426.990435101,426.994482271
9100000000,91,9100000000,,436.095335272,436.089827727,436.08806861,436.088296784
9200000000,92,9200000000,,433.442315761,433.438902829,433.436250027,433.437882205
9300000000,93,9300000000,,419.812988511,419.80986949,419.807784133,419.809840363
9401000000,94,9401000000,,437.388763126,437.385441494,437.384057542,437.386556891
9500000000,95,9500000000,,444.026097891,444.026387636,444.022243952,444.02820428
9600000000,96,9600000000,,434.839671489,434.83766299,434.836776044,434.840104216
9700000000,97,9700000000,,423.806184404,423.797910903,423.803068977,423.801125377
9802000000,98,9802000000,,430.303754262,430.304546935,430.299653092,430.308481207
9900000000,99,9900000000,,428.075674319,428.071793565,428.071019908,428.076589272
10000000000,100,10000000000,,433.743094783,433.730503321,433.737889937,433.736188991
10100000000,101,10100000000,,439.997400136,439.989770122,439.991129326,439.995026587
10200000000,102,10200000000,,427.832490397,427.824498871,427.825122747,427.828625777
10300000000,103,10300000000,,433.115983206,433.116103957,433.107433811,433.119585385
10401000000,104,10401000000,,424.979543612,424.973908679,424.969771703,424.976820589
10500000000,105,10500000000,,437.889819732,437.876191922,437.880032746,437.878221374
10600000000,106,10600000000,,433.689797724,433.681730582,433.680847117,433.682889177
10700000000,107,10700000000,,436.569627063,436.571612713,436.561733243,436.572278261
10800000000,108,10800000000,,426.58857495,426.585387341,426.581247739,426.5853041
10900000000,109,10900000000,,430.153895161,430.140981303,430.147192602,430.140758659
11000000000,110,11000000000,,420.88433628,420.878146185,420.878389679,420.878730234
11100000000,111,11100000000,,434.401935713,434.405835522,434.39660036,434.407714536
11200000000,112,11200000000,,437.29468038,437.291562699,437.290095566,437.294262995
11301000000,113,11301000000,,437.650713262,437.647647881,437.646943124,437.651095916
11400000000,114,11400000000,,422.293724526,422.290574591,422.290627911,422.29496444
11500000000,115,11500000000,,432.822527346,432.808979849,432.81927189,432.814312285
11600000000,116,11600000000,,429.83493695,429.82698687,429.830539034,429.832866762
11700000000,117,11700000000,,426.341006815,426.34253832,426.335581877,426.349003933
11800000000,118,11800000000,,439.238397458,439.232358323,439.232089675,439.239537038
11900000000,119,11900000000,,440.8560783,440.839244603,440.849157892,440.845973332
12000000000,120,12000000000,,430.003334208,429.99387811,429.996165382,429.999416569
12100000000,121,12100000000,,419.571273421,419.572551157,419.563759054,419.577124443
12200000000,122,12200000000,,436.039275278,436.033824617,436.031269823,436.037551829
12300000000,123,12300000000,,433.325804679,433.320581822,433.317370211,433.323359398
12400000000,124,12400000000,,434.985164749,434.970136967,434.977127052,434.972125573
12500000000,125,12500000000,,436.982470329,436.974646242,436.975649414,436.976453924
12600000000,126,12600000000,,436.69319874,436.696768953,436.687681994,436.698821528
12700000000,127,12700000000,,432.062629679,432.059742631,432.058213934,432.061551493
12800000000,128,12800000000,,424.647459733,424.633988575,424.643809755,424.636108856
12900000000,129,12900000000,,428.21622414,428.20958695,428.212742408,428.21310056
13000000000,130,13000000000,,422.744064225,422.747572228,422.740409107,422.752799229
13100000000,131,13100000000,,442.109637222,442.105109396,442.106240368,442.111693634
13201000000,132,13201000000,,444.394050559,444.389051967,444.39096554,444.396954118
13300000000,133,13300000000,,433.260406864,433.242404348,433.256615024,433.251283841
13401000000,134,13401000000,,422.517425326,422.506507041,422.512352553,422.51551246
13501000000,135,13501000000,,428.800317965,428.789006314,428.794068342,428.797508244
13600000000,136,13600000000,,423.806021242,423.807328567,423.798884931,423.815069349
13700000000,137,13700000000,,424.738908812,424.731504825,424.730796121,424.739000372
13800000000,138,13800000000,,429.852095519,429.832009702,429.84300497,429.839300849
13900000000,139,13900000000,,450.816059393,450.804793764,450.806957038,450.811141487
14000000000,140,14000000000,,441.124003224,441.12510869,441.115614945,441.130014752
14100000000,141,14100000000,,420.283908424,420.278113839,420.275805938,420.281721487
14200000000,142,14200000000,,428.889166525,428.884085461,428.881289554,428.886437234
14300000000,143,14300000000,,430.518458885,430.502469517,430.511362157,430.504611307
14400000000,144,14400000000,,438.126365696,438.117919952,438.120232699,438.120685631
14500000000,145,14500000000,,435.758696652,435.750509578,435.753289505,435.754335867
14600000000,146,14600000000,,441.898464479,441.901758445,441.893813214,441.906275178
14700000000,147,14700000000,,427.420866338,427.41653382,427.417029435,427.421585653
14800000000,148,14800000000,,423.541511811,423.525874601,423.538392874,423.531575427
14900000000,149,14900000000,,427.235594364,427.227506542,427.231677011,427.234199955
15000000000,150,15000000000,,433.652345879,433.653440622,433.647082576,433.661077656
15100000000,151,15100000000,,440.799640538,440.792586608,440.793603833,440.801275198
15200000000,152,15200000000,,433.529591368,433.510015024,433.522812809,433.519763668
15300000000,153,15300000000,,422.406742188,422.394792939,422.39914499,422.404175107
15401000000,154,15401000000,,438.433530473,438.421500412,438.425264818,438.429752969
15500000000,155,15500000000,,436.599959102,436.5993369,436.590981039,436.60677089
15602000000,156,15602000000,,427.437475473,427.429230029,427.427666996,427.436011938
15701000000,157,15701000000,,438.225960275,438.217673368,438.215398287,438.223717624
15803000000,158,15803000000,,432.772333104,432.75412575,432.762241358,432.759288543
15902000000,159,15902000000,,425.19630343,425.19642467,425.187392824,425.200940562
16000000000,160,16000000000,,426.460524804,426.454432244,426.452396278,426.45809494
16100000000,161,16100000000,,433.811450846,433.794743686,433.804135837,433.798168339
16200000000,162,16200000000,,429.153538804,429.14445251,429.147044544,429.148616582
16300000000,163,16300000000,,440.076996069,440.067781742,440.071054431,440.073274851
16400000000,164,16400000000,,433.92400781,433.925404017,433.918727994,433.931885891
16500000000,165,16500000000,,430.692024587,430.673851531,430.68703773,430.661548564
16604000000,166,16604000000,,425.90033827,425.915740231,425.89497769,425.85242576
16700000000,167,16700000000,,437.600522386,437.660576764,437.594462847,437.520040972
16805000000,168,16805000000,,428.333382513,428.435318713,428.326546786,428.204145218
16901000000,169,16901000000,,440.619560322,440.755217344,440.612093779,440.450459126
17002000000,170,17002000000,,426.94380325,427.102589129,426.935811757,426.745090002
17100000000,171,17100000000,,424.63964637,424.805432554,424.631256625,424.433057359
17200000000,172,17200000000,,444.301675503,444.462320474,444.292973434,444.108775767
17300000000,173,17300000000,,433.653929986,433.788971366,433.644971606,433.485685627
17400000000,174,17400000000,,433.350619475,433.458685406,433.341431655,433.223411482
17508000000,175,17508000000,,436.599671801,436.671582842,436.590237981,436.516673641
17600000000,176,17600000000,,446.235787708,446.276354662,446.226114111,446.193386004
17701000000,177,17701000000,,427.361411749,427.370677015,427.351460598,427.35487214
17800000000,178,17800000000,,434.527928174,434.514920124,434.517637914,434.550441316
17900000000,179,17900000000,,425.124464575,425.098398097,425.11374627,425.161067417
18000000000,180,18000000000,,449.949258174,449.915561216,449.938035368,449.987121023
18100000000,181,18100000000,,442.291522761,442.293050069,442.279404366,442.352082952
18200000000,182,18200000000,,436.882856253,436.870885583,436.869590136,436.901898411
18300000000,183,18300000000,,433.677176715,433.670167454,433.662685249,433.659653407
18400000000,184,18400000000,,418.027389427,418.040100412,418.011653653,417.980352909
18500000000,185,18500000000,,423.488723695,423.528098719,423.471745584,423.415229917
18600000000,186,18600000000,,431.633968728,431.69993789,431.615761234,431.533199273
18700000000,187,18700000000,,447.695852568,447.78895886,447.676418615,447.570608185
18800000000,188,18800000000,,437.18773837,437.306541643,437.167068492,437.039850263
18904000000,189,18904000000,,438.078239955,438.219161274,438.056276417,437.908561095
19001000000,190,19001000000,,428.994621259,429.15685748,428.971400701,428.809019016
19100000000,191,19100000000,,418.137888739,418.318162936,418.113382623,417.938759357
19200000000,192,19200000000,,435.890812501,436.088013367,435.86497047,435.680323496
19300000000,193,19300000000,,440.312126598,440.525279446,440.284906833,440.091382764
19400000000,194,19400000000,,438.078260448,438.305818354,438.049591968,437.846594257
19500000000,195,19500000000,,437.309603184,437.552156012,437.279413278,437.066567955
19600000000,196,19600000000,,434.294021688,434.551237674,434.262250628,434.037075559
19700000000,197,19700000000,,435.429498932,435.651237005,435.396099826,435.10602712
19806000000,198,19806000000,,427.82205219,428.146762119,427.786884639,427.56482626
19906000000,199,19906000000,,430.467173332,430.781282883,430.430221981,430.159780267
20000000000,200,20000000000,,439.639721138,439.976803463,439.601013141,439.313598516
20100000000,201,20100000000,,426.509004899,426.869416487,426.468400764,426.158753182
20200000000,202,20200000000,,444.903070559,445.288228875,444.860478938,444.526453249
20300000000,203,20300000000,,431.193844708,431.599355424,431.149312168,430.7833846
20400000000,204,20400000000,,437.399102276,437.833528901,437.352722441,436.961631912
20500000000,205,20500000000,,427.245534842,427.619535266,427.197268243,426.709784685
20600000000,206,20600000000,,442.017515094,442.543936844,441.967245526,441.62555993
20700000000,207,20700000000,,438.508931168,438.994965439,438.456544264,438.09128349
20800000000,208,20800000000,,438.528228597,439.001894608,438.473572107,438.123896039
20900000000,209,20900000000,,420.773540174,421.25161183,420.716473439,420.385789141
21000000000,210,21000000000,,433.75508307,434.228008776,433.695529351,433.35092241
21100000000,211,21100000000,,434.940938757,435.426172675,434.87884819,434.510321921
21200000000,212,21200000000,,422.28847948,422.803209378,422.223818356,421.819659823
21300000000,213,21300000000,,436.303408361,436.882780802,436.236069512,435.786200429
21400000000,214,21400000000,,448.932650387,449.560803464,448.862697812,448.330384123
21500000000,215,21500000000,,433.317958684,434.019341811,433.245545955,432.650386084
21601000000,216,21601000000,,430.117109202,430.886919309,430.042263128,429.377719582
21700000000,217,21700000000,,428.296957741,429.135321118,428.219654188,427.489022557
21800000000,218,21800000000,,435.386376023,436.279148133,435.30657055,434.510455227
21900000000,219,21900000000,,428.577207077,429.489154782,428.494855602,427.654790226
22000000000,220,22000000000,,423.30014437,424.272065721,423.215241138,422.4186032
22102000000,221,22102000000,,433.823507834,434.798878956,433.736045465,432.954856108
22200000000,222,22200000000,,430.96869236,431.930637676,430.878740233,430.111722653
22300000000,223,22300000000,,443.322068886,444.283826041,443.229606595,442.485614234
22400000000,224,22400000000,,434.638050634,435.60695976,434.543141803,433.803260874
22500000000,225,22500000000,,442.568461547,443.555828446,442.471057904,441.710709897
22601000000,226,22601000000,,434.924108845,435.915973574,434.824194967,434.00155969
22700000000,227,22700000000,,429.276881223,430.332662737,429.174557916,428.323251626
22801000000,228,22801000000,,423.134184857,424.20934125,423.029530439,422.087967593
22900000000,229,22900000000,,429.766542639,430.916028471,429.659535637,428.674274875
23000000000,230,23000000000,,438.028575197,439.251803984,437.919236162,436.887549686
23100000000,231,23100000000,,441.457203972,442.729189732,441.345675353,440.248890107
23200000000,232,23200000000,,444.303015017,445.360699264,444.189328408,442.773291996
23300000000,233,23300000000,,446.620048306,448.165677784,446.504213282,445.482823996
23400000000,234,23400000000,,431.194067926,432.617211452,431.076161896,429.859176794
23500000000,235,23500000000,,416.282944587,417.721788948,416.16307365,414.909606237
23601000000,236,23601000000,,449.115446738,450.598669736,448.99372377,447.746308261
23700000000,237,23700000000,,436.171836367,437.64018721,436.04835652,434.758434845
23800000000,238,23800000000,,446.088038212,447.548741276,445.96282158,444.647427935
23900000000,239,23900000000,,438.783470222,440.293784853,438.656531469,437.378548941
24000000000,240,24000000000,,429.495699741,430.993673745,429.367142295,428.065457373
24100000000,241,24100000000,,425.415341276,426.919058016,425.285203811,423.975451594
24200000000,242,24200000000,,447.641244485,449.144800568,447.509545744,446.182547798
24300000000,243,24300000000,,425.185286263,426.706177217,425.052043254,423.719972973
24400000000,244,24400000000,,430.649663901,432.171367893,430.514884137,429.156990581
24502000000,245,24502000000,,428.156918668,429.705397084,428.020632871,426.657430344
24600000000,246,24600000000,,440.670945759,442.237195748,440.533240942,439.153606864
24700000000,247,24700000000,,431.212025491,432.771167447,431.072850226,429.649573324
24800000000,248,24800000000,,438.703274123,440.303411728,438.562627815,437.142859398
24900000000,249,24900000000,,443.784551564,445.394378565,443.642568193,442.195634004
25000000000,250,25000000000,,433.930441419,435.565369266,433.787209531,432.329945828
25100000000,251,25100000000,,430.106022915,431.549988566,429.961497993,428.281662947
25202000000,252,25202000000,,431.738726903,433.518919222,431.592855623,430.219877271
25300000000,253,25300000000,,434.907038473,436.582124239,434.759884318,433.256730535
25400000000,254,25400000000,,439.97028681,441.663379797,439.821914427,438.314605982
25500000000,255,25500000000,,431.10225772,432.801909769,430.952826699,429.433198094
25600000000,256,25600000000,,440.542172758,442.237224781,440.391778163,438.851211706
25701000000,257,25701000000,,430.469554976,432.184538197,430.31823729,428.783752026
25800000000,258,25800000000,,442.195386267,443.904504824,442.043250609,440.490919133
25900000000,259,25900000000,,435.737773721,437.448584209,435.58492261,434.023742892
26001000000,260,26001000000,,427.360737763,428.913446197,427.207214205,425.478273061
26100000000,261,26100000000,,442.650583716,444.32084152,442.496431714,440.876248904
26200000000,262,26200000000,,434.066322784,435.740577647,433.911588911,432.287693079
26300000000,263,26300000000,,424.25808995,426.082961528,424.102833941,422.622374961
26400000000,264,26400000000,,424.619026582,426.348966407,424.46331203,422.880755869
26500000000,265,26500000000,,443.86437768,445.58329622,443.70824898,442.107715485
26600000000,266,26600000000,,442.43702691,444.16537914,442.280505037,440.683136706
26700000000,267,26700000000,,432.232030569,433.961633341,432.075161935,430.47388063
26801000000,268,26801000000,,434.998592984,436.730639512,434.841430363,433.23843141
26901000000,269,26901000000,,436.097901833,437.715966248,435.940483867,434.220425818
27000000000,270,27000000000,,428.314642204,430.011996267,428.157052081,426.515329834
27101000000,271,27101000000,,429.622643022,431.319830568,429.464939497,427.82372066
27200000000,272,27200000000,,438.652433601,440.348896845,438.494648711,436.854375122
27300000000,273,27300000000,,426.303285185,427.998446776,426.145481682,424.506866283
27400000000,274,27400000000,,433.942267577,435.63550083,433.784464074,432.148047237
27506000000,275,27506000000,,447.398822532,449.191745946,447.241019029,445.710524576
27600000000,276,27600000000,,425.250146507,426.980388521,425.092343004,423.507675484
27700000000,277,27700000000,,443.675654197,445.405542291,443.51812148,441.943912744
27800000000,278,27800000000,,429.576824315,431.170695889,429.419696048,427.721085963
27900000000,279,27900000000,,423.501412092,425.171480819,423.344735071,421.735241668
28000000000,280,28000000000,,427.701536512,429.364653877,427.545386953,425.943131369
28100000000,281,28100000000,,440.361310547,442.016777587,440.205822436,438.611629764
28200000000,282,28200000000,,434.148913503,435.79606066,433.994204669,432.408588959
28302000000,283,28302000000,,433.7489795,435.486647488,433.595200419,432.117542594
28407000000,284,28407000000,,434.452673115,436.102800779,434.299918614,432.752903896
28500000000,285,28500000000,,432.120836542,433.75873951,431.968931973,430.427621819
28600000000,286,28600000000,,420.749833314,422.311076169,420.598942279,419.001078952
28700000000,287,28700000000,,444.950632472,446.551177408,444.800822419,443.26429369
28800000000,288,28800000000,,436.219100937,437.808135759,436.07032428,434.545608314
28900000000,289,28900000000,,434.964359438,436.54118982,434.816493885,433.304374051
29000000000,290,29000000000,,434.616187907,436.180116602,434.469094031,432.970181464
29100000000,291,29100000000,,435.868106797,437.41833264,435.721571692,434.236857648
29200000000,292,29200000000,,433.366628723,435.000670337,433.220288093,431.849625751
29300000000,293,29300000000,,431.301518415,432.895477345,431.155264574,429.77748714
29400000000,294,29400000000,,426.578272409,427.987947867,426.432142159,424.904153446
29501000000,295,29501000000,,437.400102132,438.885309853,437.254136201,435.837483958
29600000000,296,29600000000,,438.962333353,440.698259463,438.817219572,437.687619334
29700000000,297,29700000000,,425.037112721,426.576839853,424.893918758,423.605327089
29800000000,298,29800000000,,436.653819616,437.906234383,436.512941634,434.975066635
29900000000,299,29900000000,,435.933532934,437.344595104,435.794580516,434.455575029
30000000000,300,30000000000,,435.782270882,437.36393226,435.645443863,434.51788301
30101000000,301,30101000000,,438.793847007,440.209850691,438.659448113,437.407444829
30200000000,302,30200000000,,437.554041266,438.931288021,437.422005333,436.172690819
30300000000,303,30300000000,,430.145341638,431.380081032,430.015430514,428.666859361
30400000000,304,30400000000,,431.190226102,432.497129813,431.062734745,429.831216191
30501000000,305,30501000000,,427.400164997,428.683928373,427.275211013,426.067354537
30600000000,306,30600000000,,428.566746808,429.927369992,428.444206476,427.360714502
30700000000,307,30700000000,,428.484108794,429.771025968,428.362661412,427.256286576
30801000000,308,30801000000,,449.600037637,450.901046196,449.479218073,448.440571043
30900000000,309,30900000000,,436.344902591,437.652026997,436.224869149,435.246856101
31000000000,310,31000000000,,442.278076274,443.572596346,442.159250675,441.225126569
31100000000,311,31100000000,,428.217438369,429.146039783,428.100203771,426.857942564
31202000000,312,31202000000,,428.780496735,429.877598567,428.664730239,427.65095984
31300000000,313,31300000000,,441.0729477,442.539042865,440.959269484,440.374111332
31400000000,314,31400000000,,423.489307687,424.671576808,423.378590274,422.570126734
31500000000,315,31500000000,,422.554945953,423.292544369,422.447152069,421.256632414
31600000000,316,31600000000,,446.430759774,447.406637741,446.325798468,445.437724955
31700000000,317,31700000000,,447.30117354,448.244395563,447.199265912,446.344255721
31800000000,318,31800000000,,434.148860596,435.05875613,434.050218107,433.228797972
31900000000,319,31900000000,,428.958493281,430.195847106,428.863264131,428.436623864
32000000000,320,32000000000,,421.251805962,422.20588071,421.159887149,420.517854128
32101000000,321,32101000000,,425.861330042,426.791635872,425.772562872,425.17623564
32200000000,322,32200000000,,439.225112179,439.762282066,439.139669301,438.220233652
32301000000,323,32301000000,,435.766713003,436.871077199,435.684320745,435.405989912
32400000000,324,32400000000,,440.102803537,440.948533845,440.022846671,439.561705568
32500000000,325,32500000000,,427.412089534,428.256891915,427.334329997,426.95061254
32600000000,326,32600000000,,426.268960855,426.60233506,426.193773349,425.377825467
32701000000,327,32701000000,,436.547884802,437.133157149,436.475396812,435.992197816
32801000000,328,32801000000,,433.891496114,435.010493837,433.821778005,433.955145543
32900000000,329,32900000000,,426.355719409,427.081530115,426.289122998,426.113644637
33000000000,330,33000000000,,448.935157358,448.994799003,448.871646547,448.116143438
33100000000,331,33100000000,,435.934107178,436.352320768,435.873611053,435.564321151
33200000000,332,33200000000,,429.025180983,430.091687648,428.968284249,429.396009754
33300000000,333,33300000000,,425.361408928,425.936343755,425.308861995,425.334138538
33400000000,334,33400000000,,429.172195135,429.692209596,429.124215638,429.18429356
33500000000,335,33500000000,,436.757344697,437.230343653,436.713863193,436.818196258
33600000000,336,33600000000,,444.790195683,444.526759527,444.751169851,444.212270733
33700000000,337,33700000000,,431.561096746,431.712857588,431.526597551,431.498070952
33800000000,338,33800000000,,424.848366091,425.67327573,424.818202846,425.559272746
33900000000,339,33900000000,,430.336724124,430.663231821,430.310505267,430.651105018
34001000000,340,34001000000,,434.318436093,433.83303342,434.296043038,433.924877627
34100000000,341,34100000000,,430.960752531,431.745131253,430.942334648,431.941885447
34200000000,342,34200000000,,451.015244606,451.237439144,451.000820104,451.541370061
34300000000,343,34300000000,,412.489872403,412.663954594,412.479535831,413.077759061
34400000000,344,34400000000,,440.373347125,440.514852154,440.367270467,441.040288621
34500000000,345,34500000000,,425.138378746,425.224374302,425.13670648,425.854521488
34600000000,346,34600000000,,426.220280006,426.255172282,426.223269418,426.952896312
34700000000,347,34700000000,,438.189553491,438.293649937,438.197604213,439.026932825
34800000000,348,34800000000,,420.61067745,420.53624102,420.624271528,421.298122276
34902000000,349,34902000000,,447.361899684,447.679386914,447.381552799,448.480044544
35000000000,350,35000000000,,417.436567603,417.340655006,417.46119396,418.210591509
35100000000,351,35100000000,,427.048739023,426.99898452,427.077692303,427.979896871
35202000000,352,35202000000,,445.394383313,445.554595325,445.427785549,446.672461779
35300000000,353,35300000000,,430.140787789,429.892717584,430.180678168,431.148392038
