%time,field.header.seq,field.header.stamp,field.header.frame_id,field.angular_velocities0,field.angular_velocities1,field.angular_velocities2,field.angular_velocities3
120000000,0,120000000,,427.0,427.0,427.0,427.0
240000000,1,240000000,,777.026429798,776.97277512,777.029147676,776.972259906
320000000,2,320000000,,509.856664962,509.910179115,509.860802465,509.910212033
440000000,3,440000000,,655.849573116,655.841235766,655.854451186,655.841292112
520000000,4,520000000,,644.781082959,644.783555637,644.786239802,644.783560719
640000000,5,640000000,,579.935008811,579.937541582,579.940269222,579.937545196
720000000,6,720000000,,422.69522287,422.69777754,422.700504283,422.697781842
840000000,7,840000000,,311.569703986,311.582703987,311.573965913,311.582711337
920000000,8,920000000,,300.764756002,300.779139577,300.766114858,300.779148261
1040000000,9,1040000000,,358.919176049,358.905172985,358.917928681,358.905182171
1122000000,10,1122000000,,425.504239555,425.502732377,425.500711411,425.502742216
1243000000,11,1243000000,,472.272698105,472.270093814,472.26699311,472.270103945
1320000000,12,1320000000,,461.310980548,461.307350782,461.303275803,461.307360648
1440000000,13,1440000000,,451.29683029,451.325817241,451.287970705,451.325820487
1520000000,14,1520000000,,409.408811062,409.415995072,409.399999339,409.415917849
1640000000,15,1640000000,,390.169976092,390.1769789,390.161798361,390.176794328
1720000000,16,1720000000,,369.129523653,369.103677382,369.121613552,369.103402501
1840000000,17,1840000000,,405.293995695,405.290488223,405.286132013,405.289995231
1920000000,18,1920000000,,407.806936294,407.803642214,407.799296061,407.802868272
2040000000,19,2040000000,,473.675493666,473.672560291,473.668330813,473.671482864
2122000000,20,2122000000,,429.820273167,429.817715033,429.8138958,429.816694878
2240000000,21,2240000000,,416.862584924,416.860412209,416.857232541,416.859628945
2320000000,22,2320000000,,404.884211822,404.882453992,404.880030287,404.881989966
2442000000,23,2442000000,,429.837301175,429.856465913,429.833692739,429.856892644
2520000000,24,2520000000,,430.930624478,430.934004758,430.926675232,430.935778987
2640000000,25,2640000000,,423.048536461,423.03221884,423.04389768,423.035309256
2720000000,26,2720000000,,419.280140161,419.276059758,419.275368387,419.280297418
2840000000,27,2840000000,,418.649794,418.645145576,418.644927083,418.65046513
2920000000,28,2920000000,,428.628805874,428.639754041,428.622925384,428.645107892
3040000000,29,3040000000,,421.964943744,421.9639983,421.957668446,421.968667842
3120000000,30,3120000000,,443.408731895,443.392655336,443.400194334,443.396881871
3240000000,31,3240000000,,420.232413659,420.226051343,420.222600633,420.229931456
3320000000,32,3320000000,,428.211670049,428.219166362,428.200616257,428.22247741
3440000000,33,3440000000,,422.968000464,422.96660947,422.956904847,422.968731106
3520000000,34,3520000000,,436.421512395,436.420192557,436.411119356,436.421136483
3602000000,35,3602000000,,428.300487272,428.286872096,428.290427993,428.286598508
3720000000,36,3720000000,,430.581050538,430.58962589,430.571497882,430.588694765
3840000000,37,3840000000,,422.933163128,422.933524994,422.924471552,422.9328409
3920000000,38,3920000000,,417.380136991,417.38011351,417.372286564,417.380299184
4040000000,39,4040000000,,436.531660022,436.52028228,436.524469294,436.521524531
4120000000,40,4120000000,,434.423877558,434.42028614,434.417571823,434.422104872
4240000000,41,4240000000,,443.906985117,443.903612536,443.901638567,443.906000306
4320000000,42,4320000000,,435.785033465,435.781715602,435.780503846,435.7849255
4440000000,43,4440000000,,438.746354216,438.750231994,438.742381297,438.754491508
4520000000,44,4520000000,,428.777180344,428.775076055,428.77262131,428.780379556
4640000000,45,4640000000,,420.258031668,420.255089265,420.252249304,420.26095456
4720000000,46,4720000000,,435.806940889,435.803218108,435.799983608,435.809172126
4840000000,47,4840000000,,425.945240205,425.94133814,425.93746132,425.946859636
4920000000,48,4920000000,,435.414435965,435.410664098,435.40621788,435.415424779
5040000000,49,5040000000,,422.047319821,422.037123973,422.038512925,422.041491233
5120000000,50,5120000000,,430.78085678,430.774774547,430.771395535,430.778828029
5241000000,51,5241000000,,436.784553272,436.784627234,436.774587815,436.788186782
5320000000,52,5320000000,,440.355383802,440.351863064,440.346128373,440.354321509
5440000000,53,5440000000,,428.338917085,428.330283538,428.330125529,428.331603562
5520000000,54,5520000000,,427.820619037,427.816882625,427.81239397,427.816978644
5640000000,55,5640000000,,427.898644907,427.89993189,427.891214554,427.898871809
5720000000,56,5720000000,,434.482406024,434.481633556,434.476039747,434.480747264
5842000000,57,5842000000,,422.488881023,422.48810974,422.483441234,422.48808278
5920000000,58,5920000000,,432.17129409,432.170619871,432.166491463,432.171626295
6040000000,59,6040000000,,441.067472675,441.062241925,441.062839565,441.064234737
6120000000,60,6120000000,,433.949686483,433.946979817,433.945606251,433.949663861
6240000000,61,6240000000,,437.202903996,437.204236536,437.198682641,437.207548721
6320000000,62,6320000000,,435.688146217,435.685649994,435.682818416,435.689430161
6440000000,63,6440000000,,421.099678356,421.092623703,421.093482323,421.096981778
6520000000,64,6520000000,,431.674446725,431.669334543,431.667425615,431.674324276
6640000000,65,6640000000,,431.602787515,431.596924633,431.59479909,431.602456427
6720000000,66,6720000000,,429.642829651,429.64004014,429.633996496,429.644790793
6840000000,67,6840000000,,433.259224586,433.254428285,433.249802221,433.257681536
6920000000,68,6920000000,,424.913892031,424.906380594,424.903742494,424.908455351
7040000000,69,7040000000,,436.483296722,436.47800047,436.472317113,436.479018532
7120000000,70,7120000000,,442.117832081,442.115660043,442.107187046,442.115897468
7240000000,71,7240000000,,440.096883784,440.09328118,440.08725105,440.093124066
7320000000,72,7320000000,,419.540164706,419.536907711,419.531615387,419.536829558
7401000000,73,7401000000,,430.040296719,430.035798867,430.03273985,430.035979972
7520000000,74,7520000000,,435.337313249,435.334527118,435.330551992,435.334569401
7640000000,75,7640000000,,431.108606738,431.107152495,431.102401671,431.107769401
7720000000,76,7720000000,,430.767584108,430.764582521,430.761578949,430.766669642
7840000000,77,7840000000,,431.059179286,431.055014528,431.053659099,431.058206712
7920000000,78,7920000000,,439.552804782,439.548941362,439.547763931,439.553309732
8000000000,79,8000000000,,431.124015212,431.119714969,431.119368496,431.125393203
8120000000,80,8120000000,,428.487516335,428.481732185,428.482257841,428.487965686
8240000000,81,8240000000,,426.651582001,426.645002328,426.64520477,426.651019841
8320000000,82,8320000000,,432.437047209,432.430322913,432.429679602,432.435636776
8440000000,83,8440000000,,433.675701716,433.671737593,433.667595125,433.676191777
8520000000,84,8520000000,,426.491833432,426.486148861,426.482922437,426.490238814
8600000000,85,8600000000,,438.187100414,438.181158519,438.177395627,438.184907843
8720000000,86,8720000000,,435.850647489,435.842486027,435.840915172,435.84525993
8840000000,87,8840000000,,435.986753162,435.983639676,435.977741633,435.985043497
8920000000,88,8920000000,,429.199744356,429.195933704,429.19109115,429.195991391
9040000000,89,9040000000,,426.99870621,426.99573828,426.990432228,426.994414039
9120000000,90,9120000000,,436.095309177,436.089855979,436.088094705,436.088268533
9240000000,91,9240000000,,433.442282648,433.438902574,433.43628314,433.43788246
9320000000,92,9320000000,,419.812959575,419.809858421,419.807813069,419.809851433
9440000000,93,9440000000,,437.388743673,437.385421516,437.384076995,437.386576869
9520000000,94,9520000000,,444.026049928,444.026380534,444.022291915,444.028211382
9640000000,95,9640000000,,434.839623991,434.83764209,434.836823542,434.840125116
9720000000,96,9720000000,,423.806185467,423.797880232,423.803067913,423.801156049
9840000000,97,9840000000,,430.303755432,430.304505711,430.299651922,430.308522431
9920000000,98,9920000000,,428.075679452,428.071744001,428.071014775,428.076638836
10040000000,99,10040000000,,433.743129438,433.730475989,433.737855282,433.736216322
10120000000,100,10120000000,,439.997449909,439.989773567,439.991079554,439.995023142
10240000000,101,10240000000,,427.832542178,427.82452103,427.825070966,427.828603618
10320000000,102,10320000000,,433.116052151,433.116104514,433.107364865,433.119584828
10440000000,103,10440000000,,424.979620004,424.973924066,424.969695311,424.976805202
10520000000,104,10520000000,,437.889847801,437.876223503,437.880004677,437.878189793
10600000000,105,10600000000,,433.689804476,433.681763889,433.680840365,433.682855871
10720000000,106,10720000000,,436.569623844,436.571639004,436.561736463,436.57225197
10840000000,107,10840000000,,426.588585919,426.585436034,426.58123677,426.585255407
10920000000,108,10920000000,,430.153892171,430.141001114,430.147195591,430.140738847
11045000000,109,11045000000,,420.884323615,420.878125225,420.878402344,420.878751193
11120000000,110,11120000000,,434.401922972,434.405803723,434.396613101,434.407746335
11240000000,111,11240000000,,437.294651119,437.291544675,437.290124828,437.294281019
11320000000,112,11320000000,,437.650681393,437.647618159,437.646974993,437.651125639
11440000000,113,11440000000,,422.293695766,422.29052806,422.290656671,422.295010972
11520000000,114,11520000000,,432.822548537,432.808935744,432.819250699,432.81435639
11640000000,115,11640000000,,429.834981957,429.826952551,429.830494026,429.832901081
11720000000,116,11720000000,,426.341041987,426.342488373,426.335546705,426.34905388
11840000000,117,11840000000,,439.238442048,439.232304242,439.232045085,439.239591118
11920000000,118,11920000000,,440.856115728,440.839240982,440.849120464,440.845976952
12040000000,119,12040000000,,430.003361233,429.993900676,429.996138357,429.999394004
12120000000,120,12120000000,,419.571314809,419.572564303,419.563717666,419.577111297
12240000000,121,12240000000,,436.039321696,436.033850592,436.031223404,436.037525854
12320000000,122,12320000000,,433.325846837,433.320618807,433.317328053,433.323322413
12440000000,123,12440000000,,434.985155684,434.970164244,434.977136118,434.972098297
12520000000,124,12520000000,,436.982445788,436.974662649,436.975673954,436.976437517
12640000000,125,12640000000,,436.693174909,436.696798437,436.687705825,436.698792044
12720000000,126,12720000000,,432.062598827,432.059776832,432.058244786,432.061517291
12841000000,127,12841000000,,424.647441531,424.633968688,424.643827957,424.636128743
12920000000,128,12920000000,,428.216215627,428.209542861,428.21275092,428.213144649
13040000000,129,13040000000,,422.744043126,422.747528935,422.740430205,422.752842522
13120000000,130,13120000000,,442.109611665,442.105058462,442.106265925,442.111744568
13240000000,131,13240000000,,444.394033107,444.388984871,444.390982992,444.397021214
13320000000,132,13320000000,,433.260433037,433.242359685,433.256588852,433.251328504
13441000000,133,13441000000,,422.517471076,422.506483781,422.512306802,422.515535719
13520000000,134,13520000000,,428.800363954,428.78899393,428.794022353,428.797520629
13640000000,135,13640000000,,423.806072644,423.807304139,423.798833529,423.815093777
13720000000,136,13720000000,,424.738968137,424.731479867,424.730736796,424.73902533
13840000000,137,13840000000,,429.852135011,429.832016659,429.842965478,429.839293892
13920000000,138,13920000000,,450.816073265,450.804823906,450.806943166,450.811111345
14000000000,139,14000000000,,441.12400619,441.125153431,441.115611979,441.129970011
14120000000,140,14120000000,,420.283932582,420.278161069,420.27578178,420.281674256
14240000000,141,14240000000,,428.889177471,428.884145049,428.881278609,428.886377646
14320000000,142,14320000000,,430.518444845,430.502487798,430.511376197,430.504593026
14440000000,143,14440000000,,438.12634428,438.117910081,438.120254116,438.120695503
14520000000,144,14520000000,,435.758677401,435.750490136,435.753308756,435.754355309
14600000000,145,14600000000,,441.898435558,441.901754231,441.893842135,441.906279392
14720000000,146,14720000000,,427.420829695,427.416522809,427.417066079,427.421596663
14802000000,147,14802000000,,423.541476659,423.525852985,423.538428026,423.531597043
14920000000,148,14920000000,,427.235626526,427.227461275,427.231644849,427.234245222
15040000000,149,15040000000,,433.652367073,433.653386835,433.647061383,433.661131443
15120000000,150,15120000000,,440.799665175,440.792524032,440.793579196,440.801337775
15240000000,151,15240000000,,433.52963315,433.509977826,433.522771027,433.519800866
15320000000,152,15320000000,,422.406788092,422.394787523,422.399099087,422.404180523
15440000000,153,15440000000,,438.433573433,438.421516687,438.425221858,438.429736694
15520000000,154,15520000000,,436.600014603,436.599339003,436.590925538,436.606768787
15640000000,155,15640000000,,427.437538037,427.429241005,427.427604431,427.436000961
15720000000,156,15720000000,,438.226020042,438.217695094,438.21533852,438.223695898
15840000000,157,15840000000,,432.772330866,432.75415742,432.762243596,432.759256874
15920000000,158,15920000000,,425.19629017,425.196453049,425.187406084,425.200912182
16040000000,159,16040000000,,426.460522891,426.454481523,426.452398192,426.458045662
16120000000,160,16120000000,,433.811436151,433.794764568,433.804150533,433.798147457
16240000000,161,16240000000,,429.153520374,429.144429471,429.147062974,429.148639621
16320000000,162,16320000000,,440.076980009,440.067746933,440.071070491,440.07330966
16440000000,163,16440000000,,433.923973538,433.925382668,433.918762266,433.93190724
16520000000,164,16520000000,,430.692009156,430.674701275,430.687053161,430.660698819
16640000000,165,16640000000,,425.900350714,425.918225037,425.894965246,425.849940955
16720000000,166,16720000000,,437.600541138,437.663745085,437.594444095,437.516872651
16840000000,167,16840000000,,428.333404638,428.438579623,428.326524661,428.200884307
16920000000,168,16920000000,,440.619583629,440.758000177,440.612070472,440.447676293
17002000000,169,17002000000,,426.943827462,427.104458771,426.935787545,426.74322036
17122000000,170,17122000000,,424.639672021,424.805194128,424.631230974,424.433295785
17240000000,171,17240000000,,444.301702665,444.459414298,444.292946271,444.111681944
17320000000,172,17320000000,,433.653958997,433.784342331,433.644942594,433.490314662
17440000000,173,17440000000,,433.350651259,433.451507586,433.341399871,433.230589302
17521000000,174,17521000000,,436.599705585,436.662743123,436.590204197,436.525513359
17640000000,175,17640000000,,446.235824953,446.26519192,446.226076866,446.204548747
17720000000,176,17720000000,,427.361451533,427.358123547,427.351420814,427.367425608
17840000000,177,17840000000,,434.527972434,434.500493658,434.517593655,434.564867781
17920000000,178,17920000000,,425.124512407,425.0829029,425.113698438,425.176562614
18000000000,179,18000000000,,449.949309835,449.899002122,449.937983707,450.003680117
18120000000,180,18120000000,,442.291593757,442.275042721,442.27933337,442.3700903
18240000000,181,18240000000,,436.882939254,436.85145832,436.869507135,436.921325674
18320000000,182,18320000000,,433.677264227,433.649808596,433.662597737,433.680012265
18440000000,183,18440000000,,418.027483993,418.018272385,418.011559087,418.002180937
18520000000,184,18520000000,,423.488822621,423.505257836,423.471646658,423.4380708
18640000000,185,18640000000,,431.634073994,431.675522463,431.615655969,431.5576147
18720000000,186,18720000000,,447.695962543,447.763445856,447.676308641,447.596121189
18840000000,187,18840000000,,437.187855763,437.279317771,437.166951099,437.067074135
18920000000,188,18920000000,,438.07836222,438.190745819,438.056154152,437.936976549
19040000000,189,19040000000,,428.994750845,429.126606225,428.971271115,428.83927027
19120000000,190,19120000000,,418.138023362,418.286666507,418.113247999,417.970255786
19240000000,191,19240000000,,435.890955044,436.054652722,435.864827927,435.713684142
19320000000,192,19320000000,,440.312274727,440.490686659,440.284758704,440.12597555
19400000000,193,19400000000,,438.078414569,438.270000642,438.049437847,437.882411969
19523000000,194,19523000000,,437.309765942,437.514539666,437.279250519,437.104184301
19640000000,195,19640000000,,434.294193555,434.511873773,434.262078761,434.07643946
19720000000,196,19720000000,,435.429676604,435.61074516,435.395922153,435.146518964
19840000000,197,19840000000,,427.822239383,428.104552579,427.786697446,427.6070358
19920000000,198,19920000000,,430.467367358,430.737978183,430.430027955,430.203084967
20040000000,199,20040000000,,439.639925478,439.931862304,439.600808801,439.358539676
20120000000,200,20120000000,,426.509216241,426.82338854,426.468189422,426.204781129
20240000000,201,20240000000,,444.903292698,445.240582791,444.860256799,444.574099333
20320000000,202,20320000000,,431.194068913,431.550633197,431.149087963,430.832106827
20440000000,203,20440000000,,437.399331315,437.783170133,437.352493402,437.011990681
20520000000,204,20520000000,,427.245771232,427.567206748,427.197031854,426.762113203
20640000000,205,20640000000,,442.017765166,442.488364196,441.966995454,441.681132578
20720000000,206,20720000000,,438.509190406,438.937626293,438.456285026,438.148622636
20841000000,207,20841000000,,438.52850176,438.942777688,438.473298944,438.183012959
20920000000,208,20920000000,,420.773822252,421.191955779,420.716191361,420.445445193
21040000000,209,21040000000,,433.755377696,434.168311117,433.695234726,433.41062007
21120000000,210,21120000000,,434.941241658,435.366796326,434.878545288,434.56969827
21202000000,211,21202000000,,422.288790408,422.744362796,422.223507427,421.878506406
21320000000,212,21320000000,,436.303732777,436.825115426,436.235745096,435.843865805
21440000000,213,21440000000,,448.932978066,449.50397514,448.862370133,448.387212448
21520000000,214,21520000000,,433.318290018,433.963198056,433.245214622,432.706529839
21640000000,215,21640000000,,430.117449835,430.831905217,430.041922495,429.432733674
21720000000,216,21720000000,,428.297305333,429.080905825,428.219306596,427.54343785
21840000000,217,21840000000,,435.386732691,436.224300501,435.306213882,434.565302859
21920000000,218,21920000000,,428.577569879,429.433252885,428.4944928,427.710692123
22040000000,219,22040000000,,423.300513493,424.214936277,423.214872016,422.475732645
22121000000,220,22121000000,,433.823881071,434.741422356,433.735672228,433.012312707
22240000000,221,22240000000,,430.969072401,431.873459436,430.878360193,430.168900894
22320000000,222,22320000000,,443.322452628,444.227464457,443.229222853,442.541975818
22440000000,223,22440000000,,434.63843977,435.552469014,434.542752667,433.85775162
22520000000,224,22520000000,,442.568856046,443.50291883,442.470663404,441.763619514
22640000000,225,22640000000,,434.924507765,435.865679851,434.823796047,434.051853414
22720000000,226,22720000000,,429.277281153,430.284148915,429.174157986,428.371765448
22841000000,227,22841000000,,423.134589389,424.163544541,423.029125907,422.133764301
22920000000,228,22920000000,,429.766949937,430.871954477,429.659128339,428.71834887
23040000000,229,23040000000,,438.028982203,439.210223554,437.918829157,436.929130115
23120000000,230,23120000000,,441.457610314,442.689153813,441.345269011,440.288926026
23240000000,231,23240000000,,444.303426569,445.32282713,444.188916856,442.81116413
23320000000,232,23320000000,,446.620459015,448.129151674,446.503802573,445.519350106
23400000000,233,23400000000,,431.194478587,432.581814272,431.075751235,429.894573973
23520000000,234,23520000000,,416.28335408,417.688100823,416.162664157,414.943294363
23640000000,235,23640000000,,449.115850365,450.566589086,448.993320144,447.778388911
23720000000,236,23720000000,,436.17224116,437.609197721,436.047951727,434.789424333
23840000000,237,23840000000,,446.088447848,447.51941471,445.962411943,444.676754502
23920000000,238,23920000000,,438.783876146,440.265606626,438.656125545,437.406727169
24040000000,239,24040000000,,429.496101907,430.967298985,429.366740129,428.091832133
24120000000,240,24120000000,,425.415743293,426.89392684,425.284801794,424.00058277
24200000000,241,24200000000,,447.641645962,449.120944713,447.509144267,446.206403653
24320000000,242,24320000000,,425.185687604,426.684294314,425.051641912,423.741855875
24442000000,243,24442000000,,430.650065586,432.151489582,430.514482451,429.176868892
24520000000,244,24520000000,,428.157318609,429.686882466,428.020232929,426.675944961
24640000000,245,24640000000,,440.671342801,442.22070762,440.5328439,439.170094992
24720000000,246,24720000000,,431.212427296,432.756030534,431.07244842,429.664710237
24840000000,247,24840000000,,438.703673745,440.290278821,438.562228192,437.155992306
24920000000,248,24920000000,,443.78494845,445.38256714,443.642171307,442.207445429
25000000000,249,25000000000,,433.930836677,435.554860612,433.786814273,432.340454481
25120000000,250,25120000000,,430.106421311,431.541367483,429.961099598,428.290284029
25240000000,251,25240000000,,431.73912657,433.512208085,431.592455956,430.226588409
25320000000,252,25320000000,,434.907437393,436.576654361,434.759485398,433.262200413
25440000000,253,25440000000,,439.970681716,441.65975739,439.821519521,438.318228389
25520000000,254,25520000000,,431.102648516,432.799508915,430.952435902,429.435598949
25640000000,255,25640000000,,440.54256135,442.236649782,440.391389571,438.851786706
25720000000,256,25720000000,,430.469941339,432.185178335,430.317850927,428.783111888
25841000000,257,25841000000,,442.195766357,443.906969328,442.042870519,440.488454629
25920000000,258,25920000000,,435.73815034,437.452267199,435.58454599,434.020059902
26040000000,259,26040000000,,427.361111347,428.918984021,427.206840622,425.472735237
26120000000,260,26120000000,,442.650954089,444.327585455,442.496061341,440.869504969
26240000000,261,26240000000,,434.06668781,435.749119325,433.911223886,432.279151402
26320000000,262,26320000000,,424.258451202,426.092754764,424.102472689,422.612581725
26440000000,263,26440000000,,424.619381602,426.360617716,424.462957009,422.86910456
26520000000,264,26520000000,,443.864730127,445.596179898,443.707896532,442.094831807
26640000000,265,26640000000,,442.437375587,444.180102947,442.28015636,440.668412899
26720000000,266,26720000000,,432.232375953,433.977578535,432.07481655,430.457935436
26840000000,267,26840000000,,434.998933278,436.748407882,434.841090068,433.22066304
26920000000,268,26920000000,,436.098237429,437.734920855,435.940148271,434.201471211
27040000000,269,27040000000,,428.314972271,430.032762711,428.156722015,426.494563389
27120000000,270,27120000000,,429.622969813,431.34180867,429.464612706,427.801742558
27240000000,271,27240000000,,438.65275583,440.372688001,438.494326481,436.830583966
27321000000,272,27321000000,,426.303604569,428.023441766,426.145162298,424.481871293
27400000000,273,27400000000,,433.942584209,435.661693894,433.784147442,432.121854174
27522000000,274,27522000000,,447.399136753,449.21967362,447.240704807,445.682596903
27640000000,275,27640000000,,425.250454291,427.010051408,425.092035221,423.478012598
27721000000,276,27721000000,,443.675949697,445.436370108,443.517825979,441.913084927
27846000000,277,27846000000,,429.577113722,431.203306503,429.419406641,427.688475349
27920000000,278,27920000000,,423.50169578,425.205253277,423.344451382,421.701469211
28040000000,279,28040000000,,427.701809365,429.400164449,427.545114101,425.907620798
28120000000,280,28120000000,,440.361575142,442.053445402,440.205557841,438.574961948
28240000000,281,28240000000,,434.149164567,435.834464345,433.993953605,432.370185275
28320000000,282,28320000000,,433.749219478,435.526259023,433.594960441,432.07793106
28440000000,283,28440000000,,434.452906427,436.14417961,434.299685303,432.711525065
28520000000,284,28520000000,,432.121067337,433.801280619,431.968701178,430.38508071
28640000000,285,28640000000,,420.750047564,422.355322946,420.598728029,418.956832175
28720000000,286,28720000000,,444.95084245,446.596582403,444.800612442,443.218888695
28800000000,287,28800000000,,436.21930851,437.85469163,436.070116707,434.499052443
28920000000,288,28920000000,,434.964566774,436.589477741,434.816286549,433.25608613
29040000000,289,29040000000,,434.616399643,436.230123287,434.468882295,432.920174779
29120000000,290,29120000000,,435.868323246,437.469479097,435.721355243,434.185711192
29200000000,291,29200000000,,433.366858993,435.052923811,433.220057823,431.797372277
29320000000,292,29320000000,,431.301751532,432.949387212,431.155031456,429.723577273
29440000000,293,29440000000,,426.578506511,428.043562421,426.431908058,424.848538892
29520000000,294,29520000000,,437.400334454,438.942036962,437.253903878,435.780756849
29640000000,295,29640000000,,438.962513793,440.756635045,438.817039133,437.629243752
29720000000,296,29720000000,,425.037267831,426.636324595,424.893763647,423.545842346
29840000000,297,29840000000,,436.653973923,437.967379732,436.512787328,434.913921286
29920000000,298,29920000000,,435.933678318,437.406840783,435.794435133,434.39332935
30040000000,299,30040000000,,435.782380106,437.427879539,435.64533464,434.453935731
30120000000,300,30120000000,,438.793942194,440.274928097,438.659352925,437.342367423
30240000000,301,30240000000,,437.554126522,438.998037139,437.421920077,436.105941701
30320000000,302,30320000000,,430.145422216,431.447936001,430.015349936,428.599004392
30440000000,303,30440000000,,431.190274887,432.566614888,431.06268596,429.761731116
30520000000,304,30520000000,,427.400205936,428.7545172,427.275170074,425.996765711
30640000000,305,30640000000,,428.566810466,429.999605616,428.444142818,427.288478878
30722000000,306,30722000000,,428.484196675,429.844343177,428.362573531,427.182969367
30840000000,307,30840000000,,449.600125459,450.975966866,449.479130251,448.365650372
30920000000,308,30920000000,,436.34498166,437.728011395,436.22479008,435.170871703
31000000000,309,31000000000,,442.278143069,443.649642611,442.159183879,441.148080303
31120000000,310,31120000000,,428.217500158,429.224707848,428.100141982,426.779274499
31240000000,311,31240000000,,428.780553873,429.957866694,428.664673101,427.570691713
31320000000,312,31320000000,,441.072970758,442.620368451,440.959246426,440.292785746
31400000000,313,31400000000,,423.48929608,424.753960126,423.378601882,422.487743416
31520000000,314,31520000000,,422.554929083,423.376509622,422.447168939,421.172667162
31600000000,315,31600000000,,446.430732571,447.491653001,446.325825671,445.352709694
31720000000,316,31720000000,,447.301119044,448.330982924,447.199320409,446.25766836
31800000000,317,31800000000,,434.148787483,435.14639052,434.050291221,433.141163583
31920000000,318,31920000000,,428.95839675,430.285101639,428.863360662,428.347369331
32040000000,319,32040000000,,421.251699597,422.296739165,421.159993515,420.426995673
32120000000,320,32120000000,,425.861218389,426.883543718,425.772674526,425.084327793
32201000000,321,32201000000,,439.224971194,439.855211882,439.139810287,438.127303836
32320000000,322,32320000000,,435.766578378,436.965551203,435.68445537,435.311515908
32440000000,323,32440000000,,440.102684895,441.044538741,440.022965313,439.465700672
32520000000,324,32520000000,,427.411966622,428.353920767,427.334452909,426.853583689
32640000000,325,32640000000,,426.268814776,426.700922389,426.193919428,425.279238139
32720000000,326,32720000000,,436.547736232,437.232762913,436.475545382,435.892592052
32840000000,327,32840000000,,433.891330249,435.111579893,433.82194387,433.854059487
32920000000,328,32920000000,,426.355539445,427.183613804,426.289302962,426.011560948
33040000000,329,33040000000,,448.934977379,449.098404188,448.871826526,448.012538252
33120000000,330,33120000000,,435.933917598,436.456922893,435.873800633,435.459719026
33240000000,331,33240000000,,429.02494141,430.197805705,428.968523821,429.289891698
33320000000,332,33320000000,,425.361145556,426.043482215,425.309125367,425.227000077
33440000000,333,33440000000,,429.171910741,429.800868079,429.124500032,429.075635077
33520000000,334,33520000000,,436.757048826,437.340003404,436.714159064,436.708536508
33600000000,335,33600000000,,444.789886622,444.637394602,444.751478913,444.101635657
33720000000,336,33720000000,,431.560763738,431.82497768,431.526930559,431.38595086
33840000000,337,33840000000,,424.848029662,425.786911641,424.818539275,425.445636835
33920000000,338,33920000000,,430.336384425,430.777870959,430.310844965,430.53646588
34040000000,339,34040000000,,434.31807143,433.949145169,434.296407702,433.808765878
34125000000,340,34125000000,,430.96038076,431.862216387,430.942706419,431.824800313
34240000000,341,34240000000,,451.014861077,451.355967796,451.001203632,451.422841409
34322000000,342,34322000000,,412.489476579,412.783442359,412.479931655,412.958271296
34400000000,343,34400000000,,440.372936305,440.635303447,440.367681287,440.919837328
34520000000,344,34520000000,,425.137946134,425.347166716,425.137139092,425.731729074
34640000000,345,34640000000,,426.219821998,426.381079567,426.223727426,426.826989027
34720000000,346,34720000000,,438.189072811,438.421204007,438.198084893,438.899378755
34840000000,347,34840000000,,420.610200158,420.665325511,420.62474882,421.169037785
34920000000,348,34920000000,,447.361403404,447.808822295,447.382049078,448.350609163
35040000000,349,35040000000,,417.4360561,417.469873315,417.461705463,418.0813732
35120000000,350,35120000000,,427.048224224,427.127732989,427.078207102,427.851148402
35240000000,351,35240000000,,445.393723524,445.680066399,445.428445338,446.546990704
35320000000,352,35320000000,,430.140132873,430.010536297,430.181333083,431.030573325
35440000000,353,35440000000,,429.31425051,429.223135727,429.361469086,430.429661199
