%time,field.header.seq,field.header.stamp,field.header.frame_id,field.pose.position.x,field.pose.position.y,field.pose.position.z,field.pose.orientation.x,field.pose.orientation.y,field.pose.orientation.z,field.pose.orientation.w
1000000,0,1000000,world,0.0,0.0,0.74,0.0,0.0,0.0,1.0
11000000,1,11000000,world,-1.07738277069e-27,-1.09807001825e-27,0.739461,-5.3725141903e-27,4.12735521657e-27,1.15199516752e-27,1.0
21000000,2,21000000,world,1.63692024856e-24,1.51811157212e-24,0.737942,1.20292517363e-23,-1.19965837191e-23,-1.854574052e-24,1.0
31000000,3,31000000,world,-4.38394968409e-25,-6.00545634499e-25,0.735443,7.22102059036e-24,-1.67577970031e-23,7.60542676413e-25,1.0
41000000,4,41000000,world,-1.4288227372e-24,-1.79321964477e-24,0.731964,3.00119168489e-24,-2.37804484207e-23,1.87282292978e-24,1.0
51000000,5,51000000,world,-2.69206115799e-25,-7.55861801429e-25,0.727505,1.38393085235e-24,-2.25640175756e-23,9.00100114244e-26,1.0
61000000,6,61000000,world,4.36934927905e-25,3.89341348587e-26,0.722066,5.0410970436e-24,-1.98350052118e-23,-1.05020053119e-24,1.0
71000000,7,71000000,world,-3.79613243142e-19,3.79499244117e-19,0.715647,-4.84618228949e-20,-3.97190739535e-20,1.31227070075e-24,1.0
81000000,8,81000000,world,-1.18059769491e-18,1.1780670113e-18,0.708248,-9.61036398489e-20,-6.93370500436e-20,-2.28474041465e-24,1.0
91000000,9,91000000,world,-1.9991043683e-18,1.97925851127e-18,0.699869,-7.89976911925e-20,-5.12549078902e-20,-1.63009228858e-24,1.0
101000000,10,101000000,world,-3.09381935378e-18,2.99756210838e-18,0.69051,2.1451477621e-21,1.10571507345e-21,-4.41826380832e-24,1.0
111000000,11,111000000,world,-4.23751507711e-18,4.06021915302e-18,0.680171,1.04774107437e-19,6.92926523672e-20,-3.16575090923e-24,1.0
121000000,12,121000000,world,-5.42135433347e-18,5.15885910443e-18,0.668852,1.2840455545e-19,6.05069303429e-20,-3.37767201703e-24,1.0
131000000,13,131000000,world,1.59637784864e-14,1.50741722199e-14,0.656553080965,1.10510588278e-13,-9.85929234758e-14,-1.86829353851e-14,1.0
141000000,14,141000000,world,3.38370270198e-14,3.11850516277e-14,0.643275584944,4.53079158148e-13,-4.47982952501e-13,-3.84932683949e-14,1.0
151000000,15,151000000,world,-6.05250082467e-15,-1.11736777119e-14,0.629023413989,8.7149147324e-13,-9.22715462887e-13,1.49263245468e-14,1.0
161000000,16,161000000,world,-1.73994389972e-06,1.30535253157e-07,0.624997933125,-9.51066720894e-07,-1.30537029609e-06,-3.24324628351e-07,0.999999999999
171000000,17,171000000,world,3.75301490659e-06,2.05668332547e-06,0.624996420002,-2.19694019508e-06,2.93288322096e-06,-1.031912556e-06,0.999999999993
181000000,18,181000000,world,-2.4613948706e-06,-2.21521661609e-06,0.624997992927,3.25019677362e-07,-3.43061390737e-06,5.1075501194e-07,0.999999999994
191000000,19,191000000,world,4.34978477448e-06,8.9411510098e-07,0.624996513928,-2.26312258811e-06,2.7977557751e-06,-9.79134762894e-07,0.999999999993
201000000,20,201000000,world,-3.00130949264e-06,-4.44051012065e-06,0.624996352208,2.14318701147e-06,-3.10744443713e-06,-2.12004524838e-06,0.999999999991
211000000,21,211000000,world,4.56124878395e-06,1.48631167559e-07,0.624996678154,-2.14943808502e-06,2.72434187286e-06,-3.37389175517e-06,0.999999999988
221000000,22,221000000,world,1.26988678097e-06,-5.84183493424e-06,0.624998430252,2.83068832732e-06,-9.6747763354e-08,-3.62358638109e-06,0.999999999989
231000000,23,231000000,world,1.09122501814e-06,1.03919985348e-06,0.624998542173,-2.65667748885e-06,-4.8339604506e-08,-3.43588061337e-06,0.999999999991
241000000,24,241000000,world,4.53149753906e-06,-5.48303314605e-07,0.624997089186,-1.40887705262e-06,2.6512334762e-06,-3.79799644096e-06,0.999999999988
251000000,25,251000000,world,-2.10164634217e-06,-4.73287631719e-06,0.624996739249,1.90716685436e-06,-2.78971739835e-06,-4.8098277805e-06,0.999999999983
261000000,26,261000000,world,-2.67612703864e-06,-2.62208926798e-06,0.625000387601,5.58319613016e-07,5.00687417226e-07,-3.87267567813e-06,0.999999999992
271000000,27,271000000,world,-2.75506287426e-06,-1.91331003467e-06,0.625000004244,3.9580299157e-08,1.0743238333e-08,-3.85698551997e-06,0.999999999993
281000000,28,281000000,world,-2.04207686098e-06,-1.92106245097e-06,0.625000207155,-6.66745629745e-08,2.70438742893e-07,-4.73679523636e-06,0.999999999989
291000000,29,291000000,world,-2.24539597022e-06,-2.31683403745e-06,0.624999987548,1.6875909934e-08,-2.4932835034e-08,-5.1550953591e-06,0.999999999987
301000000,30,301000000,world,-1.81451545878e-06,-2.44520072466e-06,0.625000184326,2.74696384858e-08,2.32023765299e-07,-4.77461990969e-06,0.999999999989
311000000,31,311000000,world,-2.46439553109e-06,-2.32636944334e-06,0.625000120201,-4.25714550812e-08,-1.64675777367e-07,-3.95817941413e-06,0.999999999992
321000000,32,321000000,world,-2.08442147169e-06,-2.60531617982e-06,0.62500009829,4.20300579988e-08,1.4429815283e-07,-3.27663227016e-06,0.999999999995
331000000,33,331000000,world,-2.43521863078e-06,-2.31155544815e-06,0.625000059417,-2.58726136176e-08,-8.34062912727e-08,-2.65218380204e-06,0.999999999996
341000000,34,341000000,world,-2.02223341916e-06,-2.69879339276e-06,0.62500031974,2.61712841385e-09,4.17332220958e-07,-2.06152986611e-06,0.999999999998
351000000,35,351000000,world,-3.06357174447e-06,-2.60318595098e-06,0.625000327391,2.68815475714e-08,-4.79616406963e-07,-2.14465671001e-06,0.999999999998
361000000,36,361000000,world,-2.53847644884e-06,-2.84354404141e-06,0.625000103771,1.55934201636e-07,-5.67104005767e-09,-2.11187921589e-06,0.999999999998
371000000,37,371000000,world,-2.53291875608e-06,-2.32137763661e-06,0.625000184822,-2.61062959622e-07,-3.80450488371e-09,-2.11106748851e-06,0.999999999998
381000000,38,381000000,world,-1.99241213999e-06,-2.6402888043e-06,0.624999642181,-2.40669908225e-09,4.38250660583e-07,-2.0709283503e-06,0.999999999998
391000000,39,391000000,world,-3.36919740733e-06,-2.01895968558e-06,0.624999172928,-5.43379280424e-07,-6.56922526555e-07,-1.80814876182e-06,0.999999999998
401000000,40,401000000,world,-1.70022580567e-06,-3.16561526466e-06,0.624999190093,5.03037143794e-07,6.71011935569e-07,-1.48631376491e-06,0.999999999999
411000000,41,411000000,world,-3.59183413425e-06,-1.96246532863e-06,0.62499914183,-5.29677716199e-07,-6.89625603047e-07,-1.19990849195e-06,0.999999999999
421000000,42,421000000,world,-2.0869463276e-06,-2.96287241756e-06,0.6249993857,3.65655990679e-07,5.04823452077e-07,-1.10524359238e-06,0.999999999999
431000000,43,431000000,world,-3.00854584071e-06,-1.94079173108e-06,0.624999428441,-4.76348597507e-07,-2.63267257346e-07,-1.08392508595e-06,0.999999999999
441000000,44,441000000,world,-2.50135437631e-06,-3.00032841209e-06,0.624999892623,4.15960553687e-07,1.47047547502e-07,-1.07790977915e-06,0.999999999999
451000000,45,451000000,world,-2.66002303855e-06,-2.70501949199e-06,0.624999259192,1.600022087e-07,-1.80798946966e-08,-1.06321606334e-06,0.999999999999
461000000,46,461000000,world,-2.66691413351e-06,-2.38149761221e-06,0.624999915727,-1.01457307934e-07,-4.4722784439e-09,-1.07682195158e-06,0.999999999999
471000000,47,471000000,world,-2.63941098959e-06,-2.50313378743e-06,0.625000070237,1.00397734335e-09,7.20982058625e-10,-1.07444340386e-06,0.999999999999
481000000,48,481000000,world,-1.8885991632e-06,-2.35190979192e-06,0.625010229907,-3.04586052791e-08,-1.2889692908e-10,-1.0749052118e-06,0.999999999999
491000000,49,491000000,world,-7.33032521441e-08,-1.96988251666e-06,0.625065325201,-1.26201221322e-07,1.00193799331e-08,-1.07508991991e-06,0.999999999999
501000000,50,501000000,world,2.26546788563e-06,-1.38888360935e-06,0.625204635384,-2.62722002036e-07,-5.34883999599e-08,-1.07554040822e-06,0.999999999999
511000000,51,511000000,world,5.34516102664e-06,-6.6455330716e-07,0.625466599059,-4.26390436582e-07,-1.61998698049e-07,-1.07630634005e-06,0.999999999999
521000000,52,521000000,world,9.2914035288e-06,1.57521714881e-07,0.625888786022,-6.00864685907e-07,-2.8230197299e-07,-1.07714997441e-06,0.999999999999
531000000,53,531000000,world,1.40221662881e-05,1.04579432299e-06,0.626507621351,-7.78016206494e-07,-4.07069322443e-07,-1.07811325735e-06,0.999999999999
541000000,54,541000000,world,1.90626115795e-05,1.81987108852e-06,0.627357195665,-9.62263908281e-07,-5.76651884941e-07,-1.07974034294e-06,0.999999999999
551000000,55,551000000,world,2.46524631636e-05,2.58301069923e-06,0.628470241413,-1.19089716701e-06,-7.3649948554e-07,-1.08195568113e-06,0.999999999998
561000000,56,561000000,world,3.0818078985e-05,3.35975466411e-06,0.629878619027,-1.44801361459e-06,-8.39515612197e-07,-1.08443885557e-06,0.999999999998
571000000,57,571000000,world,3.72946418273e-05,4.07894518357e-06,0.631613319511,-1.70597663528e-06,-9.72253015582e-07,-1.08728946792e-06,0.999999999997
581000000,58,581000000,world,4.39360671478e-05,4.70760850422e-06,0.633704469298,-1.9464540549e-06,-1.13841872731e-06,-1.09035804015e-06,0.999999999997
591000000,59,591000000,world,5.09837912284e-05,5.3320220784e-06,0.636181337194,-2.17377115533e-06,-1.29887877152e-06,-1.09335850131e-06,0.999999999996
601000000,60,601000000,world,5.83825965165e-05,5.94811979808e-06,0.639072343116,-2.39435508171e-06,-1.45441538736e-06,-1.09696215945e-06,0.999999999995
611000000,61,611000000,world,6.60808267994e-05,6.55216280878e-06,0.642405068416,-2.6519351431e-06,-1.59689379773e-06,-1.10133769285e-06,0.999999999995
621000000,62,621000000,world,7.40294644392e-05,7.1429811536e-06,0.646206267546,-2.93604887327e-06,-1.6739198265e-06,-1.10605965231e-06,0.999999999994
631000000,63,631000000,world,8.17539156405e-05,7.67577667225e-06,0.650501880918,-3.21413298045e-06,-1.80382500534e-06,-1.11118418421e-06,0.999999999993
641000000,64,641000000,world,8.96741547348e-05,8.19933011857e-06,0.655317048757,-3.47540760171e-06,-1.94153378646e-06,-1.11655402458e-06,0.999999999991
651000000,65,651000000,world,9.77584320354e-05,8.71510488475e-06,0.660673722256,-3.71387153284e-06,-2.07994978947e-06,-1.12181800399e-06,0.99999999999
661000000,66,661000000,world,0.000105942373404,9.22878792345e-06,0.666583466216,-3.94171497793e-06,-2.22464818453e-06,-1.12777378136e-06,0.999999999989
671000000,67,671000000,world,0.000113925651917,9.77487804195e-06,0.673055073358,-4.21021551572e-06,-2.38759194245e-06,-1.13454339906e-06,0.999999999988
681000000,68,681000000,world,0.000122014995474,1.03147459799e-05,0.680097015558,-4.49704430086e-06,-2.48677788782e-06,-1.14164461296e-06,0.999999999986
691000000,69,691000000,world,0.000130194298386,1.08510191806e-05,0.687717454555,-4.77661180529e-06,-2.59932379807e-06,-1.14917821537e-06,0.999999999985
701000000,70,701000000,world,0.000138447083723,1.13861036137e-05,0.695924252288,-5.0329483281e-06,-2.72071393367e-06,-1.1568510736e-06,0.999999999983
711000000,71,711000000,world,0.000146561476082,1.19911951565e-05,0.704724981063,-5.26700069477e-06,-2.86525736613e-06,-1.16449125942e-06,0.999999999981
721000000,72,721000000,world,0.000154684786833,1.2611412091e-05,0.714126933479,-5.50152643892e-06,-3.01690729277e-06,-1.17297361781e-06,0.99999999998
731000000,73,731000000,world,0.000162872092972,1.32293620666e-05,0.724131610953,-5.77194018307e-06,-3.8205536121e-06,-1.17306435453e-06,0.999999999975
741000000,74,741000000,world,0.000171016781631,1.39135814942e-05,0.734716821104,-6.05457684826e-06,-6.07130735112e-06,-1.15387034534e-06,0.999999999963
751000000,75,751000000,world,0.000179178686151,1.46308200443e-05,0.745855171379,-6.32654962163e-06,-9.80196951596e-06,-1.11644573573e-06,0.999999999931
761000000,76,761000000,world,0.000187389975982,1.53455445378e-05,0.757520572328,-6.5705381251e-06,-1.49514113402e-05,-1.06127736667e-06,0.999999999866
771000000,77,771000000,world,0.000195628797843,1.60589904179e-05,0.769688168848,-6.78071700847e-06,-2.14023004042e-05,-9.89335742653e-07,0.999999999747
781000000,78,781000000,world,0.000203870835065,1.67715128241e-05,0.782334275209,-6.99740191935e-06,-2.90044735601e-05,-9.02110771539e-07,0.999999999554
791000000,79,791000000,world,0.000203035244359,1.75370303313e-05,0.795436313482,-7.24844609257e-06,-3.83922137476e-05,-8.00118415533e-07,0.999999999236
801000000,80,801000000,world,0.00019386318484,1.83537152044e-05,0.808972757038,-7.50203788291e-06,-4.95725945132e-05,-6.8379911688e-07,0.999999998743
811000000,81,811000000,world,0.000185773149251,1.91685215022e-05,0.822923077536,-7.7381266096e-06,-6.16832592247e-05,-5.53900954615e-07,0.999999998067
821000000,82,821000000,world,0.000171049524715,2.01491931437e-05,0.837267691236,-7.96192795764e-06,-7.54397067134e-05,-4.10755979721e-07,0.999999997123
831000000,83,831000000,world,0.000146576788829,2.13642586974e-05,0.851987912608,-8.17359483691e-06,-9.08965028769e-05,-2.55068736008e-07,0.999999995835
841000000,84,841000000,world,0.000124495341792,2.25549785524e-05,0.867065912399,-8.37853056077e-06,-0.000106437790057,-8.80125858324e-08,0.9999999943
851000000,85,851000000,world,0.000104869628337,2.37196271773e-05,0.882480866638,-8.60053652452e-06,-0.000121606509868,8.99993224815e-08,0.999999992569
861000000,86,861000000,world,7.87608893755e-05,2.49806832659e-05,0.898197736523,-8.82627704195e-06,-0.000137381110223,2.78646942871e-07,0.999999990524
871000000,87,871000000,world,5.33957104035e-05,2.62402436208e-05,0.91417964022,-9.02980125666e-06,-0.00015325177706,4.77240244614e-07,0.999999988216
881000000,88,881000000,world,3.10378857243e-05,2.74677860321e-05,0.930391648978,-9.19605108627e-06,-0.000168880709445,6.85402664965e-07,0.999999985697
891000000,89,891000000,world,1.15842973081e-05,2.86648332085e-05,0.946800671537,-9.3229127719e-06,-0.000184056805448,9.02792369472e-07,0.999999983018
901000000,90,901000000,world,-7.21278542048e-06,2.98540942229e-05,0.963375345452,-9.41776627513e-06,-0.000198778535999,1.12838759128e-06,0.999999980199
911000000,91,911000000,world,-2.53754524847e-05,3.10356955991e-05,0.980085937783,-9.51556402899e-06,-0.000212802269099,1.36158565442e-06,0.999999977311
921000000,92,921000000,world,-4.09509177356e-05,3.21912701347e-05,0.996904250786,-9.61298918148e-06,-0.000225687143071,1.60221290038e-06,0.999999974485
931000000,93,931000000,world,-5.41473389487e-05,3.33245760939e-05,1.0138030897,-9.68877376861e-06,-0.000237763001603,1.84993371758e-06,0.999999971686
941000000,94,941000000,world,-6.47620905893e-05,3.44338718306e-05,1.03075534852,-9.73676632964e-06,-0.000249082981149,2.10429612138e-06,0.999999968929
951000000,95,951000000,world,-7.321839877e-05,3.5524862842e-05,1.04773508125,-9.74896289377e-06,-0.000259645863298,2.36507860335e-06,0.999999966242
961000000,96,961000000,world,-8.0067857249e-05,3.66045421891e-05,1.06471766996,-9.72543643828e-06,-0.00026939871917,2.63201786193e-06,0.999999963661
971000000,97,971000000,world,-8.55581512544e-05,3.76760632736e-05,1.08167974902,-9.6702589535e-06,-0.00027826868644,2.90438152666e-06,0.999999961232
981000000,98,981000000,world,-8.99268548068e-05,3.87417486712e-05,1.09859913376,-9.61227358051e-06,-0.00028619938546,3.18174648831e-06,0.999999958994
991000000,99,991000000,world,-8.06114260151e-05,3.97405541232e-05,1.11545476236,-9.54837780608e-06,-0.000291811650132,3.46389692653e-06,0.999999957371
1001000000,100,1001000000,world,-6.99914303669e-05,4.07361833275e-05,1.13222660811,-9.47005438086e-06,-0.000296558742773,3.75076302065e-06,0.999999955975
1011000000,101,1011000000,world,-5.83746894081e-05,4.17426387069e-05,1.14889564547,-9.37346802246e-06,-0.000300591984067,4.04200002783e-06,0.99999995477
1021000000,102,1021000000,world,-4.54167194563e-05,4.27639012746e-05,1.1654437876,-9.25402771277e-06,-0.000303901488768,4.33741052117e-06,0.99999995377
1031000000,103,1031000000,world,-3.35776113812e-05,4.37962192204e-05,1.18185383243,-9.10831004405e-06,-0.000306764068402,4.63692798157e-06,0.999999952896
1041000000,104,1041000000,world,-2.30177423578e-05,4.48411288268e-05,1.19810941778,-8.93160776826e-06,-0.000309202230831,4.9402202715e-06,0.999999952145
1051000000,105,1051000000,world,-1.3845063699e-05,4.58992909993e-05,1.21419577013,-8.74107856466e-06,-0.000311245447839,5.24681346197e-06,0.999999951511
1061000000,106,1061000000,world,-6.12771539251e-06,4.69711527753e-05,1.23010474232,-8.55225723733e-06,-0.000312907701477,5.55656424848e-06,0.999999950992
1071000000,107,1071000000,world,1.08605467243e-07,4.8067575683e-05,1.2458311595,-8.36500135094e-06,-0.000314184687978,5.86948578344e-06,0.999999950592
1081000000,108,1081000000,world,4.86431755371e-06,4.91933759903e-05,1.26137007468,-8.16862043953e-06,-0.000315135971127,6.18551613468e-06,0.999999950292
1091000000,109,1091000000,world,8.1469600589e-06,5.0332844637e-05,1.27671674919,-7.95800739944e-06,-0.000315799095611,6.50449914851e-06,0.999999950083
1101000000,110,1101000000,world,9.94607441038e-06,5.14873829397e-05,1.29186664358,-7.72855314705e-06,-0.000316176864402,6.82637618964e-06,0.999999949963
1111000000,111,1111000000,world,9.94439201464e-06,5.26681615569e-05,1.30681540848,-7.4775828887e-06,-0.000316302955624,7.15115385958e-06,0.999999949923
1121000000,112,1121000000,world,8.64784285754e-06,5.38612247389e-05,1.32155887709,-7.19912035858e-06,-0.000316126033643,7.47866503109e-06,0.999999949978
1131000000,113,1131000000,world,6.1276105961e-06,5.50657471522e-05,1.33609306691,-6.90488033085e-06,-0.000315646887706,7.80856127267e-06,0.999999950129
1141000000,114,1141000000,world,2.4550133379e-06,5.62808181969e-05,1.3504171427,-6.61056657756e-06,-0.000314866506518,8.14073602392e-06,0.999999950375
1151000000,115,1151000000,world,-2.30273961481e-06,5.75059705196e-05,1.36453694492,-6.31660741148e-06,-0.000313773446854,8.47521626074e-06,0.999999950717
1161000000,116,1161000000,world,-8.08034548313e-06,5.87410455486e-05,1.37845898335,-6.01330623648e-06,-0.000312342146115,8.81199346663e-06,0.999999951164
1171000000,117,1171000000,world,-1.48141532181e-05,5.99856948452e-05,1.39218953786,-5.69672105558e-06,-0.000310565260452,9.15091965015e-06,0.999999951717
1181000000,118,1181000000,world,-2.24438884791e-05,6.12395428016e-05,1.40573466568,-5.36249771677e-06,-0.000308414519646,9.49194507985e-06,0.999999952381
1191000000,119,1191000000,world,-3.04628623897e-05,6.25004197455e-05,1.41910020863,-5.00429987761e-06,-0.000305820637936,9.83509623257e-06,0.999999953176
1201000000,120,1201000000,world,-3.89355690191e-05,6.37683600704e-05,1.43229179924,-4.618504902e-06,-0.000302797227572,1.01802695683e-05,0.999999954094
1211000000,121,1211000000,world,-4.81976105249e-05,6.50441720927e-05,1.44531486763,-4.21181805213e-06,-0.000299397145943,1.05271035712e-05,0.999999955116
1221000000,122,1221000000,world,-5.7319621768e-05,6.62979603695e-05,1.45817464899,-3.79990836866e-06,-0.00029555027009,1.08754893186e-05,0.999999956259
1231000000,123,1231000000,world,-6.6633433144e-05,6.75249208138e-05,1.4708761882,-3.3842382552e-06,-0.000291328526384,1.12254889537e-05,0.999999957495
1241000000,124,1241000000,world,-7.67171867205e-05,6.87616821468e-05,1.48342434701,-2.95974404692e-06,-0.000286720434736,1.15771159589e-05,0.999999958824
1251000000,125,1251000000,world,-8.75458226457e-05,7.00080773904e-05,1.49582388844,-2.5225911582e-06,-0.000281680897143,1.1930240781e-05,0.999999960254
1261000000,126,1261000000,world,-9.90042924464e-05,7.12534402258e-05,1.50808261643,-2.06685993185e-06,-0.000276168200454,1.22848485667e-05,0.999999961788
1271000000,127,1271000000,world,-0.000110814194239,7.24680639816e-05,1.52021222271,-1.58327888386e-06,-0.000270138490782,1.2641029558e-05,0.999999963431
1281000000,128,1281000000,world,-0.000123317787487,7.36938944385e-05,1.53222428488,-1.07002835642e-06,-0.000263662154622,1.2998645498e-05,0.999999965156
1291000000,129,1291000000,world,-0.000136490654966,7.49300267649e-05,1.54413000036,-5.38505686242e-07,-0.000256777195016,1.33573287519e-05,0.999999966943
1301000000,130,1301000000,world,-0.000150063012595,7.61491977431e-05,1.55594019563,-3.65705158513e-09,-0.000249522767124,1.37170246716e-05,0.999999968775
1311000000,131,1311000000,world,-0.000163908755284,7.73398138373e-05,1.56766533539,5.35463084993e-07,-0.000241933141033,1.40778551626e-05,0.999999970635
1321000000,132,1321000000,world,-0.000178382374045,7.85412231973e-05,1.57931553184,1.08323326004e-06,-0.000233887661382,1.44398129749e-05,0.999999972543
1331000000,133,1331000000,world,-0.000193461132408,7.97524654739e-05,1.5909003252,1.64313865559e-06,-0.000225308862051,1.48027941615e-05,0.999999974507
1341000000,134,1341000000,world,-0.000209118342877,8.09723855238e-05,1.6024276785,2.22325345734e-06,-0.000216161283161,1.516684229e-05,0.99999997652
1351000000,135,1351000000,world,-0.000224729951648,8.21462918087e-05,1.61390486188,2.83209463257e-06,-0.000206397520925,1.55320882662e-05,0.999999978575
1361000000,136,1361000000,world,-0.000240509209268,8.32944222159e-05,1.62533888686,3.47677520589e-06,-0.000196122174524,1.58981980716e-05,0.999999980636
1371000000,137,1371000000,world,-0.000245434638176,8.37182925506e-05,1.63673651964,4.20427167514e-06,-0.000184263461522,1.62652297771e-05,0.999999982882
1381000000,138,1381000000,world,-0.000248788931196,8.40146389565e-05,1.64810427495,4.9399895248e-06,-0.000172013435851,1.6632963915e-05,0.999999985055
1391000000,139,1391000000,world,-0.000253594490553,8.43777733023e-05,1.65944843652,5.66683161819e-06,-0.000159601330838,1.70014574107e-05,0.999999987103
1401000000,140,1401000000,world,-0.000259899215346,8.48105383064e-05,1.6707750625,6.3874344817e-06,-0.00014684222901,1.73706126315e-05,0.999999989047
1411000000,141,1411000000,world,-0.000267705738898,8.53130424627e-05,1.68208999143,7.10515959617e-06,-0.000133711825412,1.77404276444e-05,0.999999990878
1421000000,142,1421000000,world,-0.00027139757947,8.55837061198e-05,1.69339885112,7.85732638454e-06,-0.000119642277032,1.81111859557e-05,0.999999992648
1431000000,143,1431000000,world,-0.000273204556311,8.57416915815e-05,1.70470706143,8.63846067024e-06,-0.000105027304142,1.8482699386e-05,0.999999994277
1441000000,144,1441000000,world,-0.000276951190092,8.59908516266e-05,1.71601984388,9.40840509504e-06,-9.04328484774e-05,1.88544630866e-05,0.999999995689
1451000000,145,1451000000,world,-0.000277669332848,8.60901796799e-05,1.72734183329,1.01722055467e-05,-7.55631906266e-05,1.92265785683e-05,0.999999996909
1461000000,146,1461000000,world,-0.000278445721034,8.61869191074e-05,1.73867631139,1.09119411854e-05,-6.08106464516e-05,1.95990958115e-05,0.999999997899
1471000000,147,1471000000,world,-0.000281412850595,8.63819713819e-05,1.75002622426,1.16210522177e-05,-4.61162217125e-05,1.99718731063e-05,0.99999999867
1481000000,148,1481000000,world,-0.000286487995194,8.66695573913e-05,1.76139440698,1.23022887959e-05,-3.14305834217e-05,2.03448087367e-05,0.999999999223
1491000000,149,1491000000,world,-0.000292631807747,8.70158579232e-05,1.77278358731,1.29678707915e-05,-1.667266477e-05,2.07179982736e-05,0.999999999562
1501000000,150,1501000000,world,-0.000297088020949,8.73370157826e-05,1.78419638946,1.36303407648e-05,-1.6985909628e-06,2.10914614573e-05,0.999999999683
1511000000,151,1511000000,world,-0.000303512968872,8.77335405598e-05,1.79563533777,1.42707069734e-05,1.2937895731e-05,2.14646062657e-05,0.999999999584
1521000000,152,1521000000,world,-0.000311768474806,8.81959800693e-05,1.80710286091,1.48634896875e-05,2.70646829979e-05,2.18373078728e-05,0.999999999285
1531000000,153,1531000000,world,-0.00032169696455,8.87149544147e-05,1.81860003407,1.54059716621e-05,4.05822524337e-05,2.22097164764e-05,0.999999998811
1541000000,154,1541000000,world,-0.00033190499256,8.92557694466e-05,1.8301228282,1.59108519672e-05,5.39227128914e-05,2.25819070267e-05,0.999999998165
1551000000,155,1551000000,world,-0.000341726296552,8.97989933383e-05,1.84166614778,1.63843119889e-05,6.72315375113e-05,2.29538257655e-05,0.999999997342
1561000000,156,1561000000,world,-0.000352913637105,9.03759994675e-05,1.85322510976,1.68333422556e-05,8.03185548936e-05,2.33255323312e-05,0.999999996361
1571000000,157,1571000000,world,-0.000365315870895,9.09786983323e-05,1.86479503374,1.72609727589e-05,9.31004321471e-05,2.36971236199e-05,0.999999995236
1581000000,158,1581000000,world,-0.000376792611252,9.16112790599e-05,1.8763714328,1.7667038797e-05,0.000105673991727,2.40682573499e-05,0.999999993971
1591000000,159,1591000000,world,-0.000388952831624,9.22557201097e-05,1.88795000625,1.8024539517e-05,0.000117742190505,2.44387358351e-05,0.999999992607
1601000000,160,1601000000,world,-0.000402023053669,9.29016475427e-05,1.89952663068,1.83286369351e-05,0.00012914852575,2.48087046547e-05,0.999999991185
1611000000,161,1611000000,world,-0.00041587513585,9.35429279967e-05,1.91109735244,1.85924021333e-05,0.000140124877279,2.51782858779e-05,0.999999989693
1621000000,162,1621000000,world,-0.000430031213655,9.41997179878e-05,1.92265838031,1.88202925232e-05,0.000150826613672,2.55474109958e-05,0.999999988122
1631000000,163,1631000000,world,-0.000444101198881,9.48983766411e-05,1.93420607867,1.90190514092e-05,0.000161308344057,2.59161661062e-05,0.999999986473
1641000000,164,1641000000,world,-0.000458634828394,9.55717666149e-05,1.94573696122,1.91990816813e-05,0.000171468779107,2.62846748297e-05,0.999999984769
1651000000,165,1651000000,world,-0.000473522101634,9.62154166366e-05,1.95724693328,1.93670057488e-05,0.000181220330273,2.66526605374e-05,0.999999983037
1661000000,166,1661000000,world,-0.000487783686638,9.6889470818e-05,1.96872984273,1.94888070933e-05,0.000190593628834,2.70199140342e-05,0.999999981282
1671000000,167,1671000000,world,-0.000502033651192,9.75379329804e-05,1.98017939776,1.95587432504e-05,0.000199415534691,2.73864934865e-05,0.99999997955
1681000000,168,1681000000,world,-0.000516416385451,9.81415441886e-05,1.99158957277,1.9590098633e-05,0.000207772558678,2.77525752421e-05,0.999999977838
1691000000,169,1691000000,world,-0.000531887551615,9.87161351292e-05,2.00295459691,1.95931510098e-05,0.000215686422951,2.81180815505e-05,0.999999976152
1701000000,170,1701000000,world,-0.000556295600005,9.93957497878e-05,2.01426894591,1.9560890067e-05,0.000222370068223,2.84827952735e-05,0.999999974679
1711000000,171,1711000000,world,-0.000580000503433,0.000100016357647,2.02552731931,1.95197976572e-05,0.000228851624681,2.88471323261e-05,0.999999973207
1721000000,172,1721000000,world,-0.00060285851828,0.000100576343962,2.03672464304,1.94714419696e-05,0.000235121788817,2.92110569335e-05,0.999999971743
1731000000,173,1731000000,world,-0.000624765643458,0.000101076389029,2.04785553515,1.94761048917e-05,0.000241096787901,2.95742064589e-05,0.999999970309
1741000000,174,1741000000,world,-0.000646703306966,0.00010152559315,2.05891244353,1.95949329314e-05,0.000246563803735,2.99365617048e-05,0.999999968963
1751000000,175,1751000000,world,-0.000668197116202,0.000101921326618,2.06988745556,1.98237057952e-05,0.000251598812835,3.02983715368e-05,0.999999967694
1761000000,176,1761000000,world,-0.00068849240724,0.000102259446235,2.08077300148,2.01727898348e-05,0.000256409089218,3.06597812397e-05,0.999999966454
1771000000,177,1771000000,world,-0.000707576480893,0.000102540834274,2.09156183893,2.06396390064e-05,0.00026104360552,3.10207847719e-05,0.999999965234
1781000000,178,1781000000,world,-0.000726597704824,0.000100801995374,2.10224703792,2.14279969088e-05,0.000265416166277,3.13812658569e-05,0.999999964055
1791000000,179,1791000000,world,-0.000744643468747,9.86476629088e-05,2.11282196502,2.23599170944e-05,0.000269635948564,3.17416170082e-05,0.999999962894
1801000000,180,1801000000,world,-0.000761439489288,9.66041972139e-05,2.12328027089,2.33842140715e-05,0.00027371876148,3.21017399405e-05,0.99999996175
1811000000,181,1811000000,world,-0.00077701737309,9.46846539811e-05,2.1336158772,2.44695826612e-05,0.000277655355196,3.24614603277e-05,0.999999960627
1821000000,182,1821000000,world,-0.000790608153811,9.23638056267e-05,2.14382296372,2.56542067038e-05,0.000281506676543,3.28208906789e-05,0.999999959509
1831000000,183,1831000000,world,-0.000802920556441,9.00766923332e-05,2.15389595795,2.68834279553e-05,0.00028524689489,3.31802374099e-05,0.999999958405
1841000000,184,1841000000,world,-0.00081422323041,8.79619209145e-05,2.16382952292,2.81323363135e-05,0.000288905821225,3.35395334811e-05,0.999999957309
1851000000,185,1851000000,world,-0.00082348450446,8.60012376537e-05,2.17361986439,2.93949955528e-05,0.000292614346213,3.38988491561e-05,0.999999956182
1861000000,186,1861000000,world,-0.000831203593514,8.41924582258e-05,2.18326726213,3.06701164542e-05,0.00029633295454,3.42582403017e-05,0.999999955036
1871000000,187,1871000000,world,-0.000838190798995,8.25341967758e-05,2.19277269197,3.19567663703e-05,0.000299964800532,3.46177608141e-05,0.999999953901
1881000000,188,1881000000,world,-0.000844501695733,8.10126968441e-05,2.20213709148,3.32639456813e-05,0.000303476202861,3.49771394852e-05,0.999999952786
1891000000,189,1891000000,world,-0.000848915992235,7.96049708981e-05,2.21136136108,3.45663940366e-05,0.000306974229191,3.53363081929e-05,0.999999951662
1901000000,190,1901000000,world,-0.000852284294876,7.82982429046e-05,2.22044636759,3.58548394546e-05,0.000310334821312,3.56952795024e-05,0.999999950566
1911000000,191,1911000000,world,-0.000855211073561,7.70780931524e-05,2.22939294413,3.71241084762e-05,0.000313541734784,3.60541664963e-05,0.999999949507
1921000000,192,1921000000,world,-0.000857730647918,7.59270640308e-05,2.23820189122,3.83686675811e-05,0.000316612501509,3.64129302685e-05,0.999999948479
1931000000,193,1931000000,world,-0.000859865877076,7.48280740041e-05,2.24687404745,3.95880141282e-05,0.000319551377577,3.6771560331e-05,0.999999947484
1941000000,194,1941000000,world,-0.000861263837917,7.37476073876e-05,2.25541049657,4.07897207452e-05,0.000322397828264,3.71301798149e-05,0.999999946509
1951000000,195,1951000000,world,-0.000860890966195,7.26214038937e-05,2.26381234785,4.19848665641e-05,0.000325242584115,3.748894411e-05,0.999999945525
1961000000,196,1961000000,world,-0.00086026397895,7.15059535701e-05,2.27208066941,4.31726250014e-05,0.000327895859464,3.78474224711e-05,0.999999944594
1971000000,197,1971000000,world,-0.000859390318275,7.03875359423e-05,2.28021648717,4.43294305159e-05,0.000330334738548,3.82055062503e-05,0.999999943727
1981000000,198,1981000000,world,-0.000856610432319,6.91246079866e-05,2.28822078627,4.54635719559e-05,0.000332715137077,3.85634314959e-05,0.999999942873
1991000000,199,1991000000,world,-0.000853494110516,6.78202794259e-05,2.2960945159,4.65602973757e-05,0.000334915807895,3.89212167177e-05,0.999999942074
2001000000,200,2001000000,world,-0.000850230764669,6.6488647163e-05,2.30383858765,4.76145641505e-05,0.000336903186477,3.92787890859e-05,0.999999941343
2011000000,201,2011000000,world,-0.000846810571533,6.51209344592e-05,2.3114538777,4.86281522188e-05,0.000338677590295,3.96361658585e-05,0.999999940681
2021000000,202,2021000000,world,-0.000843028793608,6.36896873514e-05,2.31894122818,4.96101939878e-05,0.00034025648739,3.99934737158e-05,0.999999940082
2031000000,203,2031000000,world,-0.000837425232767,6.20388066758e-05,2.32630144763,5.05834634764e-05,0.000341776256937,4.035084058e-05,0.999999939501
2041000000,204,2041000000,world,-0.000831708122234,6.0340589757e-05,2.33353531554,5.15265660621e-05,0.000343037123906,4.07078085968e-05,0.999999939007
2051000000,205,2051000000,world,-0.00082586092608,5.8584492392e-05,2.34064503371,5.2197754005e-05,0.000344027821694,4.10616032684e-05,0.999999938617
2061000000,206,2061000000,world,-0.000819854931787,5.67588296095e-05,2.34764000463,5.23321416837e-05,0.00034476435429,4.14091588792e-05,0.999999938342
2071000000,207,2071000000,world,-0.00081256146739,5.47385602638e-05,2.35453156856,5.19597708014e-05,0.000345375045087,4.1750862822e-05,0.999999938137
2081000000,208,2081000000,world,-0.000804389409495,5.2569328106e-05,2.36133069166,5.10983339972e-05,0.000345772859579,4.20868014455e-05,0.999999938029
2091000000,209,2091000000,world,-0.000795365081583,5.32688214986e-05,2.36804797423,4.94613947526e-05,0.000345949628682,4.24178265988e-05,0.999999938037
2101000000,210,2101000000,world,-0.000785177725596,5.80192058687e-05,2.37469365974,4.69648676862e-05,0.000345926067641,4.27445304303e-05,0.999999938151
2111000000,211,2111000000,world,-0.000774882800522,6.22370535369e-05,2.38127764506,4.40956404612e-05,0.000345576716602,4.30659267138e-05,0.999999938389
2121000000,212,2121000000,world,-0.000764454495529,6.58749003284e-05,2.38780948932,4.08500227382e-05,0.000344896266094,4.3381882126e-05,0.999999938748
2131000000,213,2131000000,world,-0.000753861132579,6.89081387167e-05,2.39429815186,3.72252018644e-05,0.000343901564165,4.36926080294e-05,0.999999939218
2141000000,214,2141000000,world,-0.00074307052966,7.13323884044e-05,2.40074813114,3.32682800475e-05,0.000342641361498,4.39984821807e-05,0.999999939777
2151000000,215,2151000000,world,-0.000730965527086,7.43136377461e-05,2.40716060302,2.8941632569e-05,0.000341150509996,4.42999612869e-05,0.999999940408
2161000000,216,2161000000,world,-0.000718205065773,7.7133654829e-05,2.41353662357,2.43683209107e-05,0.000339328508887,4.4596983167e-05,0.999999941137
2171000000,217,2171000000,world,-0.000705243617971,7.93018627274e-05,2.41987720806,1.96435890624e-05,0.000337120200805,4.48897055978e-05,0.999999941975
2181000000,218,2181000000,world,-0.000691642723903,8.09033932045e-05,2.42618333194,1.47445843024e-05,0.00033457927254,4.51783861889e-05,0.999999942899
2191000000,219,2191000000,world,-0.000676872475289,8.20449692788e-05,2.43245593278,9.64503067833e-06,0.000331775163531,4.54628269541e-05,0.999999943883
2201000000,220,2201000000,world,-0.000661905845719,8.26306183409e-05,2.43869591288,4.32827205639e-06,0.000328630447133,4.57430881415e-05,0.999999944945
2211000000,221,2211000000,world,-0.000646289659303,8.27368097135e-05,2.44490413857,-1.20497215816e-06,0.000325268048848,4.60194858038e-05,0.999999946041
2221000000,222,2221000000,world,-0.000629824583477,8.2428911707e-05,2.45108144282,-6.85327362859e-06,0.000321635344129,4.62922565365e-05,0.99999994718
2231000000,223,2231000000,world,-0.000613163651257,8.17158665063e-05,2.45722862683,-1.25632876526e-05,0.000317562756445,4.6561469469e-05,0.999999948414
2241000000,224,2241000000,world,-0.000596288760977,8.06511514704e-05,2.46334646025,-1.83077095288e-05,0.000313038714519,4.68273342316e-05,0.999999949739
2251000000,225,2251000000,world,-0.000579179762712,7.92867445823e-05,2.46943530444,-2.41018963416e-05,0.000308072590796,4.70901657943e-05,0.999999951146
2261000000,226,2261000000,world,-0.000561737577919,7.77088482437e-05,2.47549398624,-2.99926902461e-05,0.000302715591453,4.73498689396e-05,0.999999952611
2271000000,227,2271000000,world,-0.000543337062126,7.6243075913e-05,2.4815210081,-3.60520521132e-05,0.000297073349469,4.76063695615e-05,0.999999954091
2281000000,228,2281000000,world,-0.000524690284269,7.46002787373e-05,2.48751493326,-4.22747701855e-05,0.00029117065428,4.78598340334e-05,0.999999955571
2291000000,229,2291000000,world,-0.000505785144616,7.28240136278e-05,2.4934743819,-4.85869309442e-05,0.000285017356171,4.81105733477e-05,0.999999957045
2301000000,230,2301000000,world,-0.000486429229395,7.12135012222e-05,2.49939802914,-5.49341616581e-05,0.00027843725509,4.8358701018e-05,0.999999958558
2311000000,231,2311000000,world,-0.000466538106354,6.99110988288e-05,2.50528460299,-6.13042303713e-05,0.000271404546043,4.86043587354e-05,0.999999960109
2321000000,232,2321000000,world,-0.000446371878703,6.85525513551e-05,2.51113288239,-6.76461044269e-05,0.000263890446345,4.88476959725e-05,0.9999999617
2331000000,233,2331000000,world,-0.000425923374049,6.716620762e-05,2.5169414416,-7.40154286636e-05,0.000255952572065,4.90888086032e-05,0.9999999633
2341000000,234,2341000000,world,-0.00040518622891,6.57801963658e-05,2.52270753503,-8.04521750038e-05,0.000247652173911,4.93274276821e-05,0.999999964881
2351000000,235,2351000000,world,-0.000384098217743,6.52795469317e-05,2.52842807431,-8.70898494827e-05,0.000239095270531,4.95639167361e-05,0.999999966396
2361000000,236,2361000000,world,-0.000362720586125,6.47821433918e-05,2.53410009732,-9.38136639225e-05,0.000230405193358,4.97982438761e-05,0.999999967816
2371000000,237,2371000000,world,-0.000341046889021,6.43107265764e-05,2.53972076249,-0.000100507174726,0.000221354160632,5.00305527652e-05,0.999999969199
2381000000,238,2381000000,world,-0.000324715846995,6.81533775513e-05,2.54528734536,-0.000107584736469,0.000211228196871,5.02629747331e-05,0.999999970641
2391000000,239,2391000000,world,-0.000313251105014,7.68970699029e-05,2.55079722948,-0.000115063238548,0.000200081666468,5.04957922271e-05,0.999999972089
2401000000,240,2401000000,world,-0.000300768088373,8.51288395195e-05,2.55624790392,-0.000122391827386,0.000188608475158,5.07267111728e-05,0.999999973437
2411000000,241,2411000000,world,-0.000288837622739,9.35087494497e-05,2.56163696172,-0.000129669943122,0.000176768643011,5.09559367078e-05,0.999999974671
2421000000,242,2421000000,world,-0.000282066609242,0.000105139035985,2.56696209176,-0.000137240292035,0.000164206594014,5.11850744667e-05,0.999999975791
2431000000,243,2431000000,world,-0.000273691024262,0.000115939216973,2.5722210767,-0.000144673463092,0.000151875291892,5.14118353567e-05,0.99999997668
2441000000,244,2441000000,world,-0.000263674338197,0.000125907579698,2.57741178867,-0.000151844126362,0.000139735204751,5.16364984329e-05,0.999999977376
2451000000,245,2451000000,world,-0.000252018019642,0.000135070957917,2.58253219042,-0.000158649368187,0.000127516588917,5.18590840306e-05,0.99999997794
2461000000,246,2461000000,world,-0.000242895859485,0.000145801343528,2.58758154182,-0.000165298972583,0.000114772787819,5.20811377175e-05,0.999999978396
2471000000,247,2471000000,world,-0.000231992848578,0.000155694675083,2.59256183357,-0.00017151687868,0.000102005275453,5.23012744377e-05,0.999999978721
2481000000,248,2481000000,world,-0.000219364881338,0.000164804782207,2.59747533672,-0.000177345778364,8.93446690088e-05,5.25194967433e-05,0.999999978904
2491000000,249,2491000000,world,-0.000205095148495,0.000173201192262,2.60232423585,-0.000182804027986,7.69039400152e-05,5.27354617111e-05,0.999999978944
2501000000,250,2501000000,world,-0.000190754184747,0.000180974368903,2.60711063248,-0.000187919165137,6.46717097941e-05,5.2949703636e-05,0.99999997885
2511000000,251,2511000000,world,-0.000177053139917,0.000188219790071,2.61183654776,-0.000192667592784,5.2750361142e-05,5.316264489e-05,0.999999978635
2521000000,252,2521000000,world,-0.000161824507271,0.000195008877116,2.6165039254,-0.000196945676767,4.10968556312e-05,5.33736123525e-05,0.999999978337
2531000000,253,2531000000,world,-0.000145171878702,0.000201432647219,2.6211146664,-0.000200729840684,2.95816840713e-05,5.3582614698e-05,0.999999977981
2541000000,254,2541000000,world,-0.000128566227226,0.000206933640934,2.62567072504,-0.000203946094419,1.80637674552e-05,5.37904381493e-05,0.999999977593
2551000000,255,2551000000,world,-0.00011103100431,0.000212124175882,2.63017401096,-0.000206680175623,6.72074998529e-06,5.39967952947e-05,0.999999977161
2561000000,256,2561000000,world,-9.23348922514e-05,0.000217257495183,2.634626361,-0.00020896752371,-4.30291555329e-06,5.4201292827e-05,0.999999976688
2571000000,257,2571000000,world,-7.25987449174e-05,0.000222412392433,2.63902954174,-0.000210843243981,-1.49251534583e-05,5.44037644224e-05,0.999999976181
2581000000,258,2581000000,world,-5.19481937197e-05,0.000227659813323,2.64338525211,-0.000212323389048,-2.49948287898e-05,5.46043507618e-05,0.999999975656
2591000000,259,2591000000,world,-3.1998267597e-05,0.000231366148853,2.6476951265,-0.000213190450525,-3.47318246908e-05,5.48042674443e-05,0.99999997517
2601000000,260,2601000000,world,-1.12770563908e-05,0.000235388408027,2.65196073511,-0.00021361993338,-4.42239154242e-05,5.50025841313e-05,0.999999974693
2611000000,261,2611000000,world,1.01142759774e-05,0.000239787862174,2.6561835886,-0.000213621128825,-5.3496153115e-05,5.51993956775e-05,0.999999974229
2621000000,262,2621000000,world,3.43739604531e-05,0.000244098663373,2.66036514006,-0.000213152841144,-6.22907549246e-05,5.53941225268e-05,0.999999973809
2631000000,263,2631000000,world,6.79276826148e-05,0.000246899432364,2.66450678803,-0.000212071423868,-6.98523769153e-05,5.55843346481e-05,0.999999973528
2641000000,264,2641000000,world,0.00010115402625,0.000250347149235,2.66860987305,-0.00021061090142,-7.71738738193e-05,5.57732415778e-05,0.999999973288
2651000000,265,2651000000,world,0.000133881163634,0.000254478306415,2.67267545671,-0.000208798380721,-8.42187233228e-05,5.59608630688e-05,0.999999973089
2661000000,266,2661000000,world,0.000165978674085,0.000259313993484,2.67670363717,-0.000206639764188,-9.09399446856e-05,5.61474955304e-05,0.999999972939
2671000000,267,2671000000,world,0.000199285931953,0.000264536976933,2.68069428428,-0.000204114526697,-9.73636766731e-05,5.6332659371e-05,0.999999972842
2681000000,268,2681000000,world,0.000232166034268,0.00027041061108,2.68464727217,-0.000201265030397,-0.000103758437549,5.65169552446e-05,0.999999972766
2691000000,269,2691000000,world,0.000264063407615,0.00027701144521,2.68856248016,-0.000198107637652,-0.000110206772949,5.67007448554e-05,0.999999972696
2701000000,270,2701000000,world,0.000294808872105,0.000284332633767,2.69243979242,-0.000194631606167,-0.000116712069339,5.68842686801e-05,0.999999972631
2711000000,271,2711000000,world,0.000324006078627,0.00029237546505,2.69627909763,-0.000190810334053,-0.000123280783223,5.70673724162e-05,0.999999972568
2721000000,272,2721000000,world,0.000352224975512,0.000301082319038,2.70008028906,-0.000186658098398,-0.000129814909014,5.72497382815e-05,0.999999972515
2731000000,273,2731000000,world,0.000379488510027,0.000310423899585,2.70384315472,-0.000182169765466,-0.000136214319902,5.74315233267e-05,0.999999972481
2741000000,274,2741000000,world,0.000405399467397,0.000320330997438,2.70756705161,-0.000177373501154,-0.000142607610744,5.76130563831e-05,0.999999972441
2751000000,275,2751000000,world,0.000429475587883,0.000330725144075,2.71125125493,-0.000172290650304,-0.000149213262308,5.77944684282e-05,0.999999972356
2761000000,276,2761000000,world,0.000452803596304,0.000341660897345,2.714895069,-0.000166936562815,-0.000155937140152,5.797548035e-05,0.999999972227
2771000000,277,2771000000,world,0.000475135073993,0.000353041302388,2.71849782533,-0.000161291632854,-0.000162795489208,5.81563594713e-05,0.99999997205
2781000000,278,2781000000,world,0.000495665618867,0.000364548371729,2.7220588819,-0.000155263303867,-0.000169814185965,5.83372484391e-05,0.999999971827
2791000000,279,2791000000,world,0.000515679492381,0.000376526309192,2.72557762226,-0.000148884962807,-0.000176805936291,5.85174135534e-05,0.999999971574
2801000000,280,2801000000,world,0.000535222512344,0.000388946565658,2.72905345427,-0.00014214688063,-0.000183671930135,5.86968878388e-05,0.999999971307
2811000000,281,2811000000,world,0.000554330480551,0.000401779132722,2.7324858091,-0.000135071321197,-0.000190349751626,5.88758638599e-05,0.999999971028
2821000000,282,2821000000,world,0.000572414994667,0.000414699607655,2.73587414026,-0.000127695885931,-0.000197105958071,5.905456068e-05,0.999999970678
2831000000,283,2831000000,world,0.000589247996273,0.000427559935114,2.73921792285,-0.000120023882775,-0.000204010946101,5.92330453945e-05,0.999999970233
2841000000,284,2841000000,world,0.000605813442683,0.000440788108987,2.74251665308,-0.000112105110968,-0.000210954712176,5.94111545127e-05,0.9999999697
2851000000,285,2851000000,world,0.000622128660846,0.000454361875484,2.74576982855,-0.000103875325826,-0.000217881799746,5.95889860031e-05,0.999999969093
2861000000,286,2861000000,world,0.000636107821042,0.00046603486052,2.74897689291,-9.50435554607e-05,-0.000224952677032,5.97668937967e-05,0.999999968395
2871000000,287,2871000000,world,0.000641809667681,0.000469475329956,2.75213729262,-8.49564608691e-05,-0.000232705982201,5.99469020385e-05,0.999999967518
2881000000,288,2881000000,world,0.000647900168995,0.000473864093577,2.75525049923,-7.45951215482e-05,-0.000240070923111,6.01260800895e-05,0.999999966593
2891000000,289,2891000000,world,0.000654444973259,0.000479249882291,2.75831600375,-6.41008776112e-05,-0.000247148935965,6.03045623341e-05,0.999999965586
2901000000,290,2901000000,world,0.000659333851027,0.000482441920123,2.76133331653,-5.32165539629e-05,-0.000254280300499,6.04831770171e-05,0.999999964426
2911000000,291,2911000000,world,0.000661702163038,0.000482137518177,2.76430196725,-4.18564222293e-05,-0.000261530020278,6.06623509165e-05,0.999999963085
2921000000,292,2921000000,world,0.000664862621813,0.000483307165914,2.76722150581,-3.05390096082e-05,-0.000268489677865,6.08408640986e-05,0.99999996164
2931000000,293,2931000000,world,0.0006688049642,0.000485954806642,2.77009178749,-1.91827168922e-05,-0.00027506512451,6.10185540909e-05,0.999999960124
2941000000,294,2941000000,world,0.000671595332894,0.000486556666706,2.77291383207,-7.43921959066e-06,-0.000281389319749,6.11961735445e-05,0.99999995851
2951000000,295,2951000000,world,0.000674387141746,0.000487289644705,2.77568890443,4.44898408107e-06,-0.000287230003677,6.13731069092e-05,0.999999956856
2961000000,296,2961000000,world,0.000677959093228,0.000489644538995,2.77841822071,1.62087750298e-05,-0.000292462027045,6.15490582317e-05,0.999999955207
2971000000,297,2971000000,world,0.000682241384465,0.000493544366429,2.78110294964,2.7688344434e-05,-0.000297238190004,6.17239593306e-05,0.999999953536
2981000000,298,2981000000,world,0.000687146873128,0.000498890726446,2.78374421482,3.88510824698e-05,-0.000301566756586,6.18978101572e-05,0.999999951858
2991000000,299,2991000000,world,0.000692413497369,0.000503138398697,2.78634309606,4.99469658425e-05,-0.000305445646725,6.20716639657e-05,0.999999950178
3001000000,300,3001000000,world,0.00069804463315,0.000507463856301,2.78890063177,6.09356400877e-05,-0.000308822671259,6.22451304353e-05,0.99999994852
3011000000,301,3011000000,world,0.000704011106401,0.000513112526941,2.79141782031,7.17134669953e-05,-0.000311664596643,6.24173817013e-05,0.999999946913
3021000000,302,3021000000,world,0.000710819728755,0.000518188927438,2.79389562133,8.24624410395e-05,-0.000313889281865,6.2589196959e-05,0.999999945378
3031000000,303,3031000000,world,0.000717874254298,0.000524024040196,2.79633495703,9.30083975878e-05,-0.000315519558917,6.27600834425e-05,0.999999943929
3041000000,304,3041000000,world,0.000724918501741,0.00053096124373,2.79873671401,0.000103149167732,-0.000316627421579,6.29298881387e-05,0.999999942574
3051000000,305,3051000000,world,0.000731860669966,0.000538879831866,2.80110164552,0.000112837220668,-0.00031725601016,6.3098548851e-05,0.999999941317
3061000000,306,3061000000,world,0.000738965184225,0.000547501141788,2.80342973754,0.000122086801199,-0.000317362445509,6.32663419447e-05,0.999999940187
3071000000,307,3071000000,world,0.000747145444314,0.000555504063295,2.80572065106,0.00013108031794,-0.000316839337377,6.34342604855e-05,0.999999939203
3081000000,308,3081000000,world,0.000754893047424,0.000564213919778,2.80797405836,0.000139753516337,-0.000315855194844,6.36011225046e-05,0.99999993833
3091000000,309,3091000000,world,0.00076228749657,0.000575554039701,2.81018964596,0.000147882825308,-0.000314421125188,6.37659644023e-05,0.999999937602
3101000000,310,3101000000,world,0.000769695452438,0.000595180151478,2.81236711437,0.000154882252248,-0.000312529010095,6.3926563121e-05,0.999999937125
3111000000,311,3111000000,world,0.000776456793588,0.000614570451248,2.81450617057,0.00016159074577,-0.000310225669977,6.40865514105e-05,0.999999936771
3121000000,312,3121000000,world,0.000782533367961,0.000633550045898,2.81660653597,0.000167982553311,-0.000307516788797,6.42458866042e-05,0.999999936544
3131000000,313,3131000000,world,0.000787898435911,0.000651983255205,2.81866839642,0.000174088357237,-0.000304393628965,6.44046687295e-05,0.999999936445
3141000000,314,3141000000,world,0.000792534126941,0.000669765824861,2.82069440101,0.000179956021871,-0.000300853940071,6.45631368753e-05,0.999999936467
3151000000,315,3151000000,world,0.000796173026395,0.000687853629642,2.82268791576,0.000185567395296,-0.000296954174994,6.47208760288e-05,0.999999936597
3161000000,316,3161000000,world,0.000798919003049,0.000705768576938,2.82465218004,0.000190999513196,-0.00029272058651,6.48777692583e-05,0.999999936812
3171000000,317,3171000000,world,0.000800957290334,0.000722752749131,2.82659031127,0.000196343846742,-0.000288188256475,6.50341627512e-05,0.999999937084
3181000000,318,3181000000,world,0.000802180285078,0.000738587733808,2.82850530944,0.000201623237021,-0.000283384541928,6.51903433101e-05,0.999999937396
3191000000,319,3191000000,world,0.000802377421544,0.000752727263135,2.8304000612,0.000206847113984,-0.000278244072359,6.53465634311e-05,0.999999937762
3201000000,320,3201000000,world,0.000801936943063,0.000765946694593,2.83227734495,0.000211933701807,-0.000272694124136,6.55025799376e-05,0.999999938216
3211000000,321,3211000000,world,0.000800880555299,0.000778263839311,2.83413983343,0.000216897672384,-0.000266714447371,6.5658553174e-05,0.999999938754
3221000000,322,3221000000,world,0.000799135383253,0.000788763487536,2.83599009761,0.000221881347614,-0.000260338087163,6.58149623152e-05,0.999999939331
3231000000,323,3231000000,world,0.000796762384934,0.000797857219309,2.83783061145,0.000226884296434,-0.000253615466325,6.59713168279e-05,0.999999939925
3241000000,324,3241000000,world,0.000793850203019,0.000806228625344,2.8396637551,0.000231824378865,-0.000246600864674,6.61272498252e-05,0.999999940536
3251000000,325,3251000000,world,0.000790423413427,0.000813915452417,2.84149113264,0.000236699095191,-0.00023937842256,6.62829112106e-05,0.999999941139
3261000000,326,3261000000,world,0.000786502662859,0.000820950401907,2.84331153394,0.000241451542771,-0.000231818096164,6.64384540519e-05,0.999999941774
3271000000,327,3271000000,world,0.000782294217621,0.000826111165025,2.84512312567,0.000246189354447,-0.00022381528246,6.65943030999e-05,0.999999942431
3281000000,328,3281000000,world,0.000777668654774,0.000830444535559,2.84692414898,0.000250800798633,-0.0002153555123,6.67501437219e-05,0.999999943133
3291000000,329,3291000000,world,0.00077259861582,0.000834306737242,2.84871291529,0.000255271556702,-0.000206457499545,6.69060215464e-05,0.999999943868
3301000000,330,3301000000,world,0.000767281309288,0.000837252298013,2.85048780329,0.000259693141562,-0.000197182172978,6.70618762003e-05,0.999999944591
3311000000,331,3311000000,world,0.00076195222249,0.000838725022895,2.85224725646,0.000264101794597,-0.000187582291092,6.7217656335e-05,0.999999945272
3321000000,332,3321000000,world,0.00075620820885,0.000839878695843,2.8539897811,0.000268369752279,-0.000177837458121,6.73729425493e-05,0.999999945906
3331000000,333,3331000000,world,0.000750065556726,0.000840728022611,2.85571411356,0.000272455212035,-0.000167872584576,6.75279429584e-05,0.999999946513
3341000000,334,3341000000,world,0.000750123114067,0.000837841595087,2.85741996994,0.00027668178836,-0.000156817898596,6.76849724584e-05,0.999999947137
3351000000,335,3351000000,world,0.00075584298826,0.000831508236523,2.85910738343,0.000280998174381,-0.000144704527833,6.78438178879e-05,0.999999947749
3361000000,336,3361000000,world,0.000760376072844,0.000825306906215,2.86077638598,0.000285020824543,-0.00013227855777,6.80021993584e-05,0.999999948321
3371000000,337,3371000000,world,0.000763666691199,0.000819268158457,2.86242700881,0.000288771758893,-0.000119677078857,6.81599943421e-05,0.999999948821
3381000000,338,3381000000,world,0.000771991908208,0.000811213308907,2.86405928203,0.000292457883992,-0.000106369500655,6.83188202024e-05,0.999999949243
3391000000,339,3391000000,world,0.00078132798393,0.000802532295267,2.86567323386,0.00029589537551,-9.29848139186e-05,6.84772630261e-05,0.999999949555
3401000000,340,3401000000,world,0.000788870051865,0.000794186171898,2.86726889197,0.000298945443427,-7.99268999517e-05,6.86345778326e-05,0.999999949766
3411000000,341,3411000000,world,0.000794621908128,0.000786153710015,2.86884628311,0.000301556014614,-6.69399277838e-05,6.87908686984e-05,0.999999949925
3421000000,342,3421000000,world,0.000799641270976,0.000778218680837,2.8704054329,0.000303732624164,-5.38590463637e-05,6.89464483807e-05,0.999999950046
3431000000,343,3431000000,world,0.000806874012266,0.000769823554459,2.87194636581,0.000305533419025,-4.03929698451e-05,6.9102449264e-05,0.999999950121
3441000000,344,3441000000,world,0.000812240378514,0.000761656398553,2.87346910537,0.000306893244624,-2.70902139578e-05,6.92575068115e-05,0.999999950143
3451000000,345,3451000000,world,0.000815824624315,0.000753662208811,2.87497352024,0.000307807998018,-1.40955044879e-05,6.94112466809e-05,0.999999950119
3461000000,346,3461000000,world,0.000821363541869,0.000746493706276,2.87645886539,0.000308166369691,-1.16061575638e-06,6.95648915886e-05,0.999999950096
3471000000,347,3471000000,world,0.000825143266896,0.000739331213761,2.87792427313,0.000308035123914,1.11437956391e-05,6.97171578458e-05,0.999999950065
3481000000,348,3481000000,world,0.000827270344097,0.000732106100077,2.87936891079,0.000307418419992,2.30307872886e-05,6.98683097832e-05,0.999999950041
3491000000,349,3491000000,world,0.000827871558053,0.000724753620593,2.88079197867,0.000306330310356,3.46244725696e-05,7.00183616974e-05,0.99999995003
3501000000,350,3501000000,world,0.000828334211337,0.000718840484843,2.88219270966,0.000304622229618,4.60726767197e-05,7.0168177153e-05,0.99999995008
3511000000,351,3511000000,world,0.000827621269788,0.000712762546279,2.88357036517,0.000302473070105,5.72106298056e-05,7.0317254337e-05,0.999999950146
3521000000,352,3521000000,world,0.000825730322225,0.000706268858073,2.88492423668,0.00029989476615,6.79149109834e-05,7.04653001867e-05,0.999999950243
3531000000,353,3531000000,world,0.000822804206543,0.000699305122588,2.88625403762,0.000296855984324,7.81078466094e-05,7.06120666401e-05,0.999999950395
3541000000,354,3541000000,world,0.000818987454815,0.000691826975854,2.8875610763,0.000293334902869,8.76759959073e-05,7.07576555493e-05,0.99999995063
3551000000,355,3551000000,world,0.00081509108297,0.00068538990463,2.88884699808,0.00028919978428,9.67793631266e-05,7.09029899194e-05,0.999999950985
3561000000,356,3561000000,world,0.000810812916191,0.00067895006935,2.89011338365,0.000284620610071,0.000105531243045,7.10477028008e-05,0.999999951403
3571000000,357,3571000000,world,0.000805974441838,0.000671772028618,2.89136175315,0.000279705213428,0.000113934710316,7.11915768756e-05,0.999999951858
3581000000,358,3581000000,world,0.000800689209385,0.000663832987967,2.89259356863,0.000274477723406,0.000121991570951,7.13348045348e-05,0.999999952346
3591000000,359,3591000000,world,0.000787434867712,0.000653079509667,2.89381023685,0.000269106085856,0.000128834086804,7.14741927079e-05,0.999999952938
3601000000,360,3601000000,world,0.000771210959283,0.000640820990166,2.89501310907,0.000263414195737,0.000134960577355,7.16114738884e-05,0.999999953635
3611000000,361,3611000000,world,0.000755562224484,0.00062798785919,2.89620336221,0.000257259134994,0.000140719050828,7.17480811459e-05,0.999999954434
3621000000,362,3621000000,world,0.000738558973852,0.000613554384286,2.89738121706,0.000250760842461,0.000145941430437,7.18833814061e-05,0.999999955326
3631000000,363,3631000000,world,0.000722279366973,0.000598559655059,2.89854648375,0.000243906634198,0.000150970821469,7.20184243262e-05,0.999999956265
3641000000,364,3641000000,world,0.000707051794658,0.000583162180049,2.89969897852,0.000236707363744,0.000155892495241,7.21533320609e-05,0.999999957231
3651000000,365,3651000000,world,0.000693016055269,0.000567393837577,2.90083852484,0.000229180995607,0.000160757630156,7.2288305849e-05,0.999999958204
3661000000,366,3661000000,world,0.000680834746465,0.000551283388607,2.90196495295,0.000221268821747,0.000165634351117,7.24237596956e-05,0.99999995918
3671000000,367,3671000000,world,0.000669749050733,0.000534846202134,2.90307810023,0.000212903202571,0.000170418886765,7.25590615945e-05,0.999999960182
3681000000,368,3681000000,world,0.000659741325703,0.000518099539803,2.90417781023,0.000204018979604,0.000175086985155,7.26941081664e-05,0.999999961218
3691000000,369,3691000000,world,0.000655065643706,0.000508157520892,2.90526393406,0.000193832124925,0.00018004988891,7.28312650154e-05,0.999999962353
3701000000,370,3701000000,world,0.000653928432722,0.000502129929885,2.90633632612,0.000182805413183,0.000185209553067,7.29697679729e-05,0.999999963478
3711000000,371,3711000000,world,0.000653294118206,0.000495072459378,2.90739484657,0.000171571124986,0.000190278173578,7.31080200734e-05,0.999999964506
3721000000,372,3721000000,world,0.000653075914059,0.000486930845526,2.90843936219,0.000160192928693,0.000195254688307,7.32460634485e-05,0.999999965424
3731000000,373,3731000000,world,0.000653206668697,0.00047768249447,2.90946979407,0.000148656660638,0.000200113285234,7.33840586286e-05,0.999999966235
3741000000,374,3741000000,world,0.000653636098875,0.000467330605689,2.91048633375,0.000136875298953,0.000204796297136,7.35217466973e-05,0.999999966959
3751000000,375,3751000000,world,0.000656538826541,0.000460260381576,2.91148925377,0.000124338262918,0.000209490489098,7.36599056627e-05,0.999999967614
3761000000,376,3761000000,world,0.00066098619116,0.00045537395922,2.91247881545,0.000111133852836,0.000214033095298,7.37982320024e-05,0.999999968196
3771000000,377,3771000000,world,0.000665418847471,0.000449002262596,2.91345526984,9.78112330351e-05,0.00021830476361,7.39360732957e-05,0.999999968655
3781000000,378,3781000000,world,0.000671159991778,0.000446805473835,2.91441885893,8.39573763846e-05,0.00022247179963,7.40744687145e-05,0.999999968985
3791000000,379,3791000000,world,0.000676914700503,0.000443471107345,2.91536981421,7.02153207929e-05,0.000226395834658,7.4212281551e-05,0.999999969154
3801000000,380,3801000000,world,0.000682521575395,0.000438377331809,2.91630835881,5.6683775911e-05,0.000230043682929,7.43495281945e-05,0.99999996917
3811000000,381,3811000000,world,0.000687989294502,0.000431579928465,2.91723470721,4.32543136767e-05,0.000233371495441,7.44861765235e-05,0.999999969059
3821000000,382,3821000000,world,0.000693882369153,0.000426476679298,2.91814906539,2.95307536258e-05,0.000236400695968,7.46226016695e-05,0.999999968837
3831000000,383,3831000000,world,0.000699713747955,0.000420020986517,2.91905163122,1.58003956664e-05,0.000239045706303,7.47580995335e-05,0.999999968509
3841000000,384,3841000000,world,0.000705452375759,0.000411929124619,2.91994259496,2.17995684609e-06,0.000241325736741,7.48928184287e-05,0.999999968074
3851000000,385,3851000000,world,0.000710960393636,0.000403021990561,2.92082191404,-1.11760362437e-05,0.000243238214969,7.50269425035e-05,0.999999967541
3861000000,386,3861000000,world,0.000715782425877,0.000395417366291,2.92168864159,-2.44169186898e-05,0.000244722681297,7.51610183565e-05,0.999999966933
3871000000,387,3871000000,world,0.00072068797532,0.000386353279385,2.92254164696,-3.7205894074e-05,0.000245857796891,7.52943401991e-05,0.99999996625
3881000000,388,3881000000,world,0.000725727484484,0.00037594485962,2.92337984479,-4.96435550334e-05,0.000246638491445,7.54270810052e-05,0.999999965508
3891000000,389,3891000000,world,0.000730948105157,0.00036431969218,2.92420219283,-6.18059081861e-05,0.000247060456045,7.55589106542e-05,0.999999964716
3901000000,390,3901000000,world,0.000736132631294,0.000351978089066,2.92500769031,-7.37915804398e-05,0.000247103592748,7.56899026999e-05,0.999999963883
3911000000,391,3911000000,world,0.000740580064827,0.000340096415225,2.92579537624,-8.57230871663e-05,0.000246738203162,7.582073752e-05,0.999999963012
3921000000,392,3921000000,world,0.000745405370258,0.0003273013203,2.92656432733,-9.72435048678e-05,0.00024608321628,7.59508733556e-05,0.999999962109
3931000000,393,3931000000,world,0.00075065011673,0.000313716865089,2.92731357412,-0.000108275628705,0.000245091269241,7.60802384128e-05,0.999999961209
3941000000,394,3941000000,world,0.000755590777511,0.000300255899883,2.92804156627,-0.000118885151297,0.000243689764433,7.62093463509e-05,0.999999960337
3951000000,395,3951000000,world,0.000760315384137,0.000286969262415,2.92874654194,-0.000129122203947,0.000241898189883,7.63383761344e-05,0.999999959493
