%time,field.header.seq,field.header.stamp,field.header.frame_id,field.point.x,field.point.y,field.point.z
1000000,0,1000000,world,0.0,0.0,0.74
11000000,1,11000000,world,-1.07738277069e-27,-1.09807001825e-27,0.739461
21000000,2,21000000,world,1.63692024856e-24,1.51811157212e-24,0.737942
31000000,3,31000000,world,-4.38394968409e-25,-6.00545634499e-25,0.735443
41000000,4,41000000,world,-1.4288227372e-24,-1.79321964477e-24,0.731964
51000000,5,51000000,world,-2.69206115799e-25,-7.55861801429e-25,0.727505
61000000,6,61000000,world,4.36934927905e-25,3.89341348587e-26,0.722066
71000000,7,71000000,world,-3.79613243142e-19,3.79499244117e-19,0.715647
81000000,8,81000000,world,-1.18059769491e-18,1.1780670113e-18,0.708248
91000000,9,91000000,world,-1.9991043683e-18,1.97925851127e-18,0.699869
101000000,10,101000000,world,-3.09381935378e-18,2.99756210838e-18,0.69051
111000000,11,111000000,world,-4.23751507711e-18,4.06021915302e-18,0.680171
121000000,12,121000000,world,-5.42135433347e-18,5.15885910443e-18,0.668852
131000000,13,131000000,world,1.59637784864e-14,1.50741722199e-14,0.656553080965
141000000,14,141000000,world,3.38370270198e-14,3.11850516277e-14,0.643275584944
151000000,15,151000000,world,-6.05250082467e-15,-1.11736777119e-14,0.629023413989
161000000,16,161000000,world,-1.73994389972e-06,1.30535253157e-07,0.624997933125
171000000,17,171000000,world,3.75301490659e-06,2.05668332547e-06,0.624996420002
181000000,18,181000000,world,-2.4613948706e-06,-2.21521661609e-06,0.624997992927
191000000,19,191000000,world,4.34978477448e-06,8.9411510098e-07,0.624996513928
201000000,20,201000000,world,-3.00130949264e-06,-4.44051012065e-06,0.624996352208
211000000,21,211000000,world,4.56124878395e-06,1.48631167559e-07,0.624996678154
221000000,22,221000000,world,1.26988678097e-06,-5.84183493424e-06,0.624998430252
231000000,23,231000000,world,1.09122501814e-06,1.03919985348e-06,0.624998542173
241000000,24,241000000,world,4.53149753906e-06,-5.48303314605e-07,0.624997089186
251000000,25,251000000,world,-2.10164634217e-06,-4.73287631719e-06,0.624996739249
261000000,26,261000000,world,-2.67612703864e-06,-2.62208926798e-06,0.625000387601
271000000,27,271000000,world,-2.75506287426e-06,-1.91331003467e-06,0.625000004244
281000000,28,281000000,world,-2.04207686098e-06,-1.92106245097e-06,0.625000207155
291000000,29,291000000,world,-2.24539597022e-06,-2.31683403745e-06,0.624999987548
301000000,30,301000000,world,-1.81451545878e-06,-2.44520072466e-06,0.625000184326
311000000,31,311000000,world,-2.46439553109e-06,-2.32636944334e-06,0.625000120201
321000000,32,321000000,world,-2.08442147169e-06,-2.60531617982e-06,0.62500009829
331000000,33,331000000,world,-2.43521863078e-06,-2.31155544815e-06,0.625000059417
341000000,34,341000000,world,-2.02223341916e-06,-2.69879339276e-06,0.62500031974
351000000,35,351000000,world,-3.06357174447e-06,-2.60318595098e-06,0.625000327391
361000000,36,361000000,world,-2.53847644884e-06,-2.84354404141e-06,0.625000103771
371000000,37,371000000,world,-2.53291875608e-06,-2.32137763661e-06,0.625000184822
381000000,38,381000000,world,-1.99241213999e-06,-2.6402888043e-06,0.624999642181
391000000,39,391000000,world,-3.36919740733e-06,-2.01895968558e-06,0.624999172928
401000000,40,401000000,world,-1.70022580567e-06,-3.16561526466e-06,0.624999190093
411000000,41,411000000,world,-3.59183413425e-06,-1.96246532863e-06,0.62499914183
421000000,42,421000000,world,-2.0869463276e-06,-2.96287241756e-06,0.6249993857
431000000,43,431000000,world,-3.00854584071e-06,-1.94079173108e-06,0.624999428441
441000000,44,441000000,world,-2.50135437631e-06,-3.00032841209e-06,0.624999892623
451000000,45,451000000,world,-2.66002303855e-06,-2.70501949199e-06,0.624999259192
461000000,46,461000000,world,-2.66691413351e-06,-2.38149761221e-06,0.624999915727
471000000,47,471000000,world,-2.63941098959e-06,-2.50313378743e-06,0.625000070237
481000000,48,481000000,world,-1.8885991632e-06,-2.35190979192e-06,0.625010229907
491000000,49,491000000,world,-7.33032521441e-08,-1.96988251666e-06,0.625065325201
501000000,50,501000000,world,2.26546788563e-06,-1.38888360935e-06,0.625204635384
511000000,51,511000000,world,5.34516102664e-06,-6.6455330716e-07,0.625466599059
521000000,52,521000000,world,9.2914035288e-06,1.57521714881e-07,0.625888786022
531000000,53,531000000,world,1.40221662881e-05,1.04579432299e-06,0.626507621351
541000000,54,541000000,world,1.90626115795e-05,1.81987108852e-06,0.627357195665
551000000,55,551000000,world,2.46524631636e-05,2.58301069923e-06,0.628470241413
561000000,56,561000000,world,3.0818078985e-05,3.35975466411e-06,0.629878619027
571000000,57,571000000,world,3.72946418273e-05,4.07894518357e-06,0.631613319511
581000000,58,581000000,world,4.39360671478e-05,4.70760850422e-06,0.633704469298
591000000,59,591000000,world,5.09837912284e-05,5.3320220784e-06,0.636181337194
601000000,60,601000000,world,5.83825965165e-05,5.94811979808e-06,0.639072343116
611000000,61,611000000,world,6.60808267994e-05,6.55216280878e-06,0.642405068416
621000000,62,621000000,world,7.40294644392e-05,7.1429811536e-06,0.646206267546
631000000,63,631000000,world,8.17539156405e-05,7.67577667225e-06,0.650501880918
641000000,64,641000000,world,8.96741547348e-05,8.19933011857e-06,0.655317048757
651000000,65,651000000,world,9.77584320354e-05,8.71510488475e-06,0.660673722256
661000000,66,661000000,world,0.000105942373404,9.22878792345e-06,0.666583466216
671000000,67,671000000,world,0.000113925651917,9.77487804195e-06,0.673055073358
681000000,68,681000000,world,0.000122014995474,1.03147459799e-05,0.680097015558
691000000,69,691000000,world,0.000130194298386,1.08510191806e-05,0.687717454555
701000000,70,701000000,world,0.000138447083723,1.13861036137e-05,0.695924252288
711000000,71,711000000,world,0.000146561476082,1.19911951565e-05,0.704724981063
721000000,72,721000000,world,0.000154684786833,1.2611412091e-05,0.714126933479
731000000,73,731000000,world,0.000162872092972,1.32293620666e-05,0.724131610953
741000000,74,741000000,world,0.000171016781631,1.39135814942e-05,0.734716821104
751000000,75,751000000,world,0.000179178686151,1.46308200443e-05,0.745855171379
761000000,76,761000000,world,0.000187389975982,1.53455445378e-05,0.757520572328
771000000,77,771000000,world,0.000195628797843,1.60589904179e-05,0.769688168848
781000000,78,781000000,world,0.000203870835065,1.67715128241e-05,0.782334275209
791000000,79,791000000,world,0.000203035244359,1.75370303313e-05,0.795436313482
801000000,80,801000000,world,0.00019386318484,1.83537152044e-05,0.808972757038
811000000,81,811000000,world,0.000185773149251,1.91685215022e-05,0.822923077536
821000000,82,821000000,world,0.000171049524715,2.01491931437e-05,0.837267691236
831000000,83,831000000,world,0.000146576788829,2.13642586974e-05,0.851987912608
841000000,84,841000000,world,0.000124495341792,2.25549785524e-05,0.867065912399
851000000,85,851000000,world,0.000104869628337,2.37196271773e-05,0.882480866638
861000000,86,861000000,world,7.87608893755e-05,2.49806832659e-05,0.898197736523
871000000,87,871000000,world,5.33957104035e-05,2.62402436208e-05,0.91417964022
881000000,88,881000000,world,3.10378857243e-05,2.74677860321e-05,0.930391648978
891000000,89,891000000,world,1.15842973081e-05,2.86648332085e-05,0.946800671537
901000000,90,901000000,world,-7.21278542048e-06,2.98540942229e-05,0.963375345452
911000000,91,911000000,world,-2.53754524847e-05,3.10356955991e-05,0.980085937783
921000000,92,921000000,world,-4.09509177356e-05,3.21912701347e-05,0.996904250786
931000000,93,931000000,world,-5.41473389487e-05,3.33245760939e-05,1.0138030897
941000000,94,941000000,world,-6.47620905893e-05,3.44338718306e-05,1.03075534852
951000000,95,951000000,world,-7.321839877e-05,3.5524862842e-05,1.04773508125
961000000,96,961000000,world,-8.0067857249e-05,3.66045421891e-05,1.06471766996
971000000,97,971000000,world,-8.55581512544e-05,3.76760632736e-05,1.08167974902
981000000,98,981000000,world,-8.99268548068e-05,3.87417486712e-05,1.09859913376
991000000,99,991000000,world,-8.06114260151e-05,3.97405541232e-05,1.11545476236
1001000000,100,1001000000,world,-6.99914303669e-05,4.07361833275e-05,1.13222660811
1011000000,101,1011000000,world,-5.83746894081e-05,4.17426387069e-05,1.14889564547
1021000000,102,1021000000,world,-4.54167194563e-05,4.27639012746e-05,1.1654437876
1031000000,103,1031000000,world,-3.35776113812e-05,4.37962192204e-05,1.18185383243
1041000000,104,1041000000,world,-2.30177423578e-05,4.48411288268e-05,1.19810941778
1051000000,105,1051000000,world,-1.3845063699e-05,4.58992909993e-05,1.21419577013
1061000000,106,1061000000,world,-6.12771539251e-06,4.69711527753e-05,1.23010474232
1071000000,107,1071000000,world,1.08605467243e-07,4.8067575683e-05,1.2458311595
1081000000,108,1081000000,world,4.86431755371e-06,4.91933759903e-05,1.26137007468
1091000000,109,1091000000,world,8.1469600589e-06,5.0332844637e-05,1.27671674919
1101000000,110,1101000000,world,9.94607441038e-06,5.14873829397e-05,1.29186664358
1111000000,111,1111000000,world,9.94439201464e-06,5.26681615569e-05,1.30681540848
1121000000,112,1121000000,world,8.64784285754e-06,5.38612247389e-05,1.32155887709
1131000000,113,1131000000,world,6.1276105961e-06,5.50657471522e-05,1.33609306691
1141000000,114,1141000000,world,2.4550133379e-06,5.62808181969e-05,1.3504171427
1151000000,115,1151000000,world,-2.30273961481e-06,5.75059705196e-05,1.36453694492
1161000000,116,1161000000,world,-8.08034548313e-06,5.87410455486e-05,1.37845898335
1171000000,117,1171000000,world,-1.48141532181e-05,5.99856948452e-05,1.39218953786
1181000000,118,1181000000,world,-2.24438884791e-05,6.12395428016e-05,1.40573466568
1191000000,119,1191000000,world,-3.04628623897e-05,6.25004197455e-05,1.41910020863
1201000000,120,1201000000,world,-3.89355690191e-05,6.37683600704e-05,1.43229179924
1211000000,121,1211000000,world,-4.81976105249e-05,6.50441720927e-05,1.44531486763
1221000000,122,1221000000,world,-5.7319621768e-05,6.62979603695e-05,1.45817464899
1231000000,123,1231000000,world,-6.6633433144e-05,6.75249208138e-05,1.4708761882
1241000000,124,1241000000,world,-7.67171867205e-05,6.87616821468e-05,1.48342434701
1251000000,125,1251000000,world,-8.75458226457e-05,7.00080773904e-05,1.49582388844
1261000000,126,1261000000,world,-9.90042924464e-05,7.12534402258e-05,1.50808261643
1271000000,127,1271000000,world,-0.000110814194239,7.24680639816e-05,1.52021222271
1281000000,128,1281000000,world,-0.000123317787487,7.36938944385e-05,1.53222428488
1291000000,129,1291000000,world,-0.000136490654966,7.49300267649e-05,1.54413000036
1301000000,130,1301000000,world,-0.000150063012595,7.61491977431e-05,1.55594019563
1311000000,131,1311000000,world,-0.000163908755284,7.73398138373e-05,1.56766533539
1321000000,132,1321000000,world,-0.000178382374045,7.85412231973e-05,1.57931553184
1331000000,133,1331000000,world,-0.000193461132408,7.97524654739e-05,1.5909003252
1341000000,134,1341000000,world,-0.000209118342877,8.09723855238e-05,1.6024276785
1351000000,135,1351000000,world,-0.000224729951648,8.21462918087e-05,1.61390486188
1361000000,136,1361000000,world,-0.000240509209268,8.32944222159e-05,1.62533888686
1371000000,137,1371000000,world,-0.000245434638176,8.37182925506e-05,1.63673651964
1381000000,138,1381000000,world,-0.000248788931196,8.40146389565e-05,1.64810427495
1391000000,139,1391000000,world,-0.000253594490553,8.43777733023e-05,1.65944843652
1401000000,140,1401000000,world,-0.000259899215346,8.48105383064e-05,1.6707750625
1411000000,141,1411000000,world,-0.000267705738898,8.53130424627e-05,1.68208999143
1421000000,142,1421000000,world,-0.00027139757947,8.55837061198e-05,1.69339885112
1431000000,143,1431000000,world,-0.000273204556311,8.57416915815e-05,1.70470706143
1441000000,144,1441000000,world,-0.000276951190092,8.59908516266e-05,1.71601984388
1451000000,145,1451000000,world,-0.000277669332848,8.60901796799e-05,1.72734183329
1461000000,146,1461000000,world,-0.000278445721034,8.61869191074e-05,1.73867631139
1471000000,147,1471000000,world,-0.000281412850595,8.63819713819e-05,1.75002622426
1481000000,148,1481000000,world,-0.000286487995194,8.66695573913e-05,1.76139440698
1491000000,149,1491000000,world,-0.000292631807747,8.70158579232e-05,1.77278358731
1501000000,150,1501000000,world,-0.000297088020949,8.73370157826e-05,1.78419638946
1511000000,151,1511000000,world,-0.000303512968872,8.77335405598e-05,1.79563533777
1521000000,152,1521000000,world,-0.000311768474806,8.81959800693e-05,1.80710286091
1531000000,153,1531000000,world,-0.00032169696455,8.87149544147e-05,1.81860003407
1541000000,154,1541000000,world,-0.00033190499256,8.92557694466e-05,1.8301228282
1551000000,155,1551000000,world,-0.000341726296552,8.97989933383e-05,1.84166614778
1561000000,156,1561000000,world,-0.000352913637105,9.03759994675e-05,1.85322510976
1571000000,157,1571000000,world,-0.000365315870895,9.09786983323e-05,1.86479503374
1581000000,158,1581000000,world,-0.000376792611252,9.16112790599e-05,1.8763714328
1591000000,159,1591000000,world,-0.000388952831624,9.22557201097e-05,1.88795000625
1601000000,160,1601000000,world,-0.000402023053669,9.29016475427e-05,1.89952663068
1611000000,161,1611000000,world,-0.00041587513585,9.35429279967e-05,1.91109735244
1621000000,162,1621000000,world,-0.000430031213655,9.41997179878e-05,1.92265838031
1631000000,163,1631000000,world,-0.000444101198881,9.48983766411e-05,1.93420607867
1641000000,164,1641000000,world,-0.000458634828394,9.55717666149e-05,1.94573696122
1651000000,165,1651000000,world,-0.000473522101634,9.62154166366e-05,1.95724693328
1661000000,166,1661000000,world,-0.000487783686638,9.6889470818e-05,1.96872984273
1671000000,167,1671000000,world,-0.000502033651192,9.75379329804e-05,1.98017939776
1681000000,168,1681000000,world,-0.000516416385451,9.81415441886e-05,1.99158957277
1691000000,169,1691000000,world,-0.000531887551615,9.87161351292e-05,2.00295459691
1701000000,170,1701000000,world,-0.000556295600005,9.93957497878e-05,2.01426894591
1711000000,171,1711000000,world,-0.000580000503433,0.000100016357647,2.02552731931
1721000000,172,1721000000,world,-0.00060285851828,0.000100576343962,2.03672464304
1731000000,173,1731000000,world,-0.000624765643458,0.000101076389029,2.04785553515
1741000000,174,1741000000,world,-0.000646703306966,0.00010152559315,2.05891244353
1751000000,175,1751000000,world,-0.000668197116202,0.000101921326618,2.06988745556
1761000000,176,1761000000,world,-0.00068849240724,0.000102259446235,2.08077300148
1771000000,177,1771000000,world,-0.000707576480893,0.000102540834274,2.09156183893
1781000000,178,1781000000,world,-0.000726597704824,0.000100801995374,2.10224703792
1791000000,179,1791000000,world,-0.000744643468747,9.86476629088e-05,2.11282196502
1801000000,180,1801000000,world,-0.000761439489288,9.66041972139e-05,2.12328027089
1811000000,181,1811000000,world,-0.00077701737309,9.46846539811e-05,2.1336158772
1821000000,182,1821000000,world,-0.000790608153811,9.23638056267e-05,2.14382296372
1831000000,183,1831000000,world,-0.000802920556441,9.00766923332e-05,2.15389595795
1841000000,184,1841000000,world,-0.00081422323041,8.79619209145e-05,2.16382952292
1851000000,185,1851000000,world,-0.00082348450446,8.60012376537e-05,2.17361986439
1861000000,186,1861000000,world,-0.000831203593514,8.41924582258e-05,2.18326726213
1871000000,187,1871000000,world,-0.000838190798995,8.25341967758e-05,2.19277269197
1881000000,188,1881000000,world,-0.000844501695733,8.10126968441e-05,2.20213709148
1891000000,189,1891000000,world,-0.000848915992235,7.96049708981e-05,2.21136136108
1901000000,190,1901000000,world,-0.000852284294876,7.82982429046e-05,2.22044636759
1911000000,191,1911000000,world,-0.000855211073561,7.70780931524e-05,2.22939294413
1921000000,192,1921000000,world,-0.000857730647918,7.59270640308e-05,2.23820189122
1931000000,193,1931000000,world,-0.000859865877076,7.48280740041e-05,2.24687404745
1941000000,194,1941000000,world,-0.000861263837917,7.37476073876e-05,2.25541049657
1951000000,195,1951000000,world,-0.000860890966195,7.26214038937e-05,2.26381234785
1961000000,196,1961000000,world,-0.00086026397895,7.15059535701e-05,2.27208066941
1971000000,197,1971000000,world,-0.000859390318275,7.03875359423e-05,2.28021648717
1981000000,198,1981000000,world,-0.000856610432319,6.91246079866e-05,2.28822078627
1991000000,199,1991000000,world,-0.000853494110516,6.78202794259e-05,2.2960945159
2001000000,200,2001000000,world,-0.000850230764669,6.6488647163e-05,2.30383858765
2011000000,201,2011000000,world,-0.000846810571533,6.51209344592e-05,2.3114538777
2021000000,202,2021000000,world,-0.000843028793608,6.36896873514e-05,2.31894122818
2031000000,203,2031000000,world,-0.000837425232767,6.20388066758e-05,2.32630144763
2041000000,204,2041000000,world,-0.000831708122234,6.0340589757e-05,2.33353531554
2051000000,205,2051000000,world,-0.00082586092608,5.8584492392e-05,2.34064503371
2061000000,206,2061000000,world,-0.000819854931787,5.67588296095e-05,2.34764000463
2071000000,207,2071000000,world,-0.00081256146739,5.47385602638e-05,2.35453156856
2081000000,208,2081000000,world,-0.000804389409495,5.2569328106e-05,2.36133069166
2091000000,209,2091000000,world,-0.000795365081583,5.32688214986e-05,2.36804797423
2101000000,210,2101000000,world,-0.000785177725596,5.80192058687e-05,2.37469365974
2111000000,211,2111000000,world,-0.000774882800522,6.22370535369e-05,2.38127764506
2121000000,212,2121000000,world,-0.000764454495529,6.58749003284e-05,2.38780948932
2131000000,213,2131000000,world,-0.000753861132579,6.89081387167e-05,2.39429815186
2141000000,214,2141000000,world,-0.00074307052966,7.13323884044e-05,2.40074813114
2151000000,215,2151000000,world,-0.000730965527086,7.43136377461e-05,2.40716060302
2161000000,216,2161000000,world,-0.000718205065773,7.7133654829e-05,2.41353662357
2171000000,217,2171000000,world,-0.000705243617971,7.93018627274e-05,2.41987720806
2181000000,218,2181000000,world,-0.000691642723903,8.09033932045e-05,2.42618333194
2191000000,219,2191000000,world,-0.000676872475289,8.20449692788e-05,2.43245593278
2201000000,220,2201000000,world,-0.000661905845719,8.26306183409e-05,2.43869591288
2211000000,221,2211000000,world,-0.000646289659303,8.27368097135e-05,2.44490413857
2221000000,222,2221000000,world,-0.000629824583477,8.2428911707e-05,2.45108144282
2231000000,223,2231000000,world,-0.000613163651257,8.17158665063e-05,2.45722862683
2241000000,224,2241000000,world,-0.000596288760977,8.06511514704e-05,2.46334646025
2251000000,225,2251000000,world,-0.000579179762712,7.92867445823e-05,2.46943530444
2261000000,226,2261000000,world,-0.000561737577919,7.77088482437e-05,2.47549398624
2271000000,227,2271000000,world,-0.000543337062126,7.6243075913e-05,2.4815210081
2281000000,228,2281000000,world,-0.000524690284269,7.46002787373e-05,2.48751493326
2291000000,229,2291000000,world,-0.000505785144616,7.28240136278e-05,2.4934743819
2301000000,230,2301000000,world,-0.000486429229395,7.12135012222e-05,2.49939802914
2311000000,231,2311000000,world,-0.000466538106354,6.99110988288e-05,2.50528460299
2321000000,232,2321000000,world,-0.000446371878703,6.85525513551e-05,2.51113288239
2331000000,233,2331000000,world,-0.000425923374049,6.716620762e-05,2.5169414416
2341000000,234,2341000000,world,-0.00040518622891,6.57801963658e-05,2.52270753503
2351000000,235,2351000000,world,-0.000384098217743,6.52795469317e-05,2.52842807431
2361000000,236,2361000000,world,-0.000362720586125,6.47821433918e-05,2.53410009732
2371000000,237,2371000000,world,-0.000341046889021,6.43107265764e-05,2.53972076249
2381000000,238,2381000000,world,-0.000324715846995,6.81533775513e-05,2.54528734536
2391000000,239,2391000000,world,-0.000313251105014,7.68970699029e-05,2.55079722948
2401000000,240,2401000000,world,-0.000300768088373,8.51288395195e-05,2.55624790392
2411000000,241,2411000000,world,-0.000288837622739,9.35087494497e-05,2.56163696172
2421000000,242,2421000000,world,-0.000282066609242,0.000105139035985,2.56696209176
2431000000,243,2431000000,world,-0.000273691024262,0.000115939216973,2.5722210767
2441000000,244,2441000000,world,-0.000263674338197,0.000125907579698,2.57741178867
2451000000,245,2451000000,world,-0.000252018019642,0.000135070957917,2.58253219042
2461000000,246,2461000000,world,-0.000242895859485,0.000145801343528,2.58758154182
2471000000,247,2471000000,world,-0.000231992848578,0.000155694675083,2.59256183357
2481000000,248,2481000000,world,-0.000219364881338,0.000164804782207,2.59747533672
2491000000,249,2491000000,world,-0.000205095148495,0.000173201192262,2.60232423585
2501000000,250,2501000000,world,-0.000190754184747,0.000180974368903,2.60711063248
2511000000,251,2511000000,world,-0.000177053139917,0.000188219790071,2.61183654776
2521000000,252,2521000000,world,-0.000161824507271,0.000195008877116,2.6165039254
2531000000,253,2531000000,world,-0.000145171878702,0.000201432647219,2.6211146664
2541000000,254,2541000000,world,-0.000128566227226,0.000206933640934,2.62567072504
2551000000,255,2551000000,world,-0.00011103100431,0.000212124175882,2.63017401096
2561000000,256,2561000000,world,-9.23348922514e-05,0.000217257495183,2.634626361
2571000000,257,2571000000,world,-7.25987449174e-05,0.000222412392433,2.63902954174
2581000000,258,2581000000,world,-5.19481937197e-05,0.000227659813323,2.64338525211
2591000000,259,2591000000,world,-3.1998267597e-05,0.000231366148853,2.6476951265
2601000000,260,2601000000,world,-1.12770563908e-05,0.000235388408027,2.65196073511
2611000000,261,2611000000,world,1.01142759774e-05,0.000239787862174,2.6561835886
2621000000,262,2621000000,world,3.43739604531e-05,0.000244098663373,2.66036514006
2631000000,263,2631000000,world,6.79276826148e-05,0.000246899432364,2.66450678803
2641000000,264,2641000000,world,0.00010115402625,0.000250347149235,2.66860987305
2651000000,265,2651000000,world,0.000133881163634,0.000254478306415,2.67267545671
2661000000,266,2661000000,world,0.000165978674085,0.000259313993484,2.67670363717
2671000000,267,2671000000,world,0.000199285931953,0.000264536976933,2.68069428428
2681000000,268,2681000000,world,0.000232166034268,0.00027041061108,2.68464727217
2691000000,269,2691000000,world,0.000264063407615,0.00027701144521,2.68856248016
2701000000,270,2701000000,world,0.000294808872105,0.000284332633767,2.69243979242
2711000000,271,2711000000,world,0.000324006078627,0.00029237546505,2.69627909763
2721000000,272,2721000000,world,0.000352224975512,0.000301082319038,2.70008028906
2731000000,273,2731000000,world,0.000379488510027,0.000310423899585,2.70384315472
2741000000,274,2741000000,world,0.000405399467397,0.000320330997438,2.70756705161
2751000000,275,2751000000,world,0.000429475587883,0.000330725144075,2.71125125493
2761000000,276,2761000000,world,0.000452803596304,0.000341660897345,2.714895069
2771000000,277,2771000000,world,0.000475135073993,0.000353041302388,2.71849782533
2781000000,278,2781000000,world,0.000495665618867,0.000364548371729,2.7220588819
2791000000,279,2791000000,world,0.000515679492381,0.000376526309192,2.72557762226
2801000000,280,2801000000,world,0.000535222512344,0.000388946565658,2.72905345427
2811000000,281,2811000000,world,0.000554330480551,0.000401779132722,2.7324858091
2821000000,282,2821000000,world,0.000572414994667,0.000414699607655,2.73587414026
2831000000,283,2831000000,world,0.000589247996273,0.000427559935114,2.73921792285
2841000000,284,2841000000,world,0.000605813442683,0.000440788108987,2.74251665308
2851000000,285,2851000000,world,0.000622128660846,0.000454361875484,2.74576982855
2861000000,286,2861000000,world,0.000636107821042,0.00046603486052,2.74897689291
2871000000,287,2871000000,world,0.000641809667681,0.000469475329956,2.75213729262
2881000000,288,2881000000,world,0.000647900168995,0.000473864093577,2.75525049923
2891000000,289,2891000000,world,0.000654444973259,0.000479249882291,2.75831600375
2901000000,290,2901000000,world,0.000659333851027,0.000482441920123,2.76133331653
2911000000,291,2911000000,world,0.000661702163038,0.000482137518177,2.76430196725
2921000000,292,2921000000,world,0.000664862621813,0.000483307165914,2.76722150581
2931000000,293,2931000000,world,0.0006688049642,0.000485954806642,2.77009178749
2941000000,294,2941000000,world,0.000671595332894,0.000486556666706,2.77291383207
2951000000,295,2951000000,world,0.000674387141746,0.000487289644705,2.77568890443
2961000000,296,2961000000,world,0.000677959093228,0.000489644538995,2.77841822071
2971000000,297,2971000000,world,0.000682241384465,0.000493544366429,2.78110294964
2981000000,298,2981000000,world,0.000687146873128,0.000498890726446,2.78374421482
2991000000,299,2991000000,world,0.000692413497369,0.000503138398697,2.78634309606
3001000000,300,3001000000,world,0.00069804463315,0.000507463856301,2.78890063177
3011000000,301,3011000000,world,0.000704011106401,0.000513112526941,2.79141782031
3021000000,302,3021000000,world,0.000710819728755,0.000518188927438,2.79389562133
3031000000,303,3031000000,world,0.000717874254298,0.000524024040196,2.79633495703
3041000000,304,3041000000,world,0.000724918501741,0.00053096124373,2.79873671401
3051000000,305,3051000000,world,0.000731860669966,0.000538879831866,2.80110164552
3061000000,306,3061000000,world,0.000738965184225,0.000547501141788,2.80342973754
3071000000,307,3071000000,world,0.000747145444314,0.000555504063295,2.80572065106
3081000000,308,3081000000,world,0.000754893047424,0.000564213919778,2.80797405836
3091000000,309,3091000000,world,0.00076228749657,0.000575554039701,2.81018964596
3101000000,310,3101000000,world,0.000769695452438,0.000595180151478,2.81236711437
3111000000,311,3111000000,world,0.000776456793588,0.000614570451248,2.81450617057
3121000000,312,3121000000,world,0.000782533367961,0.000633550045898,2.81660653597
3131000000,313,3131000000,world,0.000787898435911,0.000651983255205,2.81866839642
3141000000,314,3141000000,world,0.000792534126941,0.000669765824861,2.82069440101
3151000000,315,3151000000,world,0.000796173026395,0.000687853629642,2.82268791576
3161000000,316,3161000000,world,0.000798919003049,0.000705768576938,2.82465218004
3171000000,317,3171000000,world,0.000800957290334,0.000722752749131,2.82659031127
3181000000,318,3181000000,world,0.000802180285078,0.000738587733808,2.82850530944
3191000000,319,3191000000,world,0.000802377421544,0.000752727263135,2.8304000612
3201000000,320,3201000000,world,0.000801936943063,0.000765946694593,2.83227734495
3211000000,321,3211000000,world,0.000800880555299,0.000778263839311,2.83413983343
3221000000,322,3221000000,world,0.000799135383253,0.000788763487536,2.83599009761
3231000000,323,3231000000,world,0.000796762384934,0.000797857219309,2.83783061145
3241000000,324,3241000000,world,0.000793850203019,0.000806228625344,2.8396637551
3251000000,325,3251000000,world,0.000790423413427,0.000813915452417,2.84149113264
3261000000,326,3261000000,world,0.000786502662859,0.000820950401907,2.84331153394
3271000000,327,3271000000,world,0.000782294217621,0.000826111165025,2.84512312567
3281000000,328,3281000000,world,0.000777668654774,0.000830444535559,2.84692414898
3291000000,329,3291000000,world,0.00077259861582,0.000834306737242,2.84871291529
3301000000,330,3301000000,world,0.000767281309288,0.000837252298013,2.85048780329
3311000000,331,3311000000,world,0.00076195222249,0.000838725022895,2.85224725646
3321000000,332,3321000000,world,0.00075620820885,0.000839878695843,2.8539897811
3331000000,333,3331000000,world,0.000750065556726,0.000840728022611,2.85571411356
3341000000,334,3341000000,world,0.000750123114067,0.000837841595087,2.85741996994
3351000000,335,3351000000,world,0.00075584298826,0.000831508236523,2.85910738343
3361000000,336,3361000000,world,0.000760376072844,0.000825306906215,2.86077638598
3371000000,337,3371000000,world,0.000763666691199,0.000819268158457,2.86242700881
3381000000,338,3381000000,world,0.000771991908208,0.000811213308907,2.86405928203
3391000000,339,3391000000,world,0.00078132798393,0.000802532295267,2.86567323386
3401000000,340,3401000000,world,0.000788870051865,0.000794186171898,2.86726889197
3411000000,341,3411000000,world,0.000794621908128,0.000786153710015,2.86884628311
3421000000,342,3421000000,world,0.000799641270976,0.000778218680837,2.8704054329
3431000000,343,3431000000,world,0.000806874012266,0.000769823554459,2.87194636581
3441000000,344,3441000000,world,0.000812240378514,0.000761656398553,2.87346910537
3451000000,345,3451000000,world,0.000815824624315,0.000753662208811,2.87497352024
3461000000,346,3461000000,world,0.000821363541869,0.000746493706276,2.87645886539
3471000000,347,3471000000,world,0.000825143266896,0.000739331213761,2.87792427313
3481000000,348,3481000000,world,0.000827270344097,0.000732106100077,2.87936891079
3491000000,349,3491000000,world,0.000827871558053,0.000724753620593,2.88079197867
3501000000,350,3501000000,world,0.000828334211337,0.000718840484843,2.88219270966
3511000000,351,3511000000,world,0.000827621269788,0.000712762546279,2.88357036517
3521000000,352,3521000000,world,0.000825730322225,0.000706268858073,2.88492423668
3531000000,353,3531000000,world,0.000822804206543,0.000699305122588,2.88625403762
3541000000,354,3541000000,world,0.000818987454815,0.000691826975854,2.8875610763
3551000000,355,3551000000,world,0.00081509108297,0.00068538990463,2.88884699808
3561000000,356,3561000000,world,0.000810812916191,0.00067895006935,2.89011338365
3571000000,357,3571000000,world,0.000805974441838,0.000671772028618,2.89136175315
3581000000,358,3581000000,world,0.000800689209385,0.000663832987967,2.89259356863
3591000000,359,3591000000,world,0.000787434867712,0.000653079509667,2.89381023685
3601000000,360,3601000000,world,0.000771210959283,0.000640820990166,2.89501310907
3611000000,361,3611000000,world,0.000755562224484,0.00062798785919,2.89620336221
3621000000,362,3621000000,world,0.000738558973852,0.000613554384286,2.89738121706
3631000000,363,3631000000,world,0.000722279366973,0.000598559655059,2.89854648375
3641000000,364,3641000000,world,0.000707051794658,0.000583162180049,2.89969897852
3651000000,365,3651000000,world,0.000693016055269,0.000567393837577,2.90083852484
3661000000,366,3661000000,world,0.000680834746465,0.000551283388607,2.90196495295
3671000000,367,3671000000,world,0.000669749050733,0.000534846202134,2.90307810023
3681000000,368,3681000000,world,0.000659741325703,0.000518099539803,2.90417781023
3691000000,369,3691000000,world,0.000655065643706,0.000508157520892,2.90526393406
3701000000,370,3701000000,world,0.000653928432722,0.000502129929885,2.90633632612
3711000000,371,3711000000,world,0.000653294118206,0.000495072459378,2.90739484657
3721000000,372,3721000000,world,0.000653075914059,0.000486930845526,2.90843936219
3731000000,373,3731000000,world,0.000653206668697,0.00047768249447,2.90946979407
3741000000,374,3741000000,world,0.000653636098875,0.000467330605689,2.91048633375
3751000000,375,3751000000,world,0.000656538826541,0.000460260381576,2.91148925377
3761000000,376,3761000000,world,0.00066098619116,0.00045537395922,2.91247881545
3771000000,377,3771000000,world,0.000665418847471,0.000449002262596,2.91345526984
3781000000,378,3781000000,world,0.000671159991778,0.000446805473835,2.91441885893
3791000000,379,3791000000,world,0.000676914700503,0.000443471107345,2.91536981421
3801000000,380,3801000000,world,0.000682521575395,0.000438377331809,2.91630835881
3811000000,381,3811000000,world,0.000687989294502,0.000431579928465,2.91723470721
3821000000,382,3821000000,world,0.000693882369153,0.000426476679298,2.91814906539
3831000000,383,3831000000,world,0.000699713747955,0.000420020986517,2.91905163122
3841000000,384,3841000000,world,0.000705452375759,0.000411929124619,2.91994259496
3851000000,385,3851000000,world,0.000710960393636,0.000403021990561,2.92082191404
3861000000,386,3861000000,world,0.000715782425877,0.000395417366291,2.92168864159
3871000000,387,3871000000,world,0.00072068797532,0.000386353279385,2.92254164696
3881000000,388,3881000000,world,0.000725727484484,0.00037594485962,2.92337984479
3891000000,389,3891000000,world,0.000730948105157,0.00036431969218,2.92420219283
3901000000,390,3901000000,world,0.000736132631294,0.000351978089066,2.92500769031
3911000000,391,3911000000,world,0.000740580064827,0.000340096415225,2.92579537624
3921000000,392,3921000000,world,0.000745405370258,0.0003273013203,2.92656432733
3931000000,393,3931000000,world,0.00075065011673,0.000313716865089,2.92731357412
3941000000,394,3941000000,world,0.000755590777511,0.000300255899883,2.92804156627
3951000000,395,3951000000,world,0.000760315384137,0.000286969262415,2.92874654194
3961000000,396,3961000000,world,0.000765629658192,0.000273144485356,2.92942680877
3971000000,397,3971000000,world,0.000771554835879,0.000258879763935,2.93008074242
3981000000,398,3981000000,world,0.000777045281461,0.000244601969707,2.93070678391
3991000000,399,3991000000,world,0.000782537161582,0.000230272685296,2.93130343606
4001000000,400,4001000000,world,0.000788769154338,0.000215753916058,2.93186926142
4011000000,401,4011000000,world,0.000795744398014,0.000201127255898,2.93240288018
4021000000,402,4021000000,world,0.000804159766133,0.000183399755833,2.93290296849
4031000000,403,4031000000,world,0.000814855596508,0.000158912904664,2.93336825569
4041000000,404,4041000000,world,0.000826107974844,0.000135166063604,2.93379751827
4051000000,405,4051000000,world,0.000837875000077,0.000112287977118,2.93419027891
4061000000,406,4061000000,world,0.000850379534218,8.9788210517e-05,2.93454829174
4071000000,407,4071000000,world,0.000863910034365,6.70230746759e-05,2.93487367866
4081000000,408,4081000000,world,0.000877810578869,4.54485353661e-05,2.93516848
4091000000,409,4091000000,world,0.00089205166622,2.50959588217e-05,2.93543465842
4101000000,410,4101000000,world,0.000907773770566,6.4028264803e-06,2.93567410087
4111000000,411,4111000000,world,0.000924858494345,-1.06771100899e-05,2.93588862278
4121000000,412,4121000000,world,0.00094207403519,-2.66160991594e-05,2.9360799707
4131000000,413,4131000000,world,0.000959391620357,-4.14524309641e-05,2.93624976179
4141000000,414,4141000000,world,0.000977110834252,-5.38729477608e-05,2.9363993023
4151000000,415,4151000000,world,0.000994888427539,-6.52864279323e-05,2.93652978918
4161000000,416,4161000000,world,0.00101271758526,-7.58225480034e-05,2.93664237239
4171000000,417,4171000000,world,0.00103048017485,-8.51664313223e-05,2.93673815728
4181000000,418,4181000000,world,0.00104803683233,-9.26813094451e-05,2.93681820614
4191000000,419,4191000000,world,0.00106567391968,-9.95497638301e-05,2.93688354117
4201000000,420,4201000000,world,0.00108339911692,-0.000105818198684,2.9369351444
4211000000,421,4211000000,world,0.00110078039355,-0.000110663375439,2.93697395947
4221000000,422,4221000000,world,0.00111806536615,-0.00011446224694,2.93700089399
4231000000,423,4231000000,world,0.00113551117966,-0.000117833869246,2.93701682049
4241000000,424,4241000000,world,0.00115312707945,-0.000120800107899,2.93702257743
4251000000,425,4251000000,world,0.00117091830034,-0.000123374154173,2.93701917447
4261000000,426,4261000000,world,0.0011888874788,-0.000125560601792,2.93700869206
4271000000,427,4271000000,world,0.00120632614696,-0.000126172553181,2.93699349739
4281000000,428,4281000000,world,0.00122380541615,-0.000126170088348,2.93697586853
4291000000,429,4291000000,world,0.00124151277161,-0.000125856998909,2.93695799651
4301000000,430,4301000000,world,0.00125835719969,-0.000123776357062,2.93694198784
4311000000,431,4311000000,world,0.00127548683573,-0.000121379066255,2.93692986996
4321000000,432,4321000000,world,0.00129289770353,-0.000118739948454,2.93692359215
4331000000,433,4331000000,world,0.00131001422064,-0.000115230991748,2.93692485267
4341000000,434,4341000000,world,0.0013265923054,-0.000110587290938,2.93693432633
4351000000,435,4351000000,world,0.0013434898155,-0.000105748693295,2.93695234601
4361000000,436,4361000000,world,0.00136069483292,-0.000100699241854,2.93697923115
4371000000,437,4371000000,world,0.00137752763119,-9.48312634067e-05,2.93701528841
4381000000,438,4381000000,world,0.00139369457918,-8.78833381619e-05,2.93706081256
4391000000,439,4391000000,world,0.00141019790608,-8.07427591777e-05,2.93711608761
4401000000,440,4401000000,world,0.00142701322254,-7.33895595583e-05,2.93718138592
4411000000,441,4411000000,world,0.00143814720997,-6.55701693512e-05,2.93725696876
4421000000,442,4421000000,world,0.00144115907297,-5.71650564949e-05,2.93734308691
4431000000,443,4431000000,world,0.00144531609775,-4.85039744288e-05,2.93743998261
4441000000,444,4441000000,world,0.00145067840445,-3.95617057573e-05,2.93754788822
4451000000,445,4451000000,world,0.0014572540081,-3.03120073557e-05,2.93766714471
4461000000,446,4461000000,world,0.00145702974161,-2.16718820561e-05,2.93779842868
4471000000,447,4471000000,world,0.00145841466505,-1.26140037157e-05,2.93794245473
4481000000,448,4481000000,world,0.00146139306743,-3.10688347119e-06,2.93809990931
4491000000,449,4491000000,world,0.00146590432207,6.8757767844e-06,2.93827145219
4501000000,450,4501000000,world,0.00147185739249,1.73550920323e-05,2.93845771742
4511000000,451,4511000000,world,0.00147463454056,2.63705731263e-05,2.93865931413
4521000000,452,4521000000,world,0.00147889372912,3.6030049237e-05,2.93887682793
4531000000,453,4531000000,world,0.00148453168977,4.63580014355e-05,2.9391106534
4541000000,454,4541000000,world,0.00149142501184,5.73695087591e-05,2.939360024
4551000000,455,4551000000,world,0.00149768010578,6.65251305685e-05,2.93962373181
4561000000,456,4561000000,world,0.00150501825,7.6519008261e-05,2.93990061402
4571000000,457,4571000000,world,0.00151330610498,8.73610824529e-05,2.94018955498
4581000000,458,4581000000,world,0.00152240004442,9.62634670563e-05,2.94048948465
4591000000,459,4591000000,world,0.0015321701485,0.000104350725709,2.94079937346
4601000000,460,4601000000,world,0.00154249043675,0.000113543814641,2.94111823247
4611000000,461,4611000000,world,0.00155353206168,0.000122515189709,2.94144511364
4621000000,462,4621000000,world,0.00156539850384,0.000130248570196,2.94177910634
4631000000,463,4631000000,world,0.00157739401877,0.000139268513203,2.94211933404
4641000000,464,4641000000,world,0.00158940585465,0.000149553030865,2.94246495646
4651000000,465,4651000000,world,0.00160133629418,0.000161056709835,2.94281498226
4661000000,466,4661000000,world,0.00161423790328,0.000171526176815,2.94316745845
4671000000,467,4671000000,world,0.0016274263476,0.000181792130092,2.94352017776
4681000000,468,4681000000,world,0.00164019186999,0.000193314197752,2.94387102166
4691000000,469,4691000000,world,0.0016524695135,0.000206035876058,2.94421795771
4701000000,470,4701000000,world,0.0016642086961,0.000219885569833,2.94455903517
4711000000,471,4711000000,world,0.00167690650124,0.000232528575682,2.9448923829
4721000000,472,4721000000,world,0.00168928123727,0.00024571619481,2.94521620243
4731000000,473,4731000000,world,0.00170222120788,0.000258226797535,2.9455293795
4741000000,474,4741000000,world,0.00171516496934,0.000270694337488,2.94583265606
4751000000,475,4751000000,world,0.00172718237526,0.000284248248427,2.94612707203
4761000000,476,4761000000,world,0.0017382607644,0.000298822148055,2.94641362764
4771000000,477,4771000000,world,0.00174840188555,0.000314337311981,2.9466932844
4781000000,478,4781000000,world,0.00175956407652,0.000328835598877,2.94696696761
4791000000,479,4791000000,world,0.00176991690891,0.000344009238051,2.94723556456
4801000000,480,4801000000,world,0.00177924815579,0.000359994632129,2.94749992913
4811000000,481,4811000000,world,0.00178758010161,0.000376710945504,2.94776088217
4821000000,482,4821000000,world,0.00179675504221,0.000392386436664,2.94801921343
4831000000,483,4831000000,world,0.00180508771102,0.000408546933089,2.9482756804
4841000000,484,4841000000,world,0.00181239827478,0.000425317833266,2.94853101186
4851000000,485,4851000000,world,0.00181872377859,0.000442626593293,2.94878569559
4861000000,486,4861000000,world,0.00182513501306,0.000459694815768,2.94903904257
4871000000,487,4871000000,world,0.00183159175013,0.000476503208706,2.94929000843
4881000000,488,4881000000,world,0.00183707353119,0.000493710449116,2.94953758999
4891000000,489,4891000000,world,0.00184162059935,0.000511253498593,2.94978082428
4901000000,490,4901000000,world,0.0018465354217,0.000528357690207,2.95001878684
4911000000,491,4911000000,world,0.00185106260184,0.000545418593363,2.95025058928
4921000000,492,4921000000,world,0.00185468759354,0.000562696294734,2.95047537855
4931000000,493,4931000000,world,0.00185795998752,0.000579900980966,2.95069261522
4941000000,494,4941000000,world,0.00186153870136,0.000596688862111,2.95090290508
4951000000,495,4951000000,world,0.00186425196602,0.000613575436954,2.95110710429
4961000000,496,4961000000,world,0.00186614080099,0.000630513807833,2.95130603604
4971000000,497,4971000000,world,0.00186547872544,0.000650142337586,2.95150049187
4981000000,498,4981000000,world,0.00186016203498,0.000675677186473,2.95169123287
4991000000,499,4991000000,world,0.00185453881599,0.000700571702531,2.95187898929
5001000000,500,5001000000,world,0.00184870291941,0.000724722888618,2.95206446363
5011000000,501,5011000000,world,0.00184229060646,0.00074858602371,2.95224833114
5021000000,502,5021000000,world,0.00183482789054,0.00077275413651,2.9524312409
5031000000,503,5031000000,world,0.00182741712474,0.000795914113075,2.95261381644
5041000000,504,5041000000,world,0.0018201018867,0.000818041694295,2.95279665716
5051000000,505,5051000000,world,0.00181291237102,0.000839132010297,2.95298005051
5061000000,506,5061000000,world,0.00180599030761,0.000858698804222,2.95316270176
5071000000,507,5071000000,world,0.00179924747608,0.000877166035708,2.95334284985
5081000000,508,5081000000,world,0.00179265519916,0.000894693349036,2.95351880423
5091000000,509,5091000000,world,0.00178648034365,0.000910823036412,2.95368894186
5101000000,510,5101000000,world,0.00178082591318,0.000925394271288,2.95385170467
5111000000,511,5111000000,world,0.00177525952943,0.000939214135641,2.95400559721
5121000000,512,5121000000,world,0.00176976852884,0.000952329038615,2.95414918349
5131000000,513,5131000000,world,0.00176461830614,0.000964371459302,2.95428142747
5141000000,514,5141000000,world,0.00176013607972,0.000974879505285,2.95440235227
5151000000,515,5151000000,world,0.00175564748109,0.000984870722091,2.95451216416
5161000000,516,5161000000,world,0.00175113837084,0.000994376934945,2.95461106105
5171000000,517,5171000000,world,0.00174660107297,0.00100342199564,2.95469923302
5181000000,518,5181000000,world,0.00174203404746,0.00101202305038,2.95477686275
5191000000,519,5191000000,world,0.00173744052674,0.0010201915378,2.95484412573
5201000000,520,5201000000,world,0.00173360391866,0.00102693422333,2.95490119004
5211000000,521,5211000000,world,0.00173911747799,0.00102755552031,2.9549482148
5221000000,522,5221000000,world,0.00174781374717,0.00102593211617,2.95498535737
5231000000,523,5231000000,world,0.00175559089103,0.0010244794073,2.95501276885
5241000000,524,5241000000,world,0.00176238695447,0.00102323370471,2.95503059313
5251000000,525,5251000000,world,0.00176818325225,0.00102220588699,2.95503905134
5261000000,526,5261000000,world,0.00177299438489,0.00102138607703,2.95503901965
5271000000,527,5271000000,world,0.0017828498013,0.00101774763668,2.9550316526
5281000000,528,5281000000,world,0.00179210948263,0.00101410804766,2.95501806708
5291000000,529,5291000000,world,0.00180011243405,0.00101078886082,2.95499933489
5301000000,530,5301000000,world,0.00181031635113,0.00100693196705,2.95497648467
5311000000,531,5311000000,world,0.00182060751789,0.00100301256542,2.95495050718
5321000000,532,5321000000,world,0.00182953951269,0.000999342587393,2.95492235474
5331000000,533,5331000000,world,0.00183719273923,0.000995864655752,2.95489301921
5341000000,534,5341000000,world,0.00184169627185,0.000993108455949,2.95486387432
5351000000,535,5351000000,world,0.00183756873574,0.000992689645714,2.95483638161
5361000000,536,5361000000,world,0.0018331103998,0.000992081384029,2.9548119389
5371000000,537,5371000000,world,0.00182730584399,0.000991160645189,2.95479189462
5381000000,538,5381000000,world,0.00182110284744,0.000989873145354,2.95477754444
5391000000,539,5391000000,world,0.00181519380467,0.000988169149922,2.95477013412
5401000000,540,5401000000,world,0.00180970720716,0.000985994122345,2.95477086148
5411000000,541,5411000000,world,0.00180497932923,0.000983119073712,2.95478087789
5421000000,542,5421000000,world,0.00180175306804,0.000978986422433,2.95480128978
5431000000,543,5431000000,world,0.00179912033163,0.000974325859494,2.95483316228
5441000000,544,5441000000,world,0.00179711717795,0.000969121528802,2.95487751848
5451000000,545,5451000000,world,0.00179576644381,0.000963363084787,2.95493508062
5461000000,546,5461000000,world,0.00179526109255,0.00095695913234,2.95500512132
5471000000,547,5471000000,world,0.00179697709808,0.000949252565996,2.95508647198
5481000000,548,5481000000,world,0.00179926563882,0.000941031838324,2.95517801283
5491000000,549,5491000000,world,0.00180211211524,0.000932304023576,2.9552786674
5501000000,550,5501000000,world,0.00180618883422,0.000922877088985,2.95538740158
5511000000,551,5511000000,world,0.00181176238203,0.000912677722998,2.95550322252
5521000000,552,5521000000,world,0.00181775627591,0.000902025026291,2.95562517766
5531000000,553,5531000000,world,0.00182415297912,0.000890932885564,2.9557523463
5541000000,554,5541000000,world,0.00183172243091,0.000879374635761,2.95588378925
5551000000,555,5551000000,world,0.00184039410792,0.000867364022864,2.95601857324
5561000000,556,5561000000,world,0.00184935387435,0.000854949654514,2.95615580206
5571000000,557,5571000000,world,0.00185859605234,0.000842141032396,2.95629461463
5581000000,558,5581000000,world,0.00186842370736,0.000829029772815,2.95643418386
5591000000,559,5591000000,world,0.00187969762684,0.00081586129751,2.9565737151
5601000000,560,5601000000,world,0.00189118139697,0.000802311997971,2.95671244604
5611000000,561,5611000000,world,0.00190502463098,0.000794880214156,2.95684964545
5621000000,562,5621000000,world,0.00192105644115,0.000793029476549,2.95698460909
5631000000,563,5631000000,world,0.00193705332564,0.000790000717049,2.95711665966
5641000000,564,5641000000,world,0.0019530086105,0.000785728791666,2.95724514813
5651000000,565,5651000000,world,0.00196931961081,0.000782749076158,2.95736945406
5661000000,566,5661000000,world,0.00198647768538,0.000784180607054,2.95748899085
5671000000,567,5671000000,world,0.00200356758412,0.000783860347596,2.95760319569
5681000000,568,5681000000,world,0.00202061484679,0.000781787554498,2.95771152945
5691000000,569,5691000000,world,0.00203765191123,0.000778000980294,2.95781347428
5701000000,570,5701000000,world,0.00205448629658,0.000775458761346,2.95790853333
5711000000,571,5711000000,world,0.00207117776338,0.000774006808873,2.9579962285
5721000000,572,5721000000,world,0.00208800775206,0.000770736759816,2.95807610021
5731000000,573,5731000000,world,0.00210501931858,0.000765734880351,2.95814783849
5741000000,574,5741000000,world,0.00212136964254,0.000761176754379,2.95821190872
5751000000,575,5751000000,world,0.00213717488676,0.000757019716204,2.95826902979
5761000000,576,5761000000,world,0.00215339381338,0.000751254561905,2.95831989254
5771000000,577,5771000000,world,0.00217006816741,0.000743999130739,2.95836516152
5781000000,578,5781000000,world,0.00218675934024,0.000735703259752,2.95840547564
5791000000,579,5791000000,world,0.00220215573748,0.000727414400241,2.95844144928
5801000000,580,5801000000,world,0.00221822321679,0.000717949002905,2.95847367137
5811000000,581,5811000000,world,0.00223498745865,0.000707443138021,2.95850270886
5821000000,582,5821000000,world,0.00225044780065,0.000697159243553,2.95852910755
5831000000,583,5831000000,world,0.00226625615989,0.000686316595975,2.95855339033
5841000000,584,5841000000,world,0.00228294598146,0.00067474569821,2.95857606025
5851000000,585,5851000000,world,0.00230051648066,0.000662561894747,2.95859752523
5861000000,586,5861000000,world,0.00231895410987,0.000649878336832,2.9586170219
5871000000,587,5871000000,world,0.00233823376276,0.000636803100636,2.95863293847
5881000000,588,5881000000,world,0.00235832111414,0.000623440659391,2.95864370656
5891000000,589,5891000000,world,0.00237798060874,0.000610371856393,2.95864782099
5901000000,590,5901000000,world,0.0023976657602,0.00059749120682,2.95864383608
5911000000,591,5911000000,world,0.00241491529937,0.000584649928119,2.958630365
5921000000,592,5921000000,world,0.00243314948936,0.000571805814505,2.9586060739
5931000000,593,5931000000,world,0.00245235365173,0.000559021378023,2.95856996867
5941000000,594,5941000000,world,0.00247088054184,0.000545979202793,2.95852224181
5951000000,595,5951000000,world,0.00248910935876,0.000532830877903,2.95846335731
5961000000,596,5961000000,world,0.00250837754149,0.000519949107222,2.9583937607
5971000000,597,5971000000,world,0.00252865140024,0.000507383060439,2.95831388073
5981000000,598,5981000000,world,0.00254988071627,0.000495173820554,2.95822412937
5991000000,599,5991000000,world,0.00257119593779,0.000483110540333,2.9581249028
6001000000,600,6001000000,world,0.00259220482331,0.000471122681599,2.95801658153
6011000000,601,6011000000,world,0.00261410131549,0.000459614861885,2.95789953069
6021000000,602,6021000000,world,0.00264490150776,0.000443855207028,2.95777410248
6031000000,603,6031000000,world,0.00267685101153,0.000428084921705,2.95764063414
6041000000,604,6041000000,world,0.00270889083161,0.000413226830267,2.95749944988
6051000000,605,6051000000,world,0.00274131831724,0.000399121623389,2.9573511242
6061000000,606,6061000000,world,0.00277520813396,0.000385230837528,2.95719726577
6071000000,607,6071000000,world,0.00280878855899,0.000372370746252,2.95703967911
6081000000,608,6081000000,world,0.00284199246982,0.000360539098136,2.95688009965
6091000000,609,6091000000,world,0.00287442913055,0.000349992379668,2.9567201961
6101000000,610,6101000000,world,0.00290620692744,0.00034059600732,2.95656157321
6111000000,611,6111000000,world,0.0029375547841,0.000332130598062,2.95640577414
6121000000,612,6121000000,world,0.00296847248902,0.000324558335029,2.9562542826
6131000000,613,6131000000,world,0.00299828877815,0.00031817855241,2.95610837094
6141000000,614,6141000000,world,0.00302706818859,0.00031292171716,2.95596842379
6151000000,615,6151000000,world,0.00305552580809,0.000308393422808,2.95583453403
6161000000,616,6161000000,world,0.00308368093392,0.000304549496966,2.95570679079
6171000000,617,6171000000,world,0.00311154649402,0.000301350097324,2.95558527968
6181000000,618,6181000000,world,0.00313193837342,0.000298715878171,2.95547008232
6191000000,619,6191000000,world,0.0031454802207,0.000296618039697,2.95536127734
6201000000,620,6201000000,world,0.00315969511673,0.000295073085496,2.95525894141
6211000000,621,6211000000,world,0.00317467222334,0.000294055792272,2.9551631476
6221000000,622,6221000000,world,0.00318509814953,0.000293120259231,2.95507396519
6231000000,623,6231000000,world,0.00319317525708,0.000292419360192,2.95499146162
6241000000,624,6241000000,world,0.00320262109057,0.000292231221058,2.95491570242
6251000000,625,6251000000,world,0.00321070467221,0.000291854380892,2.95484687844
6261000000,626,6261000000,world,0.00321851778063,0.000291559283399,2.95478555665
6271000000,627,6271000000,world,0.00322790484121,0.000291815845431,2.95473235133
6281000000,628,6281000000,world,0.00323879537512,0.000292619022751,2.95468785256
6291000000,629,6291000000,world,0.00325108774511,0.000293961133381,2.95465262742
6301000000,630,6301000000,world,0.00326439337514,0.000295695912578,2.95462722086
6311000000,631,6311000000,world,0.0032765343208,0.000296774749749,2.95461215607
6321000000,632,6321000000,world,0.00328982292373,0.000298433407953,2.95460793691
6331000000,633,6331000000,world,0.00330413369151,0.00030066565959,2.95461500175
6341000000,634,6341000000,world,0.00331903903484,0.000302093825257,2.95463359054
6351000000,635,6351000000,world,0.00333466856871,0.000304004593524,2.95466388869
6361000000,636,6361000000,world,0.00335091353412,0.000306550060725,2.95470607475
6371000000,637,6371000000,world,0.0033685785821,0.000310150355671,2.95476032057
6381000000,638,6381000000,world,0.00339477410023,0.000318108575247,2.95482679431
6391000000,639,6391000000,world,0.00342061951561,0.000326389989038,2.95490565068
6401000000,640,6401000000,world,0.00344592681908,0.000334934589708,2.95499704177
6411000000,641,6411000000,world,0.00347068589448,0.00034381801613,2.95510111375
6421000000,642,6421000000,world,0.00349584624407,0.000353941081242,2.95521800743
6431000000,643,6431000000,world,0.0035200319027,0.000364144650195,2.95534785736
6441000000,644,6441000000,world,0.0035431694083,0.000374398405443,2.9554907932
6451000000,645,6451000000,world,0.00356521089464,0.000384680753758,2.95564650426
6461000000,646,6461000000,world,0.00358538753254,0.000394969458069,2.95581294305
6471000000,647,6471000000,world,0.00360416843741,0.000405258841663,2.95598771885
6481000000,648,6481000000,world,0.00362189524851,0.000415547145665,2.95616853742
6491000000,649,6491000000,world,0.00363787622161,0.000425584364104,2.95635319645
6501000000,650,6501000000,world,0.00365219795465,0.00043539378832,2.9565395827
6511000000,651,6511000000,world,0.00366563446856,0.000445239053781,2.95672566835
6521000000,652,6521000000,world,0.00367822648688,0.000455126167001,2.95690950665
6531000000,653,6531000000,world,0.0036900108372,0.00046506006464,2.95708924813
6541000000,654,6541000000,world,0.00370102117071,0.000475041681564,2.95726390035
6551000000,655,6551000000,world,0.00371004995405,0.000484308895836,2.95743351842
6561000000,656,6561000000,world,0.00371843747377,0.000493668866464,2.95759822157
6571000000,657,6571000000,world,0.00372621720134,0.000503126027234,2.95775812362
6581000000,658,6581000000,world,0.00373341580814,0.000512681714567,2.95791333395
6591000000,659,6591000000,world,0.00373909431593,0.000521383036779,2.9580639571
6601000000,660,6601000000,world,0.00374418291625,0.000530125326781,2.9582100945
6611000000,661,6611000000,world,0.00374876391654,0.000538942802759,2.95835184342
6621000000,662,6621000000,world,0.00375202810143,0.000546609202624,2.95848929586
6631000000,663,6631000000,world,0.00375491064926,0.000554477553861,2.95862254258
6641000000,664,6641000000,world,0.00375742270043,0.000562541184444,2.95875166942
6651000000,665,6651000000,world,0.00375956905708,0.000570787530607,2.95887675708
6661000000,666,6661000000,world,0.00376200640157,0.000574154708947,2.95899787454
6671000000,667,6671000000,world,0.00376499643455,0.000568829816033,2.95911508532
6681000000,668,6681000000,world,0.00376750794571,0.000564515227179,2.95922845063
6691000000,669,6691000000,world,0.00376952162784,0.000561268973899,2.95933802975
6701000000,670,6701000000,world,0.00377168141814,0.00055587970941,2.9594438793
6711000000,671,6711000000,world,0.00377447141257,0.000545904058112,2.95954605346
6721000000,672,6721000000,world,0.00377661376966,0.000537526132107,2.95964460492
6731000000,673,6731000000,world,0.00377809277203,0.000530739034147,2.95973954201
6741000000,674,6741000000,world,0.00377935238696,0.000524498506285,2.95983064295
6751000000,675,6751000000,world,0.00378167215983,0.000515904305399,2.95991761859
6761000000,676,6761000000,world,0.0037831889147,0.00050895092003,2.96000019159
6771000000,677,6771000000,world,0.00378389627587,0.00050354351788,2.96007809549
6781000000,678,6781000000,world,0.00378460538176,0.000498485861363,2.96015107423
6791000000,679,6791000000,world,0.00378565534007,0.00049320868601,2.96021888167
6801000000,680,6801000000,world,0.0037858104134,0.000489245887112,2.96028128146
6811000000,681,6811000000,world,0.00378642761009,0.000486081324618,2.96033804702
6821000000,682,6821000000,world,0.00378698223756,0.000483723626762,2.96038895997
6831000000,683,6831000000,world,0.003786565277,0.000482283500611,2.96043381049
6841000000,684,6841000000,world,0.00378519829498,0.000481611192321,2.9604723973
6851000000,685,6851000000,world,0.00378291461512,0.000481560203092,2.96050461927
6861000000,686,6861000000,world,0.00378120076741,0.000482514312689,2.9605308064
6871000000,687,6871000000,world,0.00377892466749,0.000483911389743,2.9605513965
6881000000,688,6881000000,world,0.00377575128111,0.000485484003283,2.96056681081
6891000000,689,6891000000,world,0.00376732031078,0.00049176293819,2.96057745555
6901000000,690,6901000000,world,0.00375548627312,0.000500731754653,2.96058371968
6911000000,691,6911000000,world,0.00374337842853,0.000509040799312,2.96058597638
6921000000,692,6921000000,world,0.00373109399029,0.000516559323582,2.96058458502
6931000000,693,6931000000,world,0.00371871090972,0.000523190544344,2.96057964392
6941000000,694,6941000000,world,0.00370519854267,0.000529567489705,2.9605702552
6951000000,695,6951000000,world,0.00369105141427,0.000535358670882,2.96055531445
6961000000,696,6961000000,world,0.00367706850386,0.000540049564857,2.96053376109
6971000000,697,6971000000,world,0.00366328661953,0.000543625634298,2.96050457679
6981000000,698,6981000000,world,0.00364979047027,0.000545896527927,2.96046678357
6991000000,699,6991000000,world,0.00363667050944,0.00054664361477,2.96041944225
7001000000,700,7001000000,world,0.00362377044123,0.000546360720903,2.96036165124
7011000000,701,7011000000,world,0.00361108721842,0.00054508556574,2.96029254449
7021000000,702,7021000000,world,0.0035986144695,0.000542859092117,2.96021129024
7031000000,703,7031000000,world,0.00358707581827,0.000539101230165,2.96011708946
7041000000,704,7041000000,world,0.00357586677447,0.000534363896384,2.96000917518
7051000000,705,7051000000,world,0.0035674713389,0.000529468869944,2.95988726472
7061000000,706,7061000000,world,0.00356951131155,0.000526195288276,2.95975243437
7071000000,707,7071000000,world,0.00357082035153,0.000522058256233,2.95960595794
7081000000,708,7081000000,world,0.003571296472,0.000517075691712,2.95944906258
7091000000,709,7091000000,world,0.00357088435434,0.000511271050826,2.959282928
7101000000,710,7101000000,world,0.0035704099079,0.000504808234097,2.95910868809
7111000000,711,7111000000,world,0.00357637403406,0.000500087936135,2.95892743462
7121000000,712,7121000000,world,0.00358097458066,0.000494478129469,2.95874021375
7131000000,713,7131000000,world,0.00358419468281,0.000487995685328,2.95854815477
7141000000,714,7141000000,world,0.00358652790122,0.000480996291483,2.95835300411
7151000000,715,7151000000,world,0.00359159507505,0.000476052822841,2.95815665994
7161000000,716,7161000000,world,0.00359518534296,0.000470129279781,2.95796094652
7171000000,717,7171000000,world,0.00359736689852,0.000463238649325,2.95776761902
7181000000,718,7181000000,world,0.00359941099953,0.000456560087705,2.95757836539
7191000000,719,7191000000,world,0.00360190550468,0.000450595806682,2.95739480851
7201000000,720,7201000000,world,0.00360313847644,0.000443595319976,2.95721850865
7211000000,721,7211000000,world,0.00360322271286,0.000435591455037,2.95705096635
7221000000,722,7221000000,world,0.00360235790043,0.000426930394741,2.95689362448
7231000000,723,7231000000,world,0.00360124273807,0.000419984734349,2.95674787073
7241000000,724,7241000000,world,0.00359932888473,0.000412005617421,2.95661503811
7251000000,725,7251000000,world,0.00359674521723,0.000403030152698,2.95649634854
7261000000,726,7261000000,world,0.00359362138448,0.000393367761221,2.95639273404
7271000000,727,7271000000,world,0.00359008815013,0.000385068414774,2.9563050316
7281000000,728,7281000000,world,0.00358624916589,0.000375799938818,2.95623404469
7291000000,729,7291000000,world,0.00358211815326,0.000365857954293,2.9561805463
7301000000,730,7301000000,world,0.00357705500358,0.000357191692369,2.95614527999
7311000000,731,7311000000,world,0.00357205167592,0.000347579725186,2.95612895886
7321000000,732,7321000000,world,0.00356720132845,0.000337071131959,2.95613226918
7331000000,733,7331000000,world,0.00356187748537,0.000326786494791,2.95615505127
7341000000,734,7341000000,world,0.0035562066872,0.000316707856814,2.9561947189
7351000000,735,7351000000,world,0.00355098505047,0.000305803427649,2.95624835239
7361000000,736,7361000000,world,0.00354626951071,0.000294135000009,2.9563131511
7371000000,737,7371000000,world,0.00354210437056,0.000281769060391,2.956386428
