%time,field.header.seq,field.header.stamp,field.header.frame_id,field.twist.linear.x,field.twist.linear.y,field.twist.linear.z,field.twist.angular.x,field.twist.angular.y,field.twist.angular.z
29000000,1,29000000,,0.00500634573105,-0.00447447133058,-0.0494147180938,0.0,0.0,0.0
31000000,2,31000000,,-0.00972874037116,0.000572900522903,-0.170824114917,0.0,0.0,0.0
41000000,3,41000000,,0.0103305735791,-0.0248058235013,-0.275005748955,0.0,0.0,0.0
56000000,4,56000000,,-0.00917485875897,0.0064551914326,-0.35999066594,0.0,0.0,0.0
61000000,5,61000000,,-3.23119023978e-06,0.0244303368535,-0.403071300429,0.0,0.0,0.0
73000000,6,73000000,,-0.00135037501033,-0.0156538200219,-0.555478553152,0.0,0.0,0.0
82000000,7,82000000,,0.00248438165188,0.0195564740529,-0.633135955937,0.0,0.0,0.0
91000000,8,91000000,,-0.0205678065415,-0.0361532779133,-0.737249184535,0.0,0.0,0.0
101000000,9,101000000,,0.0132787285038,0.0252462677555,-0.860310708904,0.0,0.0,0.0
113000000,10,113000000,,-0.00492508733826,-0.0126887696782,-0.948557723986,0.0,0.0,0.0
121000000,11,121000000,,0.0175045901497,-0.0125081176365,-1.01125188614,0.0,0.0,0.0
131000000,12,131000000,,-0.00428197354411,-0.00313501201214,-1.11939212562,0.0,0.0,0.0
141000000,13,141000000,,-0.0235312328958,0.0308172526704,-1.2297493219,0.0,0.0,0.0
151000000,14,151000000,,-0.0182650567008,0.0339300141275,-1.33037256797,0.0,0.0,0.0
161000000,15,161000000,,0.00618069216995,-0.0208083690944,-1.44991696517,0.0,0.0,0.0
171000000,16,171000000,,-0.0253587906818,0.0113526186185,-0.383370574272,0.0,0.0,0.0
182000000,17,182000000,,-0.00834917676576,-0.050738057844,-0.0211338940116,0.0,0.0,0.0
191000000,18,191000000,,0.0281002338221,0.00627622878184,-0.00466756587696,0.0,0.0,0.0
201000000,19,201000000,,0.00606986253561,-0.0388435895984,-0.00777709411988,0.0,0.0,0.0
211000000,20,211000000,,-0.0170067439564,-0.00221032400059,0.0166206167939,0.0,0.0,0.0
221000000,21,221000000,,-0.00661575243877,-0.00876952046203,0.0114100131096,0.0,0.0,0.0
231000000,22,231000000,,0.00897120415042,0.00464793588459,-0.0116082695494,0.0,0.0,0.0
241000000,23,241000000,,-0.0257033242094,0.0102433022253,-0.0174254200269,0.0,0.0,0.0
251000000,24,251000000,,-0.00364826566637,0.00702494663922,0.0344381999575,0.0,0.0,0.0
261000000,25,261000000,,-0.0345059424886,0.035482028333,-0.00363979792688,0.0,0.0,0.0
271000000,26,271000000,,-0.031925515342,0.0164804265951,0.0134537987994,0.0,0.0,0.0
281000000,27,281000000,,0.0144807649667,-0.00453778665193,-0.00706012739298,0.0,0.0,0.0
291000000,28,291000000,,0.00384690493147,-0.0132473625799,0.000210957852387,0.0,0.0,0.0
302000000,29,302000000,,0.00838755038118,0.0114078567273,-0.0293590057277,0.0,0.0,0.0
311000000,30,311000000,,-0.0238204468256,-0.00692657353907,0.0017531384548,0.0,0.0,0.0
321000000,31,321000000,,-0.0386099122581,-0.0151145213497,0.0188607714935,0.0,0.0,0.0
331000000,32,331000000,,0.0300603975761,0.00992905024513,-0.0158943732972,0.0,0.0,0.0
344000000,33,344000000,,0.0179010707347,0.0215863763899,0.0137356989345,0.0,0.0,0.0
353000000,34,353000000,,-0.00408800686635,0.0190170810959,0.013284354575,0.0,0.0,0.0
361000000,35,361000000,,0.0109406631037,0.0300233928539,-0.0134884505133,0.0,0.0,0.0
371000000,36,371000000,,-0.0468046207803,-0.022488228038,0.00593146173611,0.0,0.0,0.0
381000000,37,381000000,,-0.0376278744024,-0.0174037144452,0.00157236174662,0.0,0.0,0.0
391000000,38,391000000,,0.0158641253077,-0.0133635791997,-0.0213727473308,0.0,0.0,0.0
401000000,39,401000000,,0.0159778742744,0.0041010618905,-0.00226907746009,0.0,0.0,0.0
411000000,40,411000000,,-0.00815453910629,-0.00510270566262,-0.0188771046093,0.0,0.0,0.0
421000000,41,421000000,,0.0222127809672,-0.0109283544492,-0.0204555311941,0.0,0.0,0.0
431000000,42,431000000,,-0.0314198862684,0.00801554922038,0.0325681386982,0.0,0.0,0.0
441000000,43,441000000,,-0.0210797906504,0.0173127565486,0.0170200106184,0.0,0.0,0.0
451000000,44,451000000,,-0.0556004659002,0.00143540847371,0.00249313325846,0.0,0.0,0.0
461000000,45,461000000,,0.00770305973474,0.00897784849371,0.0133718277249,0.0,0.0,0.0
471000000,46,471000000,,0.0113201956686,-0.0142177982366,-0.0204017444718,0.0,0.0,0.0
481000000,47,481000000,,0.0264505381046,-0.00207633300039,-0.00277778765308,0.0,0.0,0.0
491000000,48,491000000,,-0.0114190446434,0.0122032025423,0.0208797483137,0.0,0.0,0.0
501000000,49,501000000,,-0.0148454362656,0.0012050372603,-0.00414224314372,0.0,0.0,0.0
511000000,50,511000000,,0.0181034373906,-0.00564650038467,-0.0174774501356,0.0,0.0,0.0
521000000,51,521000000,,-0.0199997698629,0.0322941131039,0.0222197673017,0.0,0.0,0.0
531000000,52,531000000,,0.00520299334079,-0.000398867020438,0.0898521880835,0.0,0.0,0.0
542000000,53,542000000,,0.010496026338,-0.00404027338555,0.0321660654528,0.0,0.0,0.0
551000000,54,551000000,,0.00240648871062,-0.0294180208082,0.0903106497959,0.0,0.0,0.0
561000000,55,561000000,,0.0102927034202,0.0026678511523,0.127822452131,0.0,0.0,0.0
572000000,56,572000000,,-0.030716121088,0.00321233782364,0.162921146438,0.0,0.0,0.0
581000000,57,581000000,,-0.0177607094805,-0.017756926489,0.145032363377,0.0,0.0,0.0
591000000,58,591000000,,-0.0020783732723,-0.0288645400717,0.206056780683,0.0,0.0,0.0
601000000,59,601000000,,-0.0121598700351,-0.0305198865523,0.237133766687,0.0,0.0,0.0
611000000,60,611000000,,0.0047929851269,-0.00979158424851,0.334377098199,0.0,0.0,0.0
621000000,61,621000000,,-0.00671204119163,0.0210656120973,0.354610508105,0.0,0.0,0.0
631000000,62,631000000,,-0.0128053466904,0.0311891959285,0.371380064331,0.0,0.0,0.0
641000000,63,641000000,,-0.00186440719981,-0.0125322982757,0.42480962564,0.0,0.0,0.0
651000000,64,651000000,,-0.00478270591956,-0.00404934801023,0.472826975478,0.0,0.0,0.0
661000000,65,661000000,,-0.00182293473935,0.00797450423012,0.511963040899,0.0,0.0,0.0
671000000,66,671000000,,0.0432928027163,0.0140168733489,0.596960075354,0.0,0.0,0.0
681000000,67,681000000,,0.00789951288062,-0.0219358746551,0.6456333434,0.0,0.0,0.0
691000000,68,691000000,,-0.00838201716509,0.0188177300032,0.739998489973,0.0,0.0,0.0
701000000,69,701000000,,-0.00933464648901,0.0090874877598,0.723075200562,0.0,0.0,0.0
711000000,70,711000000,,-0.00709387685361,0.0190259358084,0.812947065085,0.0,0.0,0.0
721000000,71,721000000,,0.0200360915526,0.00404334022434,0.850762657831,0.0,0.0,0.0
731000000,72,731000000,,-0.0119950589955,0.0155300617259,0.933217833997,0.0,0.0,0.0
742000000,73,742000000,,-0.0339041252137,0.0152358194885,0.9876104737,0.0,0.0,0.0
751000000,74,751000000,,0.00332222105488,0.0143738494178,1.02998816412,0.0,0.0,0.0
761000000,75,761000000,,-0.0276575090071,-0.0121645389094,1.10192222491,0.0,0.0,0.0
771000000,76,771000000,,0.000507546018923,0.00234947662854,1.17102036734,0.0,0.0,0.0
781000000,77,781000000,,0.010761702359,-0.0134784661064,1.21494023774,0.0,0.0,0.0
792000000,78,792000000,,-0.0115073228429,0.0238959027488,1.27985398081,0.0,0.0,0.0
801000000,79,801000000,,-0.0175366484138,0.00177729488476,1.31781107138,0.0,0.0,0.0
811000000,80,811000000,,0.00882171841427,0.00239956843471,1.38232557403,0.0,0.0,0.0
821000000,81,821000000,,-0.00817683633306,-0.0659849565132,1.37665463693,0.0,0.0,0.0
831000000,82,831000000,,-0.0337964422594,0.00294488791291,1.44411914108,0.0,0.0,0.0
841000000,83,841000000,,-0.0223609210513,0.00683809698861,1.44251570178,0.0,0.0,0.0
851000000,84,851000000,,-0.0259601117077,0.0402043424709,1.54325966233,0.0,0.0,0.0
861000000,85,861000000,,0.00780136929714,-0.000536685253949,1.55929132852,0.0,0.0,0.0
871000000,86,871000000,,-0.0187811236472,-0.0451039537044,1.5906651464,0.0,0.0,0.0
881000000,87,881000000,,-0.0472330494118,-0.0109285329664,1.57478192329,0.0,0.0,0.0
891000000,88,891000000,,-0.0173595384056,0.0026794252308,1.62051217752,0.0,0.0,0.0
901000000,89,901000000,,-0.0144459125367,0.00998259105855,1.64973925063,0.0,0.0,0.0
914000000,90,914000000,,-0.0273619096792,-0.00872471658101,1.67017802142,0.0,0.0,0.0
921000000,91,921000000,,-0.0380696832828,-0.0133785223761,1.66704123612,0.0,0.0,0.0
931000000,92,931000000,,-0.00468264006692,0.00186237419796,1.63199089232,0.0,0.0,0.0
941000000,93,941000000,,-0.0377320891374,0.0386298199355,1.68331345166,0.0,0.0,0.0
954000000,94,954000000,,-0.000373623956991,0.0119937710128,1.69876660083,0.0,0.0,0.0
963000000,95,963000000,,-0.0284790790967,-0.0243358320726,1.71965945767,0.0,0.0,0.0
974000000,96,974000000,,-0.002607874422,-0.0202013178069,1.67521224801,0.0,0.0,0.0
980000000,97,980000000,,-0.0205889788352,-0.00734541606177,1.6686455139,0.0,0.0,0.0
991000000,98,991000000,,-0.00157387614352,-0.0362866407675,1.67750705096,0.0,0.0,0.0
1001000000,99,1001000000,,-0.00938634549127,-0.0240731176379,1.63401069521,0.0,0.0,0.0
1011000000,100,1011000000,,-0.0175991889112,0.0227005503808,1.67218832425,0.0,0.0,0.0
1021000000,101,1021000000,,-0.0219698700112,0.0153389897547,1.66501997857,0.0,0.0,0.0
1031000000,102,1031000000,,0.0192288402967,-0.021202414354,1.64536977689,0.0,0.0,0.0
1042000000,103,1042000000,,-0.0160181426141,0.02082799422,1.67130226303,0.0,0.0,0.0
1051000000,104,1051000000,,0.0197389309915,-0.00387585181983,1.6132906816,0.0,0.0,0.0
1061000000,105,1061000000,,0.0108517748477,0.00378979134784,1.61709169174,0.0,0.0,0.0
1071000000,106,1071000000,,-0.0208679173331,-0.0141528508345,1.57402695783,0.0,0.0,0.0
1082000000,107,1082000000,,0.0122541506542,-0.00356075003124,1.59514697664,0.0,0.0,0.0
1095000000,108,1095000000,,0.0110073469616,0.00809865065901,1.55847435999,0.0,0.0,0.0
1101000000,109,1101000000,,0.00265777010911,0.0155583862951,1.5560305579,0.0,0.0,0.0
1111000000,110,1111000000,,0.011465990044,-1.97391217336e-05,1.4719587065,0.0,0.0,0.0
1116000000,111,1116000000,,-0.024543230755,-0.0200628859479,1.52579736244,0.0,0.0,0.0
1133000000,112,1133000000,,0.032090686248,0.0131279633503,1.44414559899,0.0,0.0,0.0
1143000000,113,1143000000,,-0.0315475767308,0.0238755145433,1.44869479991,0.0,0.0,0.0
1153000000,114,1153000000,,-0.00222816065776,0.00439644800023,1.45178815351,0.0,0.0,0.0
1162000000,115,1162000000,,-0.026674217454,-0.010771668122,1.43940912029,0.0,0.0,0.0
1172000000,116,1172000000,,-0.0189443989412,-0.0115258300772,1.37998470033,0.0,0.0,0.0
1184000000,117,1184000000,,0.0395808767814,0.00467661657965,1.41794894645,0.0,0.0,0.0
1191000000,118,1191000000,,-0.00980285954845,0.00330121044819,1.36089676584,0.0,0.0,0.0
1203000000,119,1203000000,,0.0174394994232,-0.00481866829689,1.32530830563,0.0,0.0,0.0
1214000000,120,1214000000,,0.0265462352882,0.0164553777502,1.34136611943,0.0,0.0,0.0
1222000000,121,1222000000,,-0.0268847428074,-0.0170364768187,1.30012396169,0.0,0.0,0.0
1234000000,122,1234000000,,-0.0176440886003,-0.0127238596146,1.2679587126,0.0,0.0,0.0
1243000000,123,1243000000,,0.0235987195772,-0.0110448425008,1.27535150699,0.0,0.0,0.0
1252000000,124,1252000000,,-0.0219373916203,-0.0356172461327,1.2486924873,0.0,0.0,0.0
1261000000,125,1261000000,,0.00379839818204,0.00807412419782,1.21156513314,0.0,0.0,0.0
1271000000,126,1271000000,,0.0310298746371,0.021082582299,1.25260934611,0.0,0.0,0.0
1281000000,127,1281000000,,-0.0686395168645,0.0380190429029,1.20029998288,0.0,0.0,0.0
1291000000,128,1291000000,,-0.0108663744535,0.0400983873131,1.22766166706,0.0,0.0,0.0
1301000000,129,1301000000,,0.0211767740194,-0.000788447023997,1.20778941714,0.0,0.0,0.0
1311000000,130,1311000000,,0.0101319516108,0.0127571529218,1.19581574905,0.0,0.0,0.0
1321000000,131,1321000000,,-0.00429727411745,0.0076325773061,1.1885935385,0.0,0.0,0.0
1331000000,132,1331000000,,-0.0244077728409,0.00319281971188,1.20652224776,0.0,0.0,0.0
1341000000,133,1341000000,,0.00342800567994,0.0314943125927,1.16292635892,0.0,0.0,0.0
1351000000,134,1351000000,,-0.00502087015035,0.00612078568786,1.14776250055,0.0,0.0,0.0
1361000000,135,1361000000,,-0.0117925733163,0.0307170210165,1.18436795472,0.0,0.0,0.0
1371000000,136,1371000000,,-0.0197471313735,0.00817111826343,1.1273532177,0.0,0.0,0.0
1381000000,137,1381000000,,0.0203512885925,-0.0111376064548,1.16662793767,0.0,0.0,0.0
1391000000,138,1391000000,,-0.0289905867768,-0.000725786597141,1.13115957908,0.0,0.0,0.0
1400000000,139,1400000000,,0.0111001060525,0.00854607767324,1.15066881384,0.0,0.0,0.0
1411000000,140,1411000000,,0.00284246796263,0.027141932143,1.13643765955,0.0,0.0,0.0
1421000000,141,1421000000,,0.0233903036423,0.005226278274,1.12203778529,0.0,0.0,0.0
1431000000,142,1431000000,,-0.0105513773087,0.00364089190552,1.13540221281,0.0,0.0,0.0
1441000000,143,1441000000,,0.0114342891006,-0.0268325304976,1.13938984746,0.0,0.0,0.0
1451000000,144,1451000000,,-0.0140022116615,0.00226285141113,1.13443282806,0.0,0.0,0.0
1461000000,145,1461000000,,0.024064428067,0.00574776267993,1.14679882521,0.0,0.0,0.0
1471000000,146,1471000000,,-0.00487982507328,-0.0150064684504,1.13978456685,0.0,0.0,0.0
1482000000,147,1482000000,,-0.016181063005,-0.00259792664011,1.1422397956,0.0,0.0,0.0
1491000000,148,1491000000,,-0.00309053226722,-0.0119957663844,1.13328383886,0.0,0.0,0.0
1501000000,149,1501000000,,-0.00406726954175,-0.000640602084025,1.12938787207,0.0,0.0,0.0
1512000000,150,1512000000,,-0.00081607172847,0.0188096257471,1.16742439065,0.0,0.0,0.0
1521000000,151,1521000000,,-0.0232702094448,0.00696460329915,1.15407864713,0.0,0.0,0.0
1531000000,152,1531000000,,-0.0159503677268,-0.0235653863253,1.16552232794,0.0,0.0,0.0
1542000000,153,1542000000,,-0.00988423866411,0.0127984925176,1.15799708084,0.0,0.0,0.0
1551000000,154,1551000000,,-0.0221726898119,-0.01008982573,1.11767065906,0.0,0.0,0.0
1561000000,155,1561000000,,-0.0330706657411,-0.0152454144861,1.14529053557,0.0,0.0,0.0
1571000000,156,1571000000,,-0.00959636691599,0.00350582631429,1.14778192862,0.0,0.0,0.0
1582000000,157,1582000000,,-0.0118498534416,-0.0167011553142,1.1626406594,0.0,0.0,0.0
1591000000,158,1591000000,,0.00438969620676,0.00134199115876,1.13611144094,0.0,0.0,0.0
1602000000,159,1602000000,,-0.010400495777,-0.0264480873539,1.15627408018,0.0,0.0,0.0
1611000000,160,1611000000,,0.00353826811725,-0.00408602596177,1.16559954681,0.0,0.0,0.0
1621000000,161,1621000000,,-0.00828868451081,-0.0170925246394,1.15915099984,0.0,0.0,0.0
1631000000,162,1631000000,,-0.0256201529276,0.0117919974841,1.12946444883,0.0,0.0,0.0
1642000000,163,1642000000,,0.00786974924929,-0.00392534078062,1.19438169167,0.0,0.0,0.0
1651000000,164,1651000000,,0.0386994935218,0.0125380165447,1.17596073355,0.0,0.0,0.0
1661000000,165,1661000000,,-0.00885348670144,-0.0230490417315,1.16297242847,0.0,0.0,0.0
1671000000,166,1671000000,,0.0142359794666,0.0222958830186,1.15839602129,0.0,0.0,0.0
1681000000,167,1681000000,,-0.00238423444747,-0.00273975789262,1.15008353696,0.0,0.0,0.0
1691000000,168,1691000000,,-0.00197603822856,-0.00145790149114,1.19176493448,0.0,0.0,0.0
1701000000,169,1701000000,,0.0290153211341,0.0214947319584,1.12998719931,0.0,0.0,0.0
1711000000,170,1711000000,,0.00218296305941,-0.0119750755961,1.10972021318,0.0,0.0,0.0
1721000000,171,1721000000,,-0.000127440572777,-0.0204596994837,1.11592548008,0.0,0.0,0.0
1731000000,172,1731000000,,-0.00731394783869,-0.0283883107766,1.1096024928,0.0,0.0,0.0
1741000000,173,1741000000,,-0.00669449023471,0.0103891496582,1.07988639906,0.0,0.0,0.0
1751000000,174,1751000000,,0.0289942154582,-0.00851842060282,1.05205642707,0.0,0.0,0.0
1761000000,175,1761000000,,-0.0295517429678,0.0153735532487,1.11257664119,0.0,0.0,0.0
1771000000,176,1771000000,,-0.0265242553012,0.0112220577682,1.12182604042,0.0,0.0,0.0
1781000000,177,1781000000,,-0.000769016636646,-0.00835626966338,1.05697005258,0.0,0.0,0.0
1791000000,178,1791000000,,-0.0182302089948,0.00559987274086,1.08525013291,0.0,0.0,0.0
1801000000,179,1801000000,,-0.0117278710828,0.00077155008252,1.03821769535,0.0,0.0,0.0
1811000000,180,1811000000,,-0.0137610927964,-0.00934693571507,1.09868737426,0.0,0.0,0.0
1821000000,181,1821000000,,-0.0283030979732,-0.00809720594767,1.03214806408,0.0,0.0,0.0
1831000000,182,1831000000,,-0.0175788882992,-0.0133349033519,0.975946617089,0.0,0.0,0.0
1841000000,183,1841000000,,0.0156290360347,0.0370721134104,1.01350743808,0.0,0.0,0.0
1851000000,184,1851000000,,0.0150259991972,0.0131317303241,0.989860115123,0.0,0.0,0.0
1861000000,185,1861000000,,0.000913054491854,-0.0254107977854,1.00129083134,0.0,0.0,0.0
1871000000,186,1871000000,,-0.0234257842127,0.0198725309916,0.970276459401,0.0,0.0,0.0
1881000000,187,1881000000,,-0.0310944107344,-0.0136481444202,0.946686437113,0.0,0.0,0.0
1891000000,188,1891000000,,0.0217119308207,0.00370993525492,0.925086882967,0.0,0.0,0.0
1901000000,189,1901000000,,0.00952966330553,0.0234698898585,0.942086855528,0.0,0.0,0.0
1911000000,190,1911000000,,0.0383826873862,-0.0100700136573,0.898415950739,0.0,0.0,0.0
1921000000,191,1921000000,,0.0314926724162,0.000659892300331,0.890372895991,0.0,0.0,0.0
1931000000,192,1931000000,,0.00604985234142,-0.000601193571171,0.889232241809,0.0,0.0,0.0
1941000000,193,1941000000,,0.0116390659659,-0.0140685470233,0.861505934753,0.0,0.0,0.0
1951000000,194,1951000000,,0.0294058228958,-0.0100974620836,0.864119391786,0.0,0.0,0.0
1961000000,195,1961000000,,-0.045820290454,-0.0108894080899,0.846742741442,0.0,0.0,0.0
1971000000,196,1971000000,,-0.00626995230331,0.0298928675244,0.819286207763,0.0,0.0,0.0
1981000000,197,1981000000,,-0.0260611529192,0.043503857068,0.824604977095,0.0,0.0,0.0
1991000000,198,1991000000,,-0.00970301365304,-0.00927645844926,0.792626815617,0.0,0.0,0.0
2001000000,199,2001000000,,0.0196345335152,0.0213988925244,0.810008108481,0.0,0.0,0.0
2011000000,200,2011000000,,-0.0145128201029,-0.043444937794,0.799585083983,0.0,0.0,0.0
2021000000,201,2021000000,,-0.00385036459883,0.0102662859118,0.792619308662,0.0,0.0,0.0
2031000000,202,2031000000,,0.0369475465354,-0.0274717537827,0.73749966693,0.0,0.0,0.0
2041000000,203,2041000000,,0.00610074476999,0.010481023272,0.752725406108,0.0,0.0,0.0
2051000000,204,2051000000,,0.0302126197456,-0.00559521497539,0.777315160445,0.0,0.0,0.0
2061000000,205,2061000000,,0.019886053687,0.00985242681422,0.725508608438,0.0,0.0,0.0
2071000000,206,2071000000,,-0.027390658179,-0.00962317717737,0.675755586742,0.0,0.0,0.0
2081000000,207,2081000000,,-0.00920907697189,-0.0184561072734,0.677277567981,0.0,0.0,0.0
2091000000,208,2091000000,,0.00951303505389,-0.0295408479176,0.672896919491,0.0,0.0,0.0
2102000000,209,2102000000,,-0.0125147295918,-0.0111231249585,0.692037452488,0.0,0.0,0.0
2114000000,210,2114000000,,-0.0325862762042,-0.014885475276,0.67748905469,0.0,0.0,0.0
2122000000,211,2122000000,,-0.0121306220614,-0.0129596746394,0.626074752599,0.0,0.0,0.0
2136000000,212,2136000000,,-0.0400550492755,-0.0317528040574,0.685258063705,0.0,0.0,0.0
2142000000,213,2142000000,,0.0138514407695,-0.00622528631588,0.665246563949,0.0,0.0,0.0
2151000000,214,2151000000,,0.0137130842258,0.0277200181791,0.630799350741,0.0,0.0,0.0
2161000000,215,2161000000,,-0.0530495177662,-0.00400517287376,0.658803976753,0.0,0.0,0.0
2171000000,216,2171000000,,0.0201281076566,-0.0174728273105,0.643698644225,0.0,0.0,0.0
2181000000,217,2181000000,,0.0330993824311,0.0183149479367,0.666120698419,0.0,0.0,0.0
2191000000,218,2191000000,,0.021610411927,-0.0467251756468,0.660368918145,0.0,0.0,0.0
2201000000,219,2201000000,,0.0256147355248,-0.015479894394,0.654578087781,0.0,0.0,0.0
2211000000,220,2211000000,,-0.00697383334479,-0.0153108851799,0.643636172013,0.0,0.0,0.0
2221000000,221,2221000000,,0.0080872322089,0.0135086888098,0.643588353323,0.0,0.0,0.0
2231000000,222,2231000000,,0.0215735572608,-0.00229908202887,0.625990583401,0.0,0.0,0.0
2241000000,223,2241000000,,-0.00338186775153,-0.0162723141077,0.579361767656,0.0,0.0,0.0
2251000000,224,2251000000,,-0.0194207126887,0.00568250523257,0.5976312084,0.0,0.0,0.0
2261000000,225,2261000000,,0.015120024551,0.0105048537212,0.615677587708,0.0,0.0,0.0
2271000000,226,2271000000,,0.0097959883096,-0.00366109545235,0.626558525192,0.0,0.0,0.0
2281000000,227,2281000000,,-0.00314089290933,0.00835996269756,0.649407504722,0.0,0.0,0.0
2291000000,228,2291000000,,0.0223336932317,-0.0142834218916,0.595611407596,0.0,0.0,0.0
2301000000,229,2301000000,,0.00335314895281,-0.0406455820675,0.623900115519,0.0,0.0,0.0
2311000000,230,2311000000,,-0.00704284969726,-0.0600592088357,0.583472737121,0.0,0.0,0.0
2321000000,231,2321000000,,0.011876315037,0.0179805563678,0.581394100816,0.0,0.0,0.0
2331000000,232,2331000000,,0.0191353637276,0.00882133690832,0.581123072056,0.0,0.0,0.0
2341000000,233,2341000000,,-0.0484705336139,0.00506516801949,0.612093724214,0.0,0.0,0.0
2351000000,234,2351000000,,-0.0179357563972,0.0172531317973,0.535602179267,0.0,0.0,0.0
2361000000,235,2361000000,,-0.00595111012706,0.0184457892861,0.589496462627,0.0,0.0,0.0
2371000000,236,2371000000,,-0.00613781750462,-0.0345086393882,0.564266407422,0.0,0.0,0.0
2381000000,237,2381000000,,-0.00146159694149,-0.000342711703836,0.558052238602,0.0,0.0,0.0
2391000000,238,2391000000,,0.0274031053838,-0.0117385097059,0.584168221977,0.0,0.0,0.0
2401000000,239,2401000000,,-0.00354096939655,-0.0289103653623,0.533105991084,0.0,0.0,0.0
2411000000,240,2411000000,,-0.00527809390733,-0.0174200159598,0.540211575404,0.0,0.0,0.0
2421000000,241,2421000000,,-0.00425350244308,-0.0170837927835,0.549518053891,0.0,0.0,0.0
2433000000,242,2433000000,,0.000973573604532,-0.0169612202023,0.537368519901,0.0,0.0,0.0
2442000000,243,2442000000,,-0.0131161870508,0.00357325347617,0.543517575407,0.0,0.0,0.0
2451000000,244,2451000000,,0.00644903824602,0.0261672167858,0.535774713862,0.0,0.0,0.0
2461000000,245,2461000000,,0.0247110509631,0.00096048983975,0.47074800648,0.0,0.0,0.0
2471000000,246,2471000000,,-0.0200787430387,0.026716497386,0.506639053035,0.0,0.0,0.0
2481000000,247,2481000000,,-0.0100155896281,-0.0123832696882,0.500753638947,0.0,0.0,0.0
2491000000,248,2491000000,,-0.0179560312953,-0.0107325771211,0.445673718314,0.0,0.0,0.0
2501000000,249,2501000000,,0.0121799001244,0.0236296048472,0.495093793702,0.0,0.0,0.0
2511000000,250,2511000000,,0.0326043673112,0.000517567627513,0.491183967431,0.0,0.0,0.0
2521000000,251,2521000000,,0.0109337180073,0.0151211386097,0.482005947574,0.0,0.0,0.0
2531000000,252,2531000000,,0.00185618754335,-0.00881553350632,0.483501959441,0.0,0.0,0.0
2541000000,253,2541000000,,0.0296681870236,-0.0225963827544,0.431849865827,0.0,0.0,0.0
2552000000,254,2552000000,,0.0147259660616,-0.0264359120554,0.430526942002,0.0,0.0,0.0
2561000000,255,2561000000,,-0.0331280721242,-0.035721352894,0.466029850522,0.0,0.0,0.0
2571000000,256,2571000000,,-0.00633192402454,0.0141713809978,0.448515176489,0.0,0.0,0.0
2582000000,257,2582000000,,-0.00854551219288,0.0266616351552,0.449153615177,0.0,0.0,0.0
2591000000,258,2591000000,,0.021792709112,-0.0322000078674,0.40828197294,0.0,0.0,0.0
2601000000,259,2601000000,,-0.00517998576245,0.0206091316685,0.439256206428,0.0,0.0,0.0
2611000000,260,2611000000,,-0.00979096011855,-0.0275356040191,0.411473513857,0.0,0.0,0.0
2621000000,261,2621000000,,-0.022138148375,0.00519383715218,0.374608995436,0.0,0.0,0.0
2631000000,262,2631000000,,-0.0349021336168,-0.015249851883,0.403364831684,0.0,0.0,0.0
2641000000,263,2641000000,,-0.00187620029357,-0.00206160028281,0.4192832761,0.0,0.0,0.0
2651000000,264,2651000000,,0.00603436129521,0.00600308584933,0.438528602466,0.0,0.0,0.0
2661000000,265,2661000000,,-0.00582179950308,0.00823271517662,0.423759098856,0.0,0.0,0.0
2671000000,266,2671000000,,-0.0186920912508,0.0110290643212,0.372268282414,0.0,0.0,0.0
2681000000,267,2681000000,,-0.0208113187218,-0.0140708293587,0.376116748338,0.0,0.0,0.0
2691000000,268,2691000000,,-0.012411453088,0.00671923761496,0.383708087074,0.0,0.0,0.0
2701000000,269,2701000000,,0.0255058225165,0.000180077530324,0.397060685704,0.0,0.0,0.0
2711000000,270,2711000000,,0.00505699486297,0.0322934740274,0.419358525756,0.0,0.0,0.0
2721000000,271,2721000000,,0.0205846323379,-0.0160609109448,0.372276494187,0.0,0.0,0.0
2731000000,272,2731000000,,0.00229393552617,0.0135097909201,0.367308193223,0.0,0.0,0.0
2741000000,273,2741000000,,-0.00420457677138,0.0114337183761,0.398936512879,0.0,0.0,0.0
2751000000,274,2751000000,,0.0433471285171,0.0122848966631,0.356953024566,0.0,0.0,0.0
2761000000,275,2761000000,,-0.0102446204982,0.0190488442776,0.317305688752,0.0,0.0,0.0
2772000000,276,2772000000,,-0.00796456015355,0.0240717247224,0.367856604053,0.0,0.0,0.0
2781000000,277,2781000000,,0.00799578219041,-0.0212853051006,0.316057081852,0.0,0.0,0.0
2792000000,278,2792000000,,-0.0123178122601,0.00897701273428,0.362151596659,0.0,0.0,0.0
2801000000,279,2801000000,,-0.00725238759125,-0.0110165648655,0.348739678022,0.0,0.0,0.0
2811000000,280,2811000000,,0.0326225167999,0.0380274390662,0.34157140921,0.0,0.0,0.0
2821000000,281,2821000000,,0.00119388266385,-0.00942842252639,0.356222072456,0.0,0.0,0.0
2831000000,282,2831000000,,0.0428795283198,0.00173976224152,0.318861434617,0.0,0.0,0.0
2842000000,283,2842000000,,0.00523667341917,0.00447464136599,0.351938236542,0.0,0.0,0.0
2851000000,284,2851000000,,0.0475535917692,-0.00273166266897,0.332400772685,0.0,0.0,0.0
2861000000,285,2861000000,,0.0221917435346,0.00575456897015,0.349582870366,0.0,0.0,0.0
2871000000,286,2871000000,,-0.0149770714508,-0.0438285443115,0.31185843218,0.0,0.0,0.0
2881000000,287,2881000000,,-0.00250893714138,-0.0280103190346,0.323798036553,0.0,0.0,0.0
2891000000,288,2891000000,,-0.0341007426683,-0.00299172345278,0.301006183958,0.0,0.0,0.0
2901000000,289,2901000000,,0.0128371970914,0.0169852654462,0.304248659118,0.0,0.0,0.0
2911000000,290,2911000000,,0.018416643473,-0.0151242273957,0.248499399008,0.0,0.0,0.0
2921000000,291,2921000000,,0.0481490009852,-0.000214618405143,0.309520417736,0.0,0.0,0.0
2931000000,292,2931000000,,0.0208782103953,0.00362363876119,0.3060396679,0.0,0.0,0.0
2941000000,293,2941000000,,-0.0213145193105,-0.014258243301,0.274317834608,0.0,0.0,0.0
2951000000,294,2951000000,,0.023695443473,0.00406784725357,0.318108193594,0.0,0.0,0.0
2961000000,295,2961000000,,0.0248269214493,0.02997705497,0.304987902195,0.0,0.0,0.0
2971000000,296,2971000000,,0.0113972591069,0.00098690959866,0.298245087075,0.0,0.0,0.0
2981000000,297,2981000000,,-0.00340163380061,0.00295291326563,0.262004806865,0.0,0.0,0.0
2991000000,298,2991000000,,0.0115673488547,-0.0209155993656,0.261854009429,0.0,0.0,0.0
3001000000,299,3001000000,,-0.014026683298,-0.0241033018575,0.275532537347,0.0,0.0,0.0
3011000000,300,3011000000,,0.0151483349462,-0.0118396181406,0.237090592621,0.0,0.0,0.0
3021000000,301,3021000000,,0.0074854873608,0.0272767525604,0.27338491976,0.0,0.0,0.0
3031000000,302,3031000000,,-0.0468854941056,-0.00898100088066,0.218000266526,0.0,0.0,0.0
3042000000,303,3042000000,,0.0411394980327,-0.0117225275882,0.22122895916,0.0,0.0,0.0
3053000000,304,3053000000,,0.0244871123987,-0.0142952602843,0.229631974717,0.0,0.0,0.0
3062000000,305,3062000000,,0.0386926970106,-0.00943715627453,0.225632779226,0.0,0.0,0.0
3072000000,306,3072000000,,-0.0135686379882,0.0215239576862,0.248072148642,0.0,0.0,0.0
3081000000,307,3081000000,,0.0029171212449,0.000978630456991,0.236034297745,0.0,0.0,0.0
3091000000,308,3091000000,,-0.00491240623766,-0.0300349332807,0.212099405974,0.0,0.0,0.0
3101000000,309,3101000000,,-0.0141230722523,0.0174320451751,0.229860623487,0.0,0.0,0.0
3111000000,310,3111000000,,0.0178813798011,0.0157293426884,0.203068444753,0.0,0.0,0.0
3121000000,311,3121000000,,-0.015313358973,0.011782147861,0.223161365529,0.0,0.0,0.0
3131000000,312,3131000000,,0.00131755536575,0.00209760854327,0.216622767263,0.0,0.0,0.0
3141000000,313,3141000000,,-0.00581523838713,-0.00940533331626,0.230120469321,0.0,0.0,0.0
3151000000,314,3151000000,,-0.000435650702471,0.0179691541401,0.175625294469,0.0,0.0,0.0
3161000000,315,3161000000,,0.0299932086361,-0.00333867940478,0.234128305174,0.0,0.0,0.0
3171000000,316,3171000000,,0.00203592802021,-0.0197230998099,0.196752074647,0.0,0.0,0.0
3181000000,317,3181000000,,-0.0114219979048,-0.0166300113485,0.166777696577,0.0,0.0,0.0
3192000000,318,3192000000,,0.00854913723035,-0.0158314821393,0.21126114036,0.0,0.0,0.0
3201000000,319,3201000000,,0.0121182103212,0.00835935735554,0.185806047194,0.0,0.0,0.0
3211000000,320,3211000000,,0.00163508626692,0.0123900763317,0.205195307572,0.0,0.0,0.0
3222000000,321,3222000000,,-0.00533749321099,-0.0251955252793,0.186570901477,0.0,0.0,0.0
3231000000,322,3231000000,,0.0199435853368,0.00169877471708,0.183906668608,0.0,0.0,0.0
3241000000,323,3241000000,,0.00743166625133,0.00202521519033,0.244757346103,0.0,0.0,0.0
3251000000,324,3251000000,,0.0114004346116,-0.0364999980519,0.196202868904,0.0,0.0,0.0
3261000000,325,3261000000,,0.00632829542702,0.0119392496092,0.187193364752,0.0,0.0,0.0
3271000000,326,3271000000,,-0.00647787380181,0.0166948966816,0.175648295381,0.0,0.0,0.0
3281000000,327,3281000000,,0.00635797339835,-0.0237767804833,0.215903753007,0.0,0.0,0.0
3291000000,328,3291000000,,0.0044552915879,-0.00258374524646,0.183261925175,0.0,0.0,0.0
3301000000,329,3301000000,,0.00829202747519,0.0364878566438,0.176708709139,0.0,0.0,0.0
3311000000,330,3311000000,,0.0107347888984,0.0502101947729,0.198290632086,0.0,0.0,0.0
3321000000,331,3321000000,,-0.00465053341674,-0.00510293641309,0.176139898293,0.0,0.0,0.0
3331000000,332,3331000000,,0.0128788828317,0.0105535208878,0.162982600856,0.0,0.0,0.0
3341000000,333,3341000000,,-0.0109792274855,-0.0260020770269,0.168867736699,0.0,0.0,0.0
3351000000,334,3351000000,,0.0096450398783,0.0374577871864,0.151947708473,0.0,0.0,0.0
3361000000,335,3361000000,,0.00573411223637,0.0112718014247,0.136721426117,0.0,0.0,0.0
3371000000,336,3371000000,,0.00591509248854,0.0390512073414,0.142366516981,0.0,0.0,0.0
3381000000,337,3381000000,,-0.00499902715988,-0.0439747990247,0.16167042215,0.0,0.0,0.0
3391000000,338,3391000000,,-0.00915128424551,0.0249722060679,0.157754268464,0.0,0.0,0.0
3402000000,339,3402000000,,-0.0405819878053,-0.00753816771698,0.172685495061,0.0,0.0,0.0
3411000000,340,3411000000,,0.0380412470291,-0.015895677172,0.149658163935,0.0,0.0,0.0
3421000000,341,3421000000,,-0.0172302819012,-0.0264264165987,0.16574307598,0.0,0.0,0.0
3431000000,342,3431000000,,0.0183909131964,-0.0243436142969,0.166940082626,0.0,0.0,0.0
3441000000,343,3441000000,,0.004821053886,-0.031177693434,0.14245024255,0.0,0.0,0.0
3451000000,344,3451000000,,0.00616016145197,0.00508456016539,0.139723293226,0.0,0.0,0.0
3461000000,345,3461000000,,0.00510013869494,-0.0038435565336,0.10072802868,0.0,0.0,0.0
3471000000,346,3471000000,,-0.00633191881183,0.0106632095011,0.181056893332,0.0,0.0,0.0
3480000000,347,3480000000,,-0.013846492358,-0.0371811653784,0.110225040989,0.0,0.0,0.0
3491000000,348,3491000000,,0.0106959955499,-0.00403703873327,0.124511930629,0.0,0.0,0.0
3502000000,349,3502000000,,0.0277904544022,0.00804450930242,0.0991209496878,0.0,0.0,0.0
3511000000,350,3511000000,,-0.0169148756038,-0.0120140793125,0.134093268556,0.0,0.0,0.0
3521000000,351,3521000000,,0.0139843592859,0.0261190161348,0.120043567378,0.0,0.0,0.0
3531000000,352,3531000000,,-0.0194784288495,0.00947178170166,0.180567123339,0.0,0.0,0.0
3541000000,353,3541000000,,-0.0110842856139,-0.00311886408366,0.0831530757593,0.0,0.0,0.0
3551000000,354,3551000000,,-0.0192626083802,0.0243709273212,0.163603500566,0.0,0.0,0.0
3567000000,355,3567000000,,-0.0281688200429,-0.00657258334716,0.14571486263,0.0,0.0,0.0
3571000000,356,3571000000,,0.00535597989079,-0.027910935469,0.117503335681,0.0,0.0,0.0
3582000000,357,3582000000,,0.0283907850938,-0.00480414392957,0.131855923635,0.0,0.0,0.0
3591000000,358,3591000000,,-0.002310110478,0.0214652247454,0.099896527698,0.0,0.0,0.0
3602000000,359,3602000000,,0.0336523998629,-0.0110850618619,0.129936536271,0.0,0.0,0.0
3611000000,360,3611000000,,-0.0349185056607,0.0258234220188,0.120601303899,0.0,0.0,0.0
3621000000,361,3621000000,,0.0127306336325,-0.0199499029886,0.0914411155814,0.0,0.0,0.0
3631000000,362,3631000000,,-0.00714205557079,-0.00462403761521,0.129893200572,0.0,0.0,0.0
3641000000,363,3641000000,,-0.0040669696152,-0.00456752552964,0.087736230397,0.0,0.0,0.0
3651000000,364,3651000000,,-0.0299746671391,-0.0371700247932,0.129940316502,0.0,0.0,0.0
3661000000,365,3661000000,,0.0259436012738,0.0192224752151,0.114918342458,0.0,0.0,0.0
3671000000,366,3671000000,,-0.0137262246058,-0.0100530202501,0.114064287438,0.0,0.0,0.0
3681000000,367,3681000000,,-0.039306635876,-0.00513885129494,0.101991580019,0.0,0.0,0.0
3690000000,368,3690000000,,0.00421538102213,-0.0241567195478,0.0750918825155,0.0,0.0,0.0
3701000000,369,3701000000,,-0.00419514562743,0.0386700697637,0.133768596704,0.0,0.0,0.0
3711000000,370,3711000000,,-0.00323047974205,0.0182697590417,0.0929368842944,0.0,0.0,0.0
3721000000,371,3721000000,,0.011630645031,0.0148378417677,0.0667697046545,0.0,0.0,0.0
3731000000,372,3731000000,,0.0552784775404,0.00646069481288,0.0799358936229,0.0,0.0,0.0
3741000000,373,3741000000,,0.0246558432285,0.00168995352788,0.0886184409166,0.0,0.0,0.0
3751000000,374,3751000000,,0.00852122515778,-0.0143200247794,0.0957207687678,0.0,0.0,0.0
3761000000,375,3761000000,,0.0261508366243,-0.0290230651282,0.107871034616,0.0,0.0,0.0
3771000000,376,3771000000,,0.0147671486406,-0.00146112644072,0.094593927001,0.0,0.0,0.0
3781000000,377,3781000000,,-0.0131204151008,0.0305290973919,0.0996840440702,0.0,0.0,0.0
3800000000,378,3800000000,,-0.0152529783139,-0.0307248164297,0.082301441258,0.0,0.0,0.0
3803000000,379,3803000000,,-0.0437622531148,0.0252735052234,0.0963028438124,0.0,0.0,0.0
3810000000,380,3810000000,,0.0134272555894,0.0108570110067,0.103961770541,0.0,0.0,0.0
3821000000,381,3821000000,,0.0140488551427,0.0315567030993,0.0976352881378,0.0,0.0,0.0
3831000000,382,3831000000,,0.023550571949,-0.0256824036825,0.063595994,0.0,0.0,0.0
3841000000,383,3841000000,,-0.0473958642235,0.0168240322443,0.0836502305694,0.0,0.0,0.0
3851000000,384,3851000000,,-0.00873195584793,-0.0218257268093,0.0858241038264,0.0,0.0,0.0
3861000000,385,3861000000,,-0.00747946708524,-0.0193299274494,0.0728578987392,0.0,0.0,0.0
3871000000,386,3871000000,,0.00804513188141,-0.00414440581081,0.0669607778912,0.0,0.0,0.0
3881000000,387,3881000000,,-0.00406348696766,0.0134594219784,0.0739383599238,0.0,0.0,0.0
3896000000,388,3896000000,,0.0143238127971,0.0020924002467,0.119577029211,0.0,0.0,0.0
3901000000,389,3901000000,,-0.0033044115509,-0.0445135167593,0.0917812709636,0.0,0.0,0.0
3912000000,390,3912000000,,0.0082487097635,0.00951762068963,0.0715929842968,0.0,0.0,0.0
3920000000,391,3920000000,,0.004005477815,0.0172101519053,0.0692344187825,0.0,0.0,0.0
3932000000,392,3932000000,,-0.0407246566693,-0.0296844271133,0.0744455130205,0.0,0.0,0.0
3942000000,393,3942000000,,-0.000339228346932,0.0239299710955,0.0500061216942,0.0,0.0,0.0
3951000000,394,3951000000,,0.0190555207442,-0.0100669961596,0.0568820531485,0.0,0.0,0.0
3961000000,395,3961000000,,0.0163198659863,0.00205859356688,0.0969842141524,0.0,0.0,0.0
3971000000,396,3971000000,,0.00698828754939,0.00330930968164,0.0692401354188,0.0,0.0,0.0
3981000000,397,3981000000,,-0.0010567957488,-0.0122717770203,0.0491928794455,0.0,0.0,0.0
3991000000,398,3991000000,,0.0449070180465,-0.00971279828947,0.0813082114764,0.0,0.0,0.0
4001000000,399,4001000000,,-0.00694409294554,-0.0273856366436,0.0595518171591,0.0,0.0,0.0
4011000000,400,4011000000,,-0.00517559308575,0.0101315841074,0.0447531972255,0.0,0.0,0.0
4021000000,401,4021000000,,0.00567972159537,-0.0107174214652,0.0606493271439,0.0,0.0,0.0
4031000000,402,4031000000,,-0.017029609116,-0.0289817391105,0.0662878843742,0.0,0.0,0.0
4041000000,403,4041000000,,-0.00617634165571,-0.00586288385526,0.0365939638039,0.0,0.0,0.0
4051000000,404,4051000000,,0.0136565700243,0.0141415029216,0.0608373829147,0.0,0.0,0.0
4061000000,405,4061000000,,-0.0346701683104,0.00245113547563,0.0386560081926,0.0,0.0,0.0
4072000000,406,4072000000,,0.00457253495658,0.0147536057992,0.056337137411,0.0,0.0,0.0
4082000000,407,4082000000,,-0.00640651630688,-0.00236672289193,0.0734079014553,0.0,0.0,0.0
4094000000,408,4094000000,,-0.0330146142445,0.00745264102127,0.0694420907023,0.0,0.0,0.0
4101000000,409,4101000000,,-0.0293636291963,0.0309475658808,0.0476075103115,0.0,0.0,0.0
4111000000,410,4111000000,,0.0248105533029,0.0128683333838,0.00616704420335,0.0,0.0,0.0
4121000000,411,4121000000,,0.0246562761399,-0.0229479236336,0.00438232825363,0.0,0.0,0.0
4131000000,412,4131000000,,-0.00690767430209,-0.0180498488434,0.0110334089019,0.0,0.0,0.0
4141000000,413,4141000000,,0.0186106876717,0.00288614074274,0.0272655814207,0.0,0.0,0.0
4151000000,414,4151000000,,0.0178635205937,0.0183902147904,0.0287507529482,0.0,0.0,0.0
4161000000,415,4161000000,,0.0196021633987,-0.0394858625229,0.0605309935044,0.0,0.0,0.0
4173000000,416,4173000000,,0.00906424272077,0.0222456293664,0.00972342080356,0.0,0.0,0.0
4181000000,417,4181000000,,0.0259699911104,-0.0428957732361,0.00615859207143,0.0,0.0,0.0
4191000000,418,4191000000,,-0.00813199286108,-0.0135153166771,0.028003393207,0.0,0.0,0.0
4201000000,419,4201000000,,0.0137219374651,-0.00725464117318,0.016015673611,0.0,0.0,0.0
4211000000,420,4211000000,,0.0043640472043,0.00506054844711,-7.80213556332e-05,0.0,0.0,0.0
4221000000,421,4221000000,,0.0194176866679,-0.0170856772198,0.000457039966225,0.0,0.0,0.0
4231000000,422,4231000000,,-0.0240997910327,-0.0123427883784,0.00660512343076,0.0,0.0,0.0
4240000000,423,4240000000,,-0.00376296527562,-0.0169542586915,-0.0330225443214,0.0,0.0,0.0
4251000000,424,4251000000,,0.0210688318409,-0.00740917897311,0.00997897883624,0.0,0.0,0.0
4261000000,425,4261000000,,-0.00659720036063,-0.0302560206723,0.0216385364531,0.0,0.0,0.0
4271000000,426,4271000000,,-0.000372573227432,-0.00692111458491,0.026078855651,0.0,0.0,0.0
4281000000,427,4281000000,,-0.0173876484949,0.0105327043904,0.0115016869457,0.0,0.0,0.0
4291000000,428,4291000000,,-0.000809777706956,-0.0440770672816,0.0250977183204,0.0,0.0,0.0
4301000000,429,4301000000,,0.00954934110155,-0.000599516661396,-0.00918351837669,0.0,0.0,0.0
4311000000,430,4311000000,,-0.0277845467228,-0.0182846142682,0.0263700102829,0.0,0.0,0.0
4321000000,431,4321000000,,0.00753850559817,-0.0183407285009,-0.0195497221562,0.0,0.0,0.0
4331000000,432,4331000000,,-0.0233537872535,-0.0547882333614,0.00853231881097,0.0,0.0,0.0
4341000000,433,4341000000,,-0.00702983916955,0.0108776421873,0.00707837231196,0.0,0.0,0.0
4351000000,434,4351000000,,-0.022977850854,0.0115528154352,0.018996705075,0.0,0.0,0.0
4361000000,435,4361000000,,0.00123783748012,0.0227570562977,-0.0209552089216,0.0,0.0,0.0
4371000000,436,4371000000,,-0.0060056128978,-0.0177852740761,-0.0219769982384,0.0,0.0,0.0
4381000000,437,4381000000,,-0.0196299739904,-0.00509385321554,-0.017083077435,0.0,0.0,0.0
4391000000,438,4391000000,,0.028703464324,0.00940954574967,0.000295112421073,0.0,0.0,0.0
4401000000,439,4401000000,,0.0310463560838,0.00305275770085,-0.0190858357799,0.0,0.0,0.0
4411000000,440,4411000000,,0.00440626505369,0.0144116702842,0.00577838601281,0.0,0.0,0.0
4421000000,441,4421000000,,-0.00566244954887,-0.00262162436533,0.00272045922359,0.0,0.0,0.0
4431000000,442,4431000000,,0.0137382793765,-0.0260857896398,-0.0235199550143,0.0,0.0,0.0
4441000000,443,4441000000,,-0.00149242762004,0.031987912485,0.0188720767135,0.0,0.0,0.0
4451000000,444,4451000000,,0.0166032405367,-0.0189861051351,0.0365251543865,0.0,0.0,0.0
4461000000,445,4461000000,,-0.00891365833434,-0.0197761184869,-0.00441627374336,0.0,0.0,0.0
4471000000,446,4471000000,,-0.0131499671116,-0.022330173969,-0.00766949434047,0.0,0.0,0.0
4481000000,447,4481000000,,0.0014122643026,-0.0242697508698,-0.0410057129379,0.0,0.0,0.0
4491000000,448,4491000000,,0.0154474014645,-0.00615265044631,0.0111986320697,0.0,0.0,0.0
4501000000,449,4501000000,,0.0311561783426,-0.0163629194458,0.0137188290894,0.0,0.0,0.0
4511000000,450,4511000000,,-0.0119314727082,0.0313562774781,0.0440551096874,0.0,0.0,0.0
4521000000,451,4521000000,,0.00781724833053,-0.00269591216766,0.00647876424314,0.0,0.0,0.0
4531000000,452,4531000000,,-0.0120877716776,-0.0154841836822,0.062582629565,0.0,0.0,0.0
4541000000,453,4541000000,,-0.00565908922727,0.00899716434006,0.0218254032688,0.0,0.0,0.0
4551000000,454,4551000000,,-0.0205685117587,-0.0162308409236,-0.000209822157513,0.0,0.0,0.0
4561000000,455,4561000000,,0.0108253987442,0.0290505927045,0.0163781547926,0.0,0.0,0.0
4571000000,456,4571000000,,0.0157551745425,0.0124182241952,-0.000560514579751,0.0,0.0,0.0
4581000000,457,4581000000,,-0.0301705943239,0.0296393140855,0.00290755815109,0.0,0.0,0.0
4591000000,458,4591000000,,-0.00358852131777,-0.0122443742081,0.0492358552956,0.0,0.0,0.0
4601000000,459,4601000000,,0.0338993724005,0.0185333579833,0.0123953448482,0.0,0.0,0.0
4611000000,460,4611000000,,0.0312652484578,0.00669597423341,0.0381118589625,0.0,0.0,0.0
4621000000,461,4621000000,,0.0275703228363,-0.00191081917516,0.0385880963211,0.0,0.0,0.0
4631000000,462,4631000000,,0.0145841213282,-0.0405117009588,0.0574440701447,0.0,0.0,0.0
4641000000,463,4641000000,,-0.0183718720369,0.00523629850801,0.0113256533402,0.0,0.0,0.0
4651000000,464,4651000000,,-0.0158715732224,-0.0187561246591,0.0241616312348,0.0,0.0,0.0
4661000000,465,4661000000,,0.0226159537803,0.0468273327204,0.0118886055641,0.0,0.0,0.0
4671000000,466,4671000000,,0.00229332741233,-0.00338803651188,0.047022207426,0.0,0.0,0.0
4681000000,467,4681000000,,0.0112109475414,-0.0247475319528,0.0346848954127,0.0,0.0,0.0
4691000000,468,4691000000,,-0.0334288331229,0.0165980161373,0.0105756481649,0.0,0.0,0.0
4701000000,469,4701000000,,0.0229354925206,-0.00155474074801,0.065300892757,0.0,0.0,0.0
4711000000,470,4711000000,,-0.0272417048269,0.0189378554231,-0.00755340347324,0.0,0.0,0.0
4721000000,471,4721000000,,-0.00127723215009,-0.00354747816897,0.0399319260442,0.0,0.0,0.0
4731000000,472,4731000000,,-0.00311466450107,-0.00129380557071,0.0190354546158,0.0,0.0,0.0
4742000000,473,4742000000,,-0.0202334776006,-0.00153859571727,0.0564177651032,0.0,0.0,0.0
4752000000,474,4752000000,,0.00712216286265,0.0177190971079,-0.000742819977568,0.0,0.0,0.0
4762000000,475,4762000000,,0.0106547963378,0.0619397116619,-0.0363764058314,0.0,0.0,0.0
4771000000,476,4771000000,,-0.0118579535156,0.00294207416446,0.0187911894842,0.0,0.0,0.0
4781000000,477,4781000000,,0.012269921841,0.0300202117483,0.0225923010252,0.0,0.0,0.0
4791000000,478,4791000000,,-0.0202620131698,0.0171259558222,0.0285263181788,0.0,0.0,0.0
4801000000,479,4801000000,,-0.00376363551045,0.0101144639946,0.00770948622363,0.0,0.0,0.0
4811000000,480,4811000000,,0.0363036245045,-0.00111487393749,0.0356472084962,0.0,0.0,0.0
4821000000,481,4821000000,,-0.0101564103803,-0.0132984333675,0.0424563450458,0.0,0.0,0.0
4831000000,482,4831000000,,0.0184807383031,-0.0203371778875,0.0142140227317,0.0,0.0,0.0
4841000000,483,4841000000,,-0.0314861358877,0.0100363453747,0.0300547277053,0.0,0.0,0.0
4851000000,484,4851000000,,0.0103270535223,0.00371296316476,-0.00945270486867,0.0,0.0,0.0
4861000000,485,4861000000,,0.00159254632179,-0.0100316506335,0.04356678857,0.0,0.0,0.0
4871000000,486,4871000000,,0.000279831291318,-0.00366951455036,0.0212994726268,0.0,0.0,0.0
4881000000,487,4881000000,,0.00371124547299,-0.0036495063467,0.0206724946874,0.0,0.0,0.0
4891000000,488,4891000000,,-0.0448809613456,0.0331568918044,0.00524104477691,0.0,0.0,0.0
4901000000,489,4901000000,,0.0455901758552,0.0103202573941,0.0364508677333,0.0,0.0,0.0
4911000000,490,4911000000,,-0.0274779255942,0.0145707522584,0.0117767951798,0.0,0.0,0.0
4921000000,491,4921000000,,-0.0177611574631,-0.0311573242644,0.0558053097779,0.0,0.0,0.0
4931000000,492,4931000000,,0.000955626655662,-0.0194674906795,0.0320324977334,0.0,0.0,0.0
4941000000,493,4941000000,,-0.00835287515024,0.00176575412059,-0.00310273455021,0.0,0.0,0.0
4951000000,494,4951000000,,-0.0103023739697,-0.0219537836544,0.01551527264,0.0,0.0,0.0
4961000000,495,4961000000,,-0.00798326338009,-0.0159813087728,0.0086228529975,0.0,0.0,0.0
4971000000,496,4971000000,,-0.0337833823587,0.0187844324353,0.0308063240186,0.0,0.0,0.0
4981000000,497,4981000000,,0.0191173272318,0.0064980378454,-0.0116918970658,0.0,0.0,0.0
4991000000,498,4991000000,,0.0263364976599,0.0153661601831,0.0441926571443,0.0,0.0,0.0
5001000000,499,5001000000,,0.00117979785471,0.000534163198157,0.0311769528889,0.0,0.0,0.0
5011000000,500,5011000000,,-0.0259146780455,-0.0120275498108,0.0142989905622,0.0,0.0,0.0
5021000000,501,5021000000,,-0.00906573605766,-0.0202069499443,0.0125610150706,0.0,0.0,0.0
5031000000,502,5031000000,,-0.011453534327,0.0268588356577,0.0589394124127,0.0,0.0,0.0
5041000000,503,5041000000,,0.00091230008117,-0.00661211631172,0.0177448051573,0.0,0.0,0.0
5051000000,504,5051000000,,-0.0355320208429,0.0183702850317,0.0048159826414,0.0,0.0,0.0
5061000000,505,5061000000,,0.0367504095002,0.0278478704206,0.0480429175544,0.0,0.0,0.0
5071000000,506,5071000000,,1.08506700171e-05,0.0149269171799,-0.00284778263197,0.0,0.0,0.0
5081000000,507,5081000000,,-0.00923417507482,0.00476778368446,0.0130126088191,0.0,0.0,0.0
5091000000,508,5091000000,,0.0216698593732,-0.00645544597758,0.0400729964298,0.0,0.0,0.0
5101000000,509,5101000000,,0.0027428331498,0.039066126528,0.0341975023237,0.0,0.0,0.0
5111000000,510,5111000000,,-0.0279529129661,-0.0188622390483,0.00208934199224,0.0,0.0,0.0
5121000000,511,5121000000,,-0.000337034590568,-0.00735456909556,0.0259107143869,0.0,0.0,0.0
5135000000,512,5135000000,,0.00672975354422,0.0109253896909,-0.014970775107,0.0,0.0,0.0
5141000000,513,5141000000,,-0.00495738327288,0.00553646985551,0.0481623997056,0.0,0.0,0.0
5151000000,514,5151000000,,0.00808524377431,0.00728907264889,-0.0360531316914,0.0,0.0,0.0
5167000000,515,5167000000,,-0.00666166624838,0.00899916603241,0.0258692531798,0.0,0.0,0.0
5171000000,516,5171000000,,0.0187201080114,-0.0220031907337,0.0443930716909,0.0,0.0,0.0
5182000000,517,5182000000,,-0.0109553185239,-0.026342274476,0.0311860045917,0.0,0.0,0.0
5192000000,518,5192000000,,0.0071807147118,-0.0108278418683,0.0133412843823,0.0,0.0,0.0
5201000000,519,5201000000,,-0.0120839671671,0.0305930484242,0.0371791888851,0.0,0.0,0.0
5211000000,520,5211000000,,0.0142303924816,-0.0120814590932,0.0107566883282,0.0,0.0,0.0
5221000000,521,5221000000,,-0.00879260115448,0.0170572475873,-0.0016385668878,0.0,0.0,0.0
5232000000,522,5232000000,,-0.0128467792063,-0.015661509637,0.0298039635367,0.0,0.0,0.0
5241000000,523,5241000000,,0.0104429224236,0.0379588113112,0.00992306788511,0.0,0.0,0.0
5253000000,524,5253000000,,0.0162600357139,0.00914474728405,-6.72909735656e-05,0.0,0.0,0.0
5261000000,525,5261000000,,-0.00766694020432,0.00994754390254,-0.0255763773483,0.0,0.0,0.0
5271000000,526,5271000000,,-0.00833868847658,-0.00629309184865,-0.00350578812456,0.0,0.0,0.0
5281000000,527,5281000000,,0.0301165719919,-0.0154486786815,-0.0320716946947,0.0,0.0,0.0
5291000000,528,5291000000,,-0.00625726690426,-0.00517560812204,-0.0188849260371,0.0,0.0,0.0
5301000000,529,5301000000,,0.0437789914171,-0.0454266025161,0.0221466628331,0.0,0.0,0.0
5311000000,530,5311000000,,0.0190264654242,-0.00589026920462,-0.0163183872833,0.0,0.0,0.0
5321000000,531,5321000000,,0.0219384143066,-0.00295209728405,-0.0280532765646,0.0,0.0,0.0
5331000000,532,5331000000,,-0.000304831333251,0.00894350291065,-0.0436273028733,0.0,0.0,0.0
5341000000,533,5341000000,,0.00404998446019,-0.000841352210432,-0.00617839473606,0.0,0.0,0.0
5351000000,534,5351000000,,-0.00963466250361,-0.00379987751038,-0.00435247930003,0.0,0.0,0.0
5361000000,535,5361000000,,-0.0306966792047,-0.00563454278321,0.0119302032353,0.0,0.0,0.0
5371000000,536,5371000000,,0.00120662873002,0.0176068861165,6.39819414086e-05,0.0,0.0,0.0
5381000000,537,5381000000,,0.0268663623016,-0.0036668880834,-0.0414618926537,0.0,0.0,0.0
5391000000,538,5391000000,,-0.0116803118333,0.0087014640264,0.00459672508207,0.0,0.0,0.0
5401000000,539,5401000000,,0.00201737127122,0.00137766747576,-0.00248449516044,0.0,0.0,0.0
5411000000,540,5411000000,,0.00750736872035,0.0159777410855,0.038847618958,0.0,0.0,0.0
5421000000,541,5421000000,,-0.0190333051971,-0.0241963075546,-0.0062678734942,0.0,0.0,0.0
5431000000,542,5431000000,,-0.0191988672159,-0.0115537385189,-0.0189605822293,0.0,0.0,0.0
5441000000,543,5441000000,,-0.0253014610195,-0.00699641790539,0.00532526552097,0.0,0.0,0.0
5451000000,544,5451000000,,0.0165568443929,-0.00629631517958,-0.00142065064792,0.0,0.0,0.0
5461000000,545,5461000000,,0.0129387810679,0.0224632859762,0.00243400011833,0.0,0.0,0.0
5471000000,546,5471000000,,0.0174956641334,0.00331995029433,0.00961037438477,0.0,0.0,0.0
5482000000,547,5482000000,,0.0287966365204,-0.0233551403374,-0.01870885743,0.0,0.0,0.0
5492000000,548,5492000000,,0.0178190142803,-0.00513773334973,0.000696218068837,0.0,0.0,0.0
5502000000,549,5502000000,,0.0186989218591,-0.025717032503,0.0163857531055,0.0,0.0,0.0
5511000000,550,5511000000,,0.0020480764664,-0.00789950607987,0.00191323642826,0.0,0.0,0.0
5521000000,551,5521000000,,-0.0468214177699,-0.0206557570084,-0.0078500478021,0.0,0.0,0.0
5531000000,552,5531000000,,-0.0191085170909,0.00339441720352,0.0241275798653,0.0,0.0,0.0
5541000000,553,5541000000,,0.00885825533548,-0.00714061329308,0.0217044183185,0.0,0.0,0.0
5551000000,554,5551000000,,-0.0150197357675,0.0279442779475,-0.0209085162692,0.0,0.0,0.0
5562000000,555,5562000000,,0.0324243669881,-0.0503436066599,-8.15146312435e-06,0.0,0.0,0.0
5571000000,556,5571000000,,0.0112906424139,-0.00932481786056,0.033417873138,0.0,0.0,0.0
5581000000,557,5581000000,,0.00980784024783,0.0278670542882,0.0299255897259,0.0,0.0,0.0
5591000000,558,5591000000,,0.0441056044122,0.0078875839097,0.0233242256615,0.0,0.0,0.0
5601000000,559,5601000000,,-0.00100189211847,-0.0246465380445,-0.00354226516765,0.0,0.0,0.0
5611000000,560,5611000000,,0.0332602643396,-0.00913393537633,0.0217334391013,0.0,0.0,0.0
5621000000,561,5621000000,,0.0260694441278,0.0222672119042,0.0121359948385,0.0,0.0,0.0
5631000000,562,5631000000,,0.0274649737773,-0.0142491040181,0.0250587701152,0.0,0.0,0.0
5641000000,563,5641000000,,-0.00301862228992,0.0364532411088,0.0311519983193,0.0,0.0,0.0
5651000000,564,5651000000,,0.0309587914959,0.0141676330016,-0.0447227340905,0.0,0.0,0.0
5662000000,565,5662000000,,-0.0178250406965,0.0136727856733,0.0310309803954,0.0,0.0,0.0
5672000000,566,5672000000,,0.00378869786442,0.0097881488526,-0.00582236143732,0.0,0.0,0.0
5682000000,567,5682000000,,0.0453486381462,-0.014123795654,0.0107167564933,0.0,0.0,0.0
5692000000,568,5692000000,,-0.000983171856836,0.00218510211517,0.00297081357315,0.0,0.0,0.0
5701000000,569,5701000000,,-0.0072173205216,-0.00694025124845,0.0552336643541,0.0,0.0,0.0
5712000000,570,5712000000,,0.0348877964334,0.00437027166285,-0.0372380066268,0.0,0.0,0.0
5721000000,571,5721000000,,-0.023339747444,-0.000800930247285,0.0292863525387,0.0,0.0,0.0
5731000000,572,5731000000,,-0.0185222122842,-0.0027948478251,0.0342274433441,0.0,0.0,0.0
5741000000,573,5741000000,,-0.00262160204831,0.0368288929603,-0.0119034197605,0.0,0.0,0.0
5751000000,574,5751000000,,0.0125092437426,-0.000878766837856,0.0158816826006,0.0,0.0,0.0
5761000000,575,5761000000,,-0.0189074093354,0.00218315495978,0.015160552247,0.0,0.0,0.0
5771000000,576,5771000000,,-0.0302804923794,0.00107601650327,-0.00677192274676,0.0,0.0,0.0
5781000000,577,5781000000,,0.0344878338053,0.0269920535014,-0.0181255813605,0.0,0.0,0.0
5791000000,578,5791000000,,0.0350386910672,-0.00132595318089,0.0451393725536,0.0,0.0,0.0
5801000000,579,5801000000,,0.00337928623715,0.00088963928475,-0.00506386220291,0.0,0.0,0.0
5811000000,580,5811000000,,-0.0137347073933,-0.0173972013352,0.00577132046011,0.0,0.0,0.0
5826000000,581,5826000000,,0.00852324843893,0.00480269496136,0.0310704819146,0.0,0.0,0.0
5839000000,582,5839000000,,-0.00892129095786,0.0323895170912,0.0202323445831,0.0,0.0,0.0
5842000000,583,5842000000,,0.0379472790792,-0.0120288833784,-0.0102804701902,0.0,0.0,0.0
5851000000,584,5851000000,,-0.00193979493927,-0.034906904133,0.016222983149,0.0,0.0,0.0
5861000000,585,5861000000,,0.0307634692206,-0.0308053585755,0.0184244182525,0.0,0.0,0.0
5871000000,586,5871000000,,0.0312508089648,0.00334794418175,0.0333147695477,0.0,0.0,0.0
5881000000,587,5881000000,,0.0179039345639,-0.00498150003656,-0.0207117418164,0.0,0.0,0.0
5891000000,588,5891000000,,-0.00144973793388,0.00607861976461,0.040665678537,0.0,0.0,0.0
5901000000,589,5901000000,,-0.00220523075144,0.01780856931,-0.0177162354025,0.0,0.0,0.0
5911000000,590,5911000000,,-0.0206948166772,-0.00645010828583,0.0105855757046,0.0,0.0,0.0
5921000000,591,5921000000,,0.00840522795257,-0.00548935329452,-0.0211452728183,0.0,0.0,0.0
5931000000,592,5931000000,,-0.0215404368596,-0.0071909787828,0.0168216668669,0.0,0.0,0.0
5941000000,593,5941000000,,0.0144028793315,-0.000747010158789,0.0200137811899,0.0,0.0,0.0
5951000000,594,5951000000,,0.0271870541314,0.00837038084553,-0.0315281474394,0.0,0.0,0.0
5962000000,595,5962000000,,0.0251315446582,-0.00308798488675,-0.0118937833541,0.0,0.0,0.0
5972000000,596,5972000000,,0.0572969276622,0.0168488551998,0.000934356501912,0.0,0.0,0.0
5981000000,597,5981000000,,-0.000906047591091,0.0167413325032,0.0105062116648,0.0,0.0,0.0
5991000000,598,5991000000,,-0.012423061542,0.0230258189668,0.00161407589513,0.0,0.0,0.0
6001000000,599,6001000000,,0.000968587652653,0.000954307762191,-0.0126404313952,0.0,0.0,0.0
6011000000,600,6011000000,,-0.0137193591625,0.00783967150962,-0.0641923206895,0.0,0.0,0.0
6021000000,601,6021000000,,0.00723473636592,0.00571538662583,-0.0190986540983,0.0,0.0,0.0
6031000000,602,6031000000,,0.0359591198572,-0.0155565615837,-0.0184600301309,0.0,0.0,0.0
6041000000,603,6041000000,,-0.00790729786622,-0.0238106591474,-0.00660776703983,0.0,0.0,0.0
6052000000,604,6052000000,,0.00752903869521,0.0251366873505,-0.00794802941382,0.0,0.0,0.0
6061000000,605,6061000000,,0.0258327142934,-0.00620800693845,0.0487713162306,0.0,0.0,0.0
6071000000,606,6071000000,,0.00715144746974,-0.0235285390014,0.0270764616969,0.0,0.0,0.0
6082000000,607,6082000000,,0.00832964704633,0.00762653589877,-0.00592456108258,0.0,0.0,0.0
6091000000,608,6091000000,,-0.00879969326614,-0.0217338382542,0.00499531581295,0.0,0.0,0.0
6101000000,609,6101000000,,-0.031693470055,0.00765788717359,-0.0230179311436,0.0,0.0,0.0
6113000000,610,6113000000,,0.043261899556,-0.000215458094737,-0.0186893758327,0.0,0.0,0.0
6121000000,611,6121000000,,0.0151677969645,-0.0067359554566,-0.0119503316302,0.0,0.0,0.0
6131000000,612,6131000000,,0.00756578678364,-0.0028612383794,-0.0138980724932,0.0,0.0,0.0
6141000000,613,6141000000,,0.00794676781912,0.0294569812256,0.0175425757026,0.0,0.0,0.0
6151000000,614,6151000000,,0.00152266369536,-0.00543249729886,0.0100754728639,0.0,0.0,0.0
6161000000,615,6161000000,,-0.0042691176601,-0.0178987087935,0.0113623194854,0.0,0.0,0.0
6171000000,616,6171000000,,-0.0106510552284,0.0278363463635,-0.0320250304983,0.0,0.0,0.0
6181000000,617,6181000000,,-0.0457662744824,-6.99615544037e-05,-0.0228398023697,0.0,0.0,0.0
6191000000,618,6191000000,,0.0277978969855,-0.000722232129731,-0.0112422646724,0.0,0.0,0.0
6201000000,619,6201000000,,0.0162411912978,0.0145349349403,0.0221121928877,0.0,0.0,0.0
6211000000,620,6211000000,,-0.0081144394079,-0.00100409003806,-0.00656095302198,0.0,0.0,0.0
6221000000,621,6221000000,,0.0159166154863,-0.0221316040847,0.0196034424176,0.0,0.0,0.0
6231000000,622,6231000000,,0.0213348474795,-0.0165762220274,-0.0287591877713,0.0,0.0,0.0
6241000000,623,6241000000,,-0.0361689649231,0.000720064682954,-0.0235218077558,0.0,0.0,0.0
6252000000,624,6252000000,,-0.0200194552881,-0.010419651662,-0.0298769037458,0.0,0.0,0.0
6261000000,625,6261000000,,-0.026199347554,-0.0061713617762,0.0132164605213,0.0,0.0,0.0
6271000000,626,6271000000,,-0.00735477197895,-0.00484067529814,-0.00379553982334,0.0,0.0,0.0
6280000000,627,6280000000,,0.01370169128,-0.0152462018031,0.000753460869381,0.0,0.0,0.0
6292000000,628,6292000000,,0.00132784528478,-0.0204644888531,-0.0259378856867,0.0,0.0,0.0
6301000000,629,6301000000,,0.0067631897908,0.0126074335751,-0.0130141995935,0.0,0.0,0.0
6311000000,630,6311000000,,-0.00525068362258,0.00256683640609,-0.014614414636,0.0,0.0,0.0
6321000000,631,6321000000,,-0.0190169180299,0.0158687963116,0.00554958204968,0.0,0.0,0.0
6331000000,632,6331000000,,0.00946688365186,-0.0284741525758,-0.00347456388909,0.0,0.0,0.0
6341000000,633,6341000000,,-0.0278010053169,-0.0390460863826,0.00684072917099,0.0,0.0,0.0
6351000000,634,6351000000,,0.00839818492158,-0.0120997769864,-0.0103220277566,0.0,0.0,0.0
6361000000,635,6361000000,,-0.00318937571653,-0.00468724195666,0.0270733019554,0.0,0.0,0.0
6371000000,636,6371000000,,-0.000144307079494,0.0214552961409,0.034642397455,0.0,0.0,0.0
6382000000,637,6382000000,,-0.0318245473678,0.0019433979652,0.00754483104174,0.0,0.0,0.0
6391000000,638,6391000000,,0.00963296907988,-0.00209523045367,0.0198129293066,0.0,0.0,0.0
6402000000,639,6402000000,,0.00684753865996,0.0170674179264,0.0236172994445,0.0,0.0,0.0
6411000000,640,6411000000,,-0.0119478912005,-0.00422611910912,-0.00933655145268,0.0,0.0,0.0
6421000000,641,6421000000,,0.00617822861417,-0.00239706391682,-0.0216982768284,0.0,0.0,0.0
6431000000,642,6431000000,,0.00271192723528,0.0112522905508,0.00773275966953,0.0,0.0,0.0
6441000000,643,6441000000,,0.026913933931,-0.0195259370987,-0.000288347017357,0.0,0.0,0.0
6451000000,644,6451000000,,-0.00502597969801,0.0183162191719,0.00822934762055,0.0,0.0,0.0
6461000000,645,6461000000,,-0.0116999288434,-0.00294513299713,0.020031094594,0.0,0.0,0.0
6471000000,646,6471000000,,0.000247781487104,-0.00877058979752,0.0346715468395,0.0,0.0,0.0
6481000000,647,6481000000,,-0.00456328441287,0.000513980794013,-0.00270894871659,0.0,0.0,0.0
6492000000,648,6492000000,,-0.015072032552,0.0151310652958,0.00574631365136,0.0,0.0,0.0
6502000000,649,6502000000,,0.0245224989524,1.97586588323e-05,0.00842313226028,0.0,0.0,0.0
6511000000,650,6511000000,,0.00309247351073,0.0492351748349,0.0110528420841,0.0,0.0,0.0
6522000000,651,6522000000,,-0.00539916670708,0.00994026190362,0.0378493678873,0.0,0.0,0.0
6532000000,652,6532000000,,0.0109927860377,0.010898118318,0.0522562181889,0.0,0.0,0.0
6541000000,653,6541000000,,-0.00352505608986,0.0112956829306,0.00632641385705,0.0,0.0,0.0
6551000000,654,6551000000,,-0.0198326062754,0.0141820509419,0.0479285567121,0.0,0.0,0.0
6561000000,655,6561000000,,-0.0232175216958,-0.0207608079797,0.00278115993914,0.0,0.0,0.0
6571000000,656,6571000000,,-0.00717132628768,0.0163177707066,0.0562399342787,0.0,0.0,0.0
6581000000,657,6581000000,,0.0183636317674,0.0101557326048,0.0588869125631,0.0,0.0,0.0
6591000000,658,6591000000,,-0.0514571536786,-0.0246283540195,-0.00363014193404,0.0,0.0,0.0
6601000000,659,6601000000,,-0.019465064872,-0.00196988881532,0.0077341390532,0.0,0.0,0.0
6611000000,660,6611000000,,-0.0300863048012,0.00114640921642,0.0170538131175,0.0,0.0,0.0
6621000000,661,6621000000,,-0.000435083918057,-0.0323209152362,0.0289151074146,0.0,0.0,0.0
6631000000,662,6631000000,,-0.0066181684722,0.0162647283719,0.0097989583929,0.0,0.0,0.0
6641000000,663,6641000000,,-0.0043760447971,0.00384983911894,-0.0108274463591,0.0,0.0,0.0
6651000000,664,6651000000,,-0.0157708904198,-0.0109723765268,-0.00524317526359,0.0,0.0,0.0
6661000000,665,6661000000,,-0.0219624456242,0.00245722357192,0.0192120673195,0.0,0.0,0.0
6671000000,666,6671000000,,0.0244995849477,-0.00260255864997,0.0214386202376,0.0,0.0,0.0
6681000000,667,6681000000,,0.00117034434638,-0.0276114949462,-0.0266520835734,0.0,0.0,0.0
6691000000,668,6691000000,,-0.00251815634829,0.022172063029,0.00361222661054,0.0,0.0,0.0
6701000000,669,6701000000,,-0.0116319358733,-0.00312342698478,-0.00455863012511,0.0,0.0,0.0
6711000000,670,6711000000,,0.0174173682819,0.000102728566834,0.0204153296713,0.0,0.0,0.0
6721000000,671,6721000000,,-0.0116752445097,0.0308769037735,0.0253469708199,0.0,0.0,0.0
6731000000,672,6731000000,,-0.00492538577505,-0.00400711995537,-0.000468384521704,0.0,0.0,0.0
6741000000,673,6741000000,,0.0343111778275,-0.0108195410454,0.0391165890738,0.0,0.0,0.0
6751000000,674,6751000000,,0.0144326911748,0.0168428124513,0.0188191485958,0.0,0.0,0.0
6761000000,675,6761000000,,-0.0013237585086,0.0258649416368,0.00324442724683,0.0,0.0,0.0
6771000000,676,6771000000,,0.0326302280869,0.00108239029791,0.00976812829656,0.0,0.0,0.0
6781000000,677,6781000000,,-0.0120982768454,0.0201889290311,0.0113155534079,0.0,0.0,0.0
6791000000,678,6791000000,,0.00627381649762,0.00104649916748,-0.00493358404839,0.0,0.0,0.0
6801000000,679,6801000000,,-0.0139792008761,0.0323072720566,-0.00273058256917,0.0,0.0,0.0
6811000000,680,6811000000,,0.00660962700805,0.0283786189705,0.0100228713305,0.0,0.0,0.0
6821000000,681,6821000000,,0.0426419159614,0.0150917701751,-0.0275884692704,0.0,0.0,0.0
