%time,field.header.seq,field.header.stamp,field.header.frame_id,field.roll,field.pitch,field.jaw,field.roll_dot,field.pitch_dot,field.jaw_dot
41000000,0,41000000,,2.12357143168e-23,-5.71423134947e-23,2.12907977128e-24,0.0,0.0,0.0
126000000,1,126000000,,-1.22333721904e-22,4.2758452203e-22,-9.30290254892e-24,0.0,0.0,0.0
169000000,2,169000000,,1.00441866196e-12,-1.00302004116e-12,-8.02290159763e-14,0.0,0.0,0.0
206000000,3,206000000,,4.34983894593e-06,-5.75173999096e-06,-1.02013973446e-05,0.00465148780495,-0.00645153550431,-0.000176565663423
246000000,4,246000000,,3.77945298169e-07,6.03106514063e-07,-1.17115223475e-05,-0.00329222646542,-0.00457894103602,0.000238864377025
289000000,5,289000000,,-1.76924766038e-06,3.07403453803e-08,-9.78230946203e-06,1.29353039391e-09,-5.7507837381e-10,1.68942845824e-11
329000000,6,329000000,,1.29458283027e-06,-1.50590392423e-06,-1.03865741039e-05,0.00137278530747,-0.00186795508489,-8.24001836008e-05
366000000,7,366000000,,6.20024849241e-08,1.97790967604e-07,-8.43592897581e-06,-9.8922747771e-10,-1.41258305053e-09,5.69184317734e-11
406000000,8,406000000,,3.3213552797e-07,-1.00637209677e-09,-6.48101604384e-06,-3.29291260925e-10,-1.67210388873e-13,8.02516961305e-13
446000000,9,446000000,,-3.47945339207e-10,-2.76684176015e-07,-6.45890168016e-06,3.37458053241e-15,-3.85881673837e-11,2.16292072143e-13
486000000,10,486000000,,5.51503603674e-07,2.23970602065e-07,-6.45827867629e-06,8.62879442919e-14,2.89227572014e-13,2.62782095481e-14
526000000,11,526000000,,3.89716007021e-07,1.13755470466e-06,-6.37784751234e-06,0.0,0.0,0.0
566000000,12,566000000,,-4.41616066382e-07,2.79503001366e-06,-6.26445171292e-06,-7.16029015593e-13,1.40242407531e-12,7.93524859537e-14
606000000,13,606000000,,-1.42349040289e-06,5.38352014701e-06,-6.12776602793e-06,-1.01903489987e-12,2.47179793994e-12,1.19894965809e-13
647000000,14,647000000,,-2.50558355219e-06,8.27915755508e-06,-6.0017814576e-06,-1.67414129434e-12,5.69326270156e-12,2.2647877497e-13
689000000,15,689000000,,-4.00970066039e-06,1.36166272569e-05,-5.80311143494e-06,-2.37984610317e-12,8.08431186577e-12,2.83439179245e-13
726000000,16,726000000,,-5.26135454493e-06,1.86980560102e-05,-5.62108334634e-06,-2.43031701534e-12,8.51361862952e-12,3.05666109828e-13
767000000,17,767000000,,-6.62509364702e-06,2.41806719714e-05,-5.42689349459e-06,-1.45225129665e-12,8.19216049164e-12,3.08699409351e-13
806000000,18,806000000,,-7.84385156294e-06,2.94094206765e-05,-5.23298967892e-06,-1.94586057337e-12,8.41343401198e-12,3.1784183575e-13
846000000,19,846000000,,-8.7734324552e-06,3.44171676261e-05,-5.03342744196e-06,-1.72078063604e-12,7.77073631136e-12,3.14075236088e-13
886000000,20,886000000,,-9.68016320257e-06,3.91939465771e-05,-4.83178291688e-06,-8.73527107852e-13,6.70220606444e-12,2.97465963537e-13
926000000,21,926000000,,-1.03307957033e-05,4.35002293671e-05,-4.63281730845e-06,-1.06127465756e-12,5.90901199499e-12,2.74434690467e-13
966000000,22,966000000,,-1.08570911834e-05,4.7614765208e-05,-4.42104374088e-06,-2.62290514828e-13,4.07520848664e-12,2.32305765336e-13
1006000000,23,1006000000,,-1.1223140973e-05,5.08497832925e-05,-4.21944969276e-06,-3.17304993044e-13,2.73899848115e-12,1.89101840198e-13
1046000000,24,1046000000,,-1.13370169856e-05,5.36601837666e-05,-4.00507815357e-06,4.52126976537e-14,1.23848620161e-12,1.1023626944e-13
1086000000,25,1086000000,,-1.13618707474e-05,5.57094208489e-05,-3.79668676942e-06,2.27371900062e-14,1.06566676056e-12,1.34608592176e-13
1130000000,26,1130000000,,-1.10065511763e-05,5.68607465539e-05,-3.57093858838e-06,1.9402872592e-13,2.15413001022e-13,7.80445722154e-14
1166000000,27,1166000000,,-1.06167626654e-05,5.7114095398e-05,-3.38841527991e-06,0.0,0.0,0.0
1206000000,28,1206000000,,-9.77756826614e-06,5.63134999538e-05,-3.16855880556e-06,5.82449615882e-13,-7.626893366e-13,1.099893695e-13
1248000000,29,1248000000,,-8.6601885414e-06,5.42774214409e-05,-2.95177915177e-06,1.08370929418e-12,-2.36286489506e-12,1.87583265978e-13
1286000000,30,1286000000,,-7.27351698515e-06,5.12671576871e-05,-2.76609921457e-06,2.41647587357e-12,-5.4493839996e-12,2.74678581746e-13
1326000000,31,1326000000,,-5.43633086636e-06,4.66104465886e-05,-2.55898066825e-06,3.58891410514e-12,-9.72217792383e-12,3.6673458324e-13
1366000000,32,1366000000,,-3.00668079944e-06,4.01623947255e-05,-2.35311904362e-06,5.92759218446e-12,-1.65342756847e-11,4.64554718478e-13
1406000000,33,1406000000,,-4.43398278094e-07,3.28712594637e-05,-2.16197804548e-06,8.04574289137e-12,-2.3352788453e-11,5.40489636554e-13
1447000000,34,1447000000,,2.85832948066e-06,2.33758910326e-05,-1.96309338207e-06,1.03156068756e-11,-2.9865616924e-11,6.02242051801e-13
1486000000,35,1486000000,,6.23374990028e-06,1.32397972266e-05,-1.77811568847e-06,1.39446110908e-11,-4.25062936238e-11,7.10196766847e-13
1526000000,36,1526000000,,1.0209147149e-05,1.36014102736e-06,-1.59157900725e-06,1.57197380113e-11,-4.71530037238e-11,7.28526397195e-13
1567000000,37,1567000000,,1.4411994016e-05,-1.16936735139e-05,-1.4083905171e-06,2.04734753456e-11,-6.23735854632e-11,8.30423457863e-13
1608000000,38,1608000000,,1.86543311429e-05,-2.48130745604e-05,-1.23831887322e-06,2.03201500765e-11,-6.36295321987e-11,8.10786767586e-13
1646000000,39,1646000000,,2.35612715187e-05,-4.05647733714e-05,-1.04846060367e-06,2.35024170264e-11,-7.46156122999e-11,8.65139286165e-13
1687000000,40,1687000000,,2.81959801214e-05,-5.53961326659e-05,-8.80882055299e-07,2.35445048874e-11,-7.71915725784e-11,8.53604838723e-13
1728000000,41,1728000000,,3.30018738168e-05,-7.13119734428e-05,-7.10629819878e-07,2.555822394e-11,-8.4162857239e-11,8.81699986459e-13
1772000000,42,1772000000,,3.63623257726e-05,-8.24646413093e-05,-5.90241825194e-07,2.17036666417e-11,-7.27997592764e-11,8.04803218426e-13
1806000000,43,1806000000,,4.20113283326e-05,-0.000102051220892,-3.8065957142e-07,2.35266979509e-11,-8.14727937892e-11,8.330669596e-13
1846000000,44,1846000000,,4.61957024527e-05,-0.000115697228466,-2.39413367353e-07,1.61280277328e-11,-4.87568353746e-11,4.98069630244e-13
1886000000,45,1886000000,,5.0127349823e-05,-0.000125471080537,-1.3477226446e-07,9.56117390122e-12,-1.88878773733e-11,2.15636929428e-13
1927000000,46,1927000000,,5.35580475116e-05,-0.000131132153911,-6.66439703423e-08,4.46019913711e-12,-6.12011136214e-12,7.36326486437e-14
1966000000,47,1966000000,,5.62789064134e-05,-0.000134166504722,-3.33282628162e-08,1.8812974182e-12,-1.5628386172e-12,1.42397503972e-14
2006000000,48,2006000000,,5.7977544202e-05,-0.000134760310175,-2.97516979941e-08,8.39264638688e-13,2.34513309379e-13,-5.31914710371e-15
2047000000,49,2047000000,,5.8909139625e-05,-0.00013346929336,-4.8474213088e-08,2.17510457887e-13,1.81569299526e-12,-2.3786563878e-14
2086000000,50,2086000000,,5.85885973123e-05,-0.000129692474729,-9.02578207729e-08,-1.26054537902e-12,8.04930774811e-12,-7.9108980922e-14
2126000000,51,2126000000,,5.72746321268e-05,-0.000123620542581,-1.47733175027e-07,-5.59659133273e-12,1.87680877783e-11,-1.72273680781e-13
2166000000,52,2166000000,,5.42907655472e-05,-0.000114306465548,-2.25884576821e-07,-1.19181218713e-11,3.65399481506e-11,-2.81808674703e-13
2206000000,53,2206000000,,5.00611968164e-05,-0.000102478268673,-3.16068025086e-07,-2.31898042435e-11,5.82678141847e-11,-4.32694705803e-13
2246000000,54,2246000000,,4.40178519057e-05,-8.73292956385e-05,-4.2193616423e-07,-3.48568465758e-11,8.87500142821e-11,-5.82545513564e-13
2286000000,55,2286000000,,3.67509237549e-05,-7.03984260326e-05,-5.34146977316e-07,-5.35335352436e-11,1.17533149879e-10,-7.66510661367e-13
2326000000,56,2326000000,,2.7768104701e-05,-5.02861948917e-05,-6.58621274852e-07,-7.02050223511e-11,1.58905763548e-10,-9.42258857745e-13
2369000000,57,2369000000,,1.75913246494e-05,-2.90020252578e-05,-7.86245720974e-07,-9.36867111667e-11,1.89044016552e-10,-1.12484056358e-12
2406000000,58,2406000000,,5.27707970832e-06,-3.55060888069e-06,-9.31132888127e-07,-1.13944222113e-10,2.34981645253e-10,-1.30955142563e-12
2447000000,59,2447000000,,-8.47913543112e-06,2.29036068049e-05,-1.08156314127e-06,-1.40588304887e-10,2.66297928153e-10,-1.4933614241e-12
2486000000,60,2486000000,,-2.22119851969e-05,4.94769483339e-05,-1.22537619518e-06,-1.58782043069e-10,3.03834346571e-10,-1.64323578616e-12
2527000000,61,2527000000,,-4.06004473916e-05,8.24983144412e-05,-1.40944541727e-06,-1.81512055386e-10,3.25988541716e-10,-1.79851988337e-12
2567000000,62,2567000000,,-5.75935519009e-05,0.000113199886982,-1.57769693487e-06,-1.9951708341e-10,3.44859363288e-10,-1.92653358544e-12
2606000000,63,2606000000,,-7.60032635299e-05,0.000143973229569,-1.75301022409e-06,-2.09561451525e-10,3.56487811493e-10,-2.01451268861e-12
2646000000,64,2646000000,,-9.41774997045e-05,0.000174604268977,-1.92738502847e-06,-2.15337872533e-10,3.41995570752e-10,-2.05941708999e-12
2686000000,65,2686000000,,-0.000113886802865,0.00020544011204,-2.11709766518e-06,-2.02815389483e-10,3.2451152876e-10,-2.03495423637e-12
2727000000,66,2727000000,,-0.000131457127281,0.000232660531765,-2.29598640544e-06,-1.94727442504e-10,2.80463485769e-10,-1.98360468676e-12
2766000000,67,2766000000,,-0.000149888306623,0.000259230844676,-2.49418599196e-06,-1.67855257471e-10,2.46128922798e-10,-1.86417027648e-12
2815000000,68,2815000000,,-0.000158486727742,0.000271661469014,-2.59141188508e-06,-1.61669982957e-10,2.27558458188e-10,-1.84011746812e-12
2849000000,69,2849000000,,-0.00017953774659,0.000299120467389,-2.85107125819e-06,-1.1185233989e-10,1.44792275392e-10,-1.50983143089e-12
2886000000,70,2886000000,,-0.000195990069187,0.000318600476021,-3.09439997181e-06,-7.46929670892e-11,7.95397775422e-11,-1.19962622735e-12
2926000000,71,2926000000,,-0.000206940370845,0.000329475733452,-3.29977979163e-06,-3.6671183451e-11,3.25489808717e-11,-8.06340075005e-13
2966000000,72,2966000000,,-0.000220264133532,0.000339770544088,-3.50974187313e-06,-1.19128457099e-10,8.89228274348e-11,-1.44840172842e-12
3009000000,73,3009000000,,-0.000245561561314,0.000359205325367,-3.73745774596e-06,-2.89289620037e-10,2.11170927966e-10,-2.26685966005e-12
3047000000,74,3047000000,,-0.000272884732112,0.000377271877369,-3.94325024899e-06,-3.17499415647e-10,1.99400287948e-10,-2.3570947711e-12
3086000000,75,3086000000,,-0.000300239335047,0.000392745481804,-4.15548947785e-06,-2.51614395985e-10,1.17755874496e-10,-2.05536867907e-12
3126000000,76,3126000000,,-0.000325232278556,0.000401356432121,-4.37694097855e-06,-1.55172402705e-10,3.13913686711e-11,-1.55884636796e-12
3166000000,77,3166000000,,-0.000344169151504,0.000400988152251,-4.5974375098e-06,-8.68333183135e-11,-2.64834456448e-11,-1.18479553425e-12
3206000000,78,3206000000,,-0.000356613571057,0.000391541514546,-4.81350525661e-06,-4.85034443165e-11,-8.06469613313e-11,-1.19132937022e-12
3246000000,79,3246000000,,-0.000361653190339,0.000370750029106,-5.03814499098e-06,-8.23361084173e-12,-1.8882345687e-10,-1.69617141513e-12
3286000000,80,3286000000,,-0.000357902434189,0.000339041696861,-5.26211169927e-06,9.99015453695e-11,-4.43747122381e-10,-2.56390872075e-12
3326000000,81,3326000000,,-0.000344919419149,0.000297997932648,-5.47395757167e-06,2.78179229651e-10,-7.13314018963e-10,-3.37385935162e-12
3366000000,82,3366000000,,-0.000321736122714,0.000244649796514,-5.69000576434e-06,5.8886706622e-10,-1.22875021269e-09,-4.42963157474e-12
3408000000,83,3408000000,,-0.000285303714918,0.000177508045454,-5.91904426983e-06,1.00164299077e-09,-1.71173741847e-09,-5.47575743429e-12
3446000000,84,3446000000,,-0.000242038062424,0.000105663726572,-6.12703479419e-06,0.00127854209859,-0.00202315626666,-5.51139874005e-06
3486000000,85,3486000000,,-0.000179765513167,1.45996818901e-05,-6.35059586784e-06,0.00171738374047,-0.00243728142232,-5.4181014093e-06
3527000000,86,3527000000,,-0.000104965256469,-8.91281888471e-05,-6.56836118651e-06,0.00200183549896,-0.00262786494568,-5.617966508e-06
3566000000,87,3566000000,,-2.47733460128e-05,-0.000187197976629,-6.7954779297e-06,0.00211780285463,-0.00254145916551,-5.92215883444e-06
3606000000,88,3606000000,,6.29482383374e-05,-0.000287752423901,-7.04359808879e-06,0.00215436401777,-0.0022718955297,-6.26789142188e-06
3646000000,89,3646000000,,0.000147318511154,-0.000368903507479,-7.32572380002e-06,0.00200951937586,-0.00182412844151,-7.92248283688e-06
3686000000,90,3686000000,,0.000223556256969,-0.000428296800237,-7.66278390074e-06,0.00188627047464,-0.00122984603513,-9.38773700909e-06
3726000000,91,3726000000,,0.000295172969345,-0.000468629383249,-8.0723384599e-06,1.44768430577e-09,-6.9297606542e-10,-9.41174308627e-12
3766000000,92,3766000000,,0.00034985592356,-0.00048848555889,-8.50986361911e-06,7.70380426118e-10,-1.82831846884e-10,-7.42221648725e-12
3808000000,93,3808000000,,0.000397637573769,-0.000495784333907,-9.03796808416e-06,5.54230605854e-10,-3.77764659831e-11,-6.69523594551e-12
3846000000,94,3846000000,,0.000435978756286,-0.000495916465297,-9.52280606725e-06,5.34710553612e-10,1.99546733304e-11,-6.938021338e-12
3886000000,95,3886000000,,0.000475216569612,-0.000492927152663,-1.00429033409e-05,5.4123877602e-10,6.39866354346e-11,-7.29113297515e-12
3926000000,96,3926000000,,0.000517845910508,-0.000485011842102,-1.06434654299e-05,4.92297647092e-10,1.27992283439e-10,-7.34563191523e-12
3966000000,97,3966000000,,0.000561405497137,-0.000471614999697,-1.12930165415e-05,4.89244866841e-10,1.9091529746e-10,-7.70902005426e-12
4006000000,98,4006000000,,0.000593982171267,-0.000455799279734,-1.18399066196e-05,4.19368789695e-10,2.50958503978e-10,-7.56777626676e-12
4046000000,99,4046000000,,0.000625868677162,-0.000432463071775,-1.24569542095e-05,3.51099121998e-10,3.14557879744e-10,-7.58304703752e-12
4087000000,100,4087000000,,0.000651142734569,-0.000402203761041,-1.31014949147e-05,2.64316013521e-10,4.08341443991e-10,-7.76464136043e-12
4126000000,101,4126000000,,0.000668972381391,-0.000367152300896,-1.37195111165e-05,1.75460840302e-10,4.85212314771e-10,-8.11886929214e-12
4166000000,102,4166000000,,0.000677899923176,-0.000324980152072,-1.43597808346e-05,5.72673054811e-11,6.65925814491e-10,-9.24594775742e-12
4206000000,103,4206000000,,0.000676529249176,-0.000276361388387,-1.50041714733e-05,-1.2193350496e-10,8.15781608932e-10,-1.04088430583e-11
4246000000,104,4246000000,,0.000663106155116,-0.000221209702431,-1.56517962751e-05,-3.81420228734e-10,1.13432097049e-09,-1.25427368144e-11
4286000000,105,4286000000,,0.00063598662382,-0.000160748255439,-1.63050826814e-05,-7.63627105993e-10,1.39973177493e-09,-1.46572077392e-11
4326000000,106,4326000000,,0.000594626355451,-9.435818356e-05,-1.69630420714e-05,-0.00120646855794,0.00173823651858,-1.64621851582e-05
4366000000,107,4366000000,,0.000534821476322,-1.99265214178e-05,-1.76133889909e-05,-0.00173698167782,0.00201617763378,-1.6003712517e-05
4408000000,108,4408000000,,0.000450149993412,7.01259268681e-05,-1.82990006579e-05,-0.00216210866347,0.00201897229999,-1.62540891324e-05
4446000000,109,4446000000,,0.000363090803148,0.000142849079566,-1.89247202798e-05,-0.00238304794766,0.00185848260298,-1.65814253705e-05
4486000000,110,4486000000,,0.000264419184532,0.000210821584915,-1.95976044779e-05,-0.00259471544996,0.00150598131586,-1.70501898538e-05
4528000000,111,4528000000,,0.000158567141625,0.000265033275355,-2.03035106097e-05,-0.00257440633141,0.00115374394227,-1.72493528225e-05
4566000000,112,4566000000,,5.99793711444e-05,0.000301168271108,-2.09650879697e-05,-0.00261092185974,0.000760119815823,-1.75014865818e-05
4606000000,113,4606000000,,-4.30538930232e-05,0.00032461428782,-2.16829903366e-05,-0.00242892070673,0.000399023061618,-1.74872529897e-05
4646000000,114,4646000000,,-0.000135571171995,0.000334037176799,-2.23701663344e-05,-0.00231051817536,7.92598220869e-05,-1.7553449652e-05
4686000000,115,4686000000,,-0.000224289338803,0.000331134157022,-2.30878013099e-05,-0.00206318451092,-0.000212898827158,-1.74314991455e-05
4726000000,116,4726000000,,-0.000299626699416,0.000318786129355,-2.37487747654e-05,-1.75304937233e-09,-3.862303255e-10,-1.64845897349e-11
4766000000,117,4766000000,,-0.000362286635209,0.00029912655009,-2.44759648922e-05,-1.05122921479e-09,-4.09927064515e-10,-1.33855366027e-11
4806000000,118,4806000000,,-0.000416884111473,0.000274779333267,-2.52054560406e-05,-8.93456197915e-10,-4.7401821357e-10,-1.25908389617e-11
4846000000,119,4846000000,,-0.000464640645077,0.000242926835199,-2.59057451331e-05,-8.47602710241e-10,-6.62240984273e-10,-1.27766078967e-11
4886000000,120,4886000000,,-0.000506889133248,0.000202456663828,-2.65795915766e-05,-7.78629438702e-10,-9.18166986885e-10,-1.32881882581e-11
4926000000,121,4926000000,,-0.000545922317542,0.000150866922922,-2.72599700111e-05,-7.84502462992e-10,-1.09318443187e-09,-1.39472470032e-11
4966000000,122,4966000000,,-0.00058213819284,9.3534887128e-05,-2.79358355328e-05,-7.44336259295e-10,-1.35033340065e-09,-1.47143738166e-11
5006000000,123,5006000000,,-0.000614965392742,3.01463223877e-05,-2.86059821519e-05,-6.75910105663e-10,-1.40063693976e-09,-1.48019946994e-11
5046000000,124,5046000000,,-0.000643000414129,-3.91119538108e-05,-2.92900003842e-05,-5.56034385202e-10,-1.63864555258e-09,-1.54401543634e-11
5086000000,125,5086000000,,-0.000664082355797,-0.000109567277832,-2.99564690067e-05,-4.05794564617e-10,-1.63061786296e-09,-1.52733381498e-11
5131000000,126,5131000000,,-0.000677348580211,-0.000192164487089,-3.0704857636e-05,-1.49851353548e-10,-1.71435377005e-09,-1.54902601163e-11
5167000000,127,5167000000,,-0.000681008095853,-0.000256918574451,-3.1287137972e-05,-2.25527235775e-11,-1.8011414582e-09,-1.57139440349e-11
5206000000,128,5206000000,,-0.000675938965287,-0.000333506119205,-3.19492028211e-05,2.46729719988e-10,-1.82103421231e-09,-1.59270773653e-11
5247000000,129,5247000000,,-0.000660239253193,-0.000405488972319,-3.2599124097e-05,5.31524491088e-10,-1.76177306077e-09,-1.60278578604e-11
5286000000,130,5286000000,,-0.000631153641734,-0.000477887195302,-3.32678246195e-05,8.79305017687e-10,-1.64377833567e-09,-1.63363593486e-11
5326000000,131,5326000000,,-0.000589020899497,-0.000542050576769,-3.39286816597e-05,0.00124569376931,-0.00159674300812,-1.70158982655e-05
5366000000,132,5366000000,,-0.00052513711853,-0.000608305330388,-3.46050073858e-05,0.00179755536374,-0.00149062916171,-1.64573812071e-05
5408000000,133,5408000000,,-0.000438848481281,-0.000667202810291,-3.53083632945e-05,0.00215209648013,-0.00117071066052,-1.65673191077e-05
5446000000,134,5446000000,,-0.000353598268703,-0.000700805045199,-3.59304176527e-05,0.00240721181035,-0.00065668154275,-1.69873765117e-05
5486000000,135,5486000000,,-0.000255203922279,-0.000715148868039,-3.66137210221e-05,0.00248555699363,-7.84495350672e-05,-1.7330125047e-05
5539000000,136,5539000000,,-0.00011952486966,-0.000698231975548,-3.75892122975e-05,0.00238452129997,0.000678879790939,-1.79576163646e-05
5566000000,137,5566000000,,-5.81090753258e-05,-0.000674882729072,-3.80277779186e-05,0.00249787000939,0.00114606821444,-1.7361020582e-05
5606000000,138,5606000000,,4.24328864028e-05,-0.000619068741798,-3.87394939025e-05,0.00235837488435,0.00159032223746,-1.728686766e-05
5646000000,139,5646000000,,0.000131252236315,-0.000549261982087,-3.94089947804e-05,0.0022152394522,0.00190539238974,-1.7177857444e-05
5686000000,140,5686000000,,0.000213126331801,-0.000470518047223,-4.00745630031e-05,0.00195702281781,0.0021557987202,-1.69542745425e-05
5726000000,141,5726000000,,0.000288618233753,-0.000378692231607,-4.07655425079e-05,0.00173671694938,0.002238902729,-1.68436981767e-05
5766000000,142,5766000000,,0.000352983945049,-0.00028329421184,-4.1449235141e-05,0.00141538283788,0.00237320456654,-1.65836408996e-05
5806000000,143,5806000000,,0.000404478341807,-0.000189150348888,-4.21112272306e-05,0.00115328386892,0.0022936523892,-1.65534111147e-05
5847000000,144,5847000000,,0.000442474964075,-0.000100883480627,-4.2736013711e-05,0.000875160796568,0.00231066369452,-1.63805361808e-05
5887000000,145,5887000000,,0.000473844615044,-5.52083656657e-06,-4.34420908277e-05,0.000584218651056,0.00214688736014,-1.64233370015e-05
5926000000,146,5926000000,,0.00049113977002,7.49002720113e-05,-4.40642215835e-05,0.000334524840582,0.00206749560311,-1.63434706337e-05
5966000000,147,5966000000,,0.000499310204759,0.000152762906509,-4.47207094112e-05,7.33564806121e-11,1.77873260565e-09,-1.5464346817e-11
6007000000,148,6007000000,,0.000496791151818,0.000221262860578,-4.54303990409e-05,-1.27546251338e-10,1.22595844587e-09,-1.33102955741e-11
6047000000,149,6047000000,,0.000486503646243,0.000282699678792,-4.61062736576e-05,-2.62421612218e-10,1.18138943073e-09,-1.31477563212e-11
6086000000,150,6086000000,,0.00047062561498,0.000341309583746,-4.67457066406e-05,-4.08730604917e-10,1.23920074202e-09,-1.3608485866e-11
6126000000,151,6126000000,,0.000446363032097,0.000406641251175,-4.74323351227e-05,-6.01134531042e-10,1.52153667443e-09,-1.50167569352e-11
6167000000,152,6167000000,,0.000417368137278,0.000471419858513,-4.80643539049e-05,-8.28082324933e-10,1.62909952195e-09,-1.59272040001e-11
6206000000,153,6206000000,,0.000378293334506,0.000543619564269,-4.87464931211e-05,-0.00103792117443,0.00180416111834,-1.65961901075e-05
6246000000,154,6246000000,,0.000328810740029,0.000619694765192,-4.94033847644e-05,-0.00138467154466,0.00191409466788,-1.635715671e-05
6287000000,155,6287000000,,0.000268480187515,0.000697454204783,-5.00720307173e-05,-0.00154527113773,0.00181188422721,-1.63461354532e-05
6326000000,156,6326000000,,0.000206868324312,0.000758980051614,-5.06975193275e-05,-0.00163094408344,0.00142549420707,-1.65917645063e-05
6366000000,157,6366000000,,0.000145006051753,0.000805611489341,-5.13484701514e-05,-1.48272705225e-09,8.97973195801e-10,-1.55559454207e-11
6409000000,158,6409000000,,8.38957712403e-05,0.000830961798783,-5.20521680301e-05,-9.05185815192e-10,1.97378849376e-10,-1.20102530352e-11
6447000000,159,6447000000,,3.90619752579e-05,0.000833953323308,-5.26711628481e-05,-8.21598122869e-10,-6.19911205701e-11,-1.13701218579e-11
6486000000,160,6486000000,,-2.20104593609e-05,0.000820528774057,-5.34818645974e-05,-9.63413016031e-10,-3.51527695841e-10,-1.25296656731e-11
6526000000,161,6526000000,,-7.69894468249e-05,0.000795268628281,-5.41576300748e-05,-1.24934862455e-09,-6.59553245352e-10,-1.45284912573e-11
6570000000,162,6570000000,,-0.000146506587043,0.00074951746501,-5.4948435718e-05,-1.49718404341e-09,-1.19186061021e-09,-1.66836718052e-11
6606000000,163,6606000000,,-0.000204537063837,0.000701300799847,-5.55593396712e-05,-0.00165604765061,-0.00145420292392,-1.6945266907e-05
6646000000,164,6646000000,,-0.00027875896194,0.000629379006568,-5.6200176914e-05,-0.00185583275743,-0.00200939970091,-1.57929334819e-05
6686000000,165,6686000000,,-0.000353338749846,0.000543285161257,-5.68247742194e-05,-0.00180419383105,-0.00227667717263,-1.54515237227e-05
6726000000,166,6726000000,,-0.000418352865381,0.000447593571153,-5.74165060243e-05,-0.0014932109043,-0.00249083340168,-1.52569373313e-05
6769000000,167,6769000000,,-0.000469085440272,0.000353537034243,-5.80190462642e-05,-0.0010799576994,-0.00239637261257,-1.55499401444e-05
6808000000,168,6808000000,,-0.000502370297909,0.000255684746662,-5.86092319281e-05,-0.000642083003186,-0.00247602793388,-1.51757949425e-05
6846000000,169,6846000000,,-0.000518948130775,0.000154377295985,-5.92659671383e-05,-0.000133134657517,-0.00231918389909,-1.52968550537e-05
6886000000,170,6886000000,,-0.000514393323101,6.47429915261e-05,-5.9878337197e-05,0.000302721338812,-0.00207796157338,-1.55163452291e-05
6927000000,171,6927000000,,-0.000494780892041,-1.2889970094e-05,-6.0485494032e-05,0.000677055504639,-0.00193499715533,-1.55687539518e-05
6967000000,172,6967000000,,-0.000459609902464,-8.5845196736e-05,-6.11117357039e-05,1.03584507638e-09,-1.66057156914e-09,-1.56098918513e-11
7006000000,173,7006000000,,-0.000420600059442,-0.000138953793794,-6.16796824033e-05,1.09033970741e-09,-1.29123434167e-09,-1.51478204979e-11
7046000000,174,7046000000,,-0.000360056641512,-0.000198683541385,-6.24256499577e-05,1.45363565629e-09,-1.24094856613e-09,-1.62464243447e-11
7086000000,175,7086000000,,-0.000295429432299,-0.000251867691986,-6.30854992778e-05,0.00175970699638,-0.00137423514389,-1.64123903232e-05
7126000000,176,7126000000,,-0.000212560786167,-0.000311249430524,-6.3732448325e-05,0.00224406388588,-0.0015407835599,-1.6086276446e-05
7166000000,177,7166000000,,-0.000117533614684,-0.000374831928639,-6.43738603685e-05,0.00248757912777,-0.00157180533279,-1.61070711329e-05
7206000000,178,7206000000,,-1.54498738993e-05,-0.000433274573879,-6.50217043585e-05,0.00251158117317,-0.00137075094972,-1.6292606233e-05
7246000000,179,7246000000,,8.53642559377e-05,-0.00048412050819,-6.56908159726e-05,0.00241754413582,-0.0010730472859,-1.6435775251e-05
7286000000,180,7286000000,,0.000175225897692,-0.000518704240676,-6.63317987346e-05,0.00215734983794,-0.000740646966733,-1.64187349583e-05
7326000000,181,7326000000,,0.000256367755355,-0.000541106739547,-6.69880973874e-05,1.87661375328e-09,-3.63507390855e-10,-1.60461453153e-11
7366000000,182,7366000000,,0.000320533086779,-0.000548007315956,-6.76521303831e-05,9.07386055182e-10,-1.79669788162e-12,-1.12418425263e-11
7406000000,183,7406000000,,0.000372067355784,-0.000542785506696,-6.83357939124e-05,6.92632895483e-10,1.47193174316e-10,-9.90580794474e-12
7446000000,184,7446000000,,0.000415307702497,-0.000529113865923,-6.89790977049e-05,6.42698894104e-10,2.58435273182e-10,-9.60415341006e-12
7486000000,185,7486000000,,0.000460350711364,-0.000507651187945,-6.96456991136e-05,6.58966881062e-10,3.81300990782e-10,-9.9812718854e-12
7527000000,186,7527000000,,0.000499573245179,-0.000480079615954,-7.02558609191e-05,6.76127154264e-10,5.35745114938e-10,-1.047925028e-11
7567000000,187,7567000000,,0.000542220310308,-0.000440928706666,-7.09412925062e-05,6.53154696995e-10,7.11524172914e-10,-1.1020619313e-11
7606000000,188,7606000000,,0.000577188679017,-0.000396413961425,-7.15545247658e-05,6.20365037118e-10,9.10953701361e-10,-1.16929322128e-11
7646000000,189,7646000000,,0.000607190886512,-0.00034356166725,-7.21821488696e-05,5.29394583726e-10,1.15214260354e-09,-1.24013342997e-11
7686000000,190,7686000000,,0.000626947905403,-0.000291172793368,-7.27098158677e-05,4.43676456685e-10,1.35752387109e-09,-1.30850217814e-11
7726000000,191,7726000000,,0.00064391316846,-0.000168598999153,-7.31893233024e-05,0.0002906639711,0.00364329828881,-9.78765092441e-06
7766000000,192,7766000000,,0.000649926543701,-1.86580527952e-05,-7.36157162464e-05,1.6915229935e-05,0.00525702117011,-1.61029527135e-06
7806000000,193,7806000000,,0.000644075335003,0.000165925957845,-7.36193178454e-05,-0.000305651366943,0.00505215581506,5.38887206858e-06
7848000000,194,7848000000,,0.000621782790404,0.000310263829306,-7.3224917287e-05,-3.18706144808e-10,-2.13117620773e-10,2.34696333548e-12
7886000000,195,7886000000,,0.000598104496021,0.00018195193843,-7.32409098418e-05,-0.000956065254286,-0.00855455547571,-5.96986001256e-06
7926000000,196,7926000000,,0.000536110659596,-0.000471319479402,-7.32483676984e-05,-0.00146425771527,-0.0193704552948,8.74906902482e-07
7966000000,197,7966000000,,0.000471855339129,-0.00153517571744,-7.32603075448e-05,-0.00185436138418,-0.0344323553145,1.42024191518e-06
8010000000,198,8010000000,,0.000396047951654,-0.00305797671899,-7.31155014364e-05,-0.0021396453958,-0.0490240268409,-5.74684520416e-07
8046000000,199,8046000000,,0.000300987332594,-0.00560716958717,-7.34313580324e-05,-0.0023640578147,-0.0673166513443,-3.33660568685e-06
8091000000,200,8091000000,,0.000207907869481,-0.00845657195896,-7.33878114261e-05,-0.00242047035135,-0.0839719101787,-3.33456500812e-06
8127000000,201,8127000000,,0.000111599256343,-0.0121454019099,-7.37137961551e-05,-0.00242946436629,-0.0972110107541,-1.09170823634e-05
8166000000,202,8166000000,,1.04824557638e-05,-0.0165377799422,-7.34435379854e-05,-0.00237965630367,-0.116583839059,7.75220451033e-06
8206000000,203,8206000000,,-8.78949140315e-05,-0.0216773431748,-7.29993189452e-05,-0.00229929178022,-0.126270666718,1.52497959789e-05
8246000000,204,8246000000,,-0.000174813438207,-0.0270878169686,-7.21789183444e-05,-0.00207426957786,-0.142790675163,2.72064917226e-05
8286000000,205,8286000000,,-0.000252938538324,-0.0327401645482,-7.09081359673e-05,-0.0018995963037,-0.147965148091,3.80989295081e-05
8326000000,206,8326000000,,-0.000323116313666,-0.0389598608017,-6.90526067046e-05,-0.00162518024445,-0.15868973732,4.89733029099e-05
8368000000,207,8368000000,,-0.000383463455364,-0.0452409461141,-6.70106819598e-05,-0.00136522832327,-0.160646125674,5.83329892834e-05
8412000000,208,8412000000,,-0.000410252861911,-0.048676431179,-6.57292766846e-05,-0.00120185664855,-0.166603714228,6.67064305162e-05
8446000000,209,8446000000,,-0.000470053550089,-0.0582650527358,-6.18893973297e-05,-0.000804679992143,-0.163925424218,6.92980756867e-05
8486000000,210,8486000000,,-0.000495210930239,-0.0649988725781,-5.89315168327e-05,-0.00044162775157,-0.159504249692,7.2127157182e-05
8526000000,211,8526000000,,-0.000504289113451,-0.0712008476257,-5.6119326473e-05,-4.47983948106e-05,-0.160727635026,7.28801460355e-05
8566000000,212,8566000000,,-0.000499196758028,-0.0774782598019,-5.32804660907e-05,0.000280631444184,-0.150149524212,6.72219175613e-05
8606000000,213,8606000000,,-0.000482830626424,-0.0834611356258,-5.06822907482e-05,0.000535335741006,-0.148706838489,6.28673005849e-05
8646000000,214,8646000000,,-0.000456651177956,-0.0891565158963,-4.83426665596e-05,0.000741387251765,-0.135811522603,5.27524316567e-05
8695000000,215,8695000000,,-0.000427657796536,-0.0939855873585,-4.65611810796e-05,0.000880827137735,-0.131502240896,4.6229291911e-05
8726000000,216,8726000000,,-0.000386626488762,-0.0992778241634,-4.48658829555e-05,0.00101130304392,-0.117153964937,3.41572194884e-05
8767000000,217,8767000000,,-0.000344140105881,-0.103824056685,-4.36381596955e-05,0.00110396416858,-0.108047954738,2.54399037658e-05
8806000000,218,8806000000,,-0.000297384016449,-0.107915654778,-4.28238708992e-05,0.00115823885426,-0.0953128486872,1.61067546287e-05
8846000000,219,8846000000,,-0.00024864365696,-0.111600659788,-4.23101846536e-05,0.00122192630079,-0.0822666585445,8.12567668618e-06
8886000000,220,8886000000,,-0.000199583082576,-0.114644184709,-4.21093573095e-05,0.00121435290202,-0.0719446986914,2.23298729907e-06
8926000000,221,8926000000,,-0.000151421641931,-0.117207273841,-4.21236472903e-05,0.00124490982853,-0.0585234314203,-3.4329459595e-06
8966000000,222,8966000000,,-0.000101682475361,-0.119405217469,-4.23548372055e-05,0.00120419193991,-0.0487591549754,-6.56017209621e-06
9006000000,223,9006000000,,-5.46911905985e-05,-0.121065527201,-4.26758851972e-05,0.0011939057149,-0.0367417186499,-9.45721785683e-06
9046000000,224,9046000000,,-7.34836748961e-06,-0.122376546264,-4.30978980148e-05,0.00113781436812,-0.0270320791751,-1.05840335891e-05
9086000000,225,9086000000,,3.63071412721e-05,-0.123216800392,-4.35255788034e-05,0.00108510581776,-0.0168345011771,-1.11576155177e-05
9126000000,226,9126000000,,7.80097980169e-05,-0.123706832528,-4.39613613707e-05,0.0010158973746,-0.00780439097434,-1.06494317151e-05
9166000000,227,9166000000,,0.000118143121654,-0.123834498227,-4.43741155323e-05,6.59544585613e-10,7.70761177105e-10,-6.77945763763e-12
9206000000,228,9206000000,,0.000148904669913,-0.123637527227,-4.48613172921e-05,0.000767658348195,0.00853154528886,-1.34980373332e-05
9247000000,229,9247000000,,0.000183066833415,-0.123094119132,-4.53476823168e-05,0.000816365180071,0.0167574677616,-6.3930806391e-06
9286000000,230,9286000000,,0.000212933970033,-0.122378736734,-4.55108784081e-05,0.000856279337313,0.0225572455674,-1.74587466972e-06
9327000000,231,9327000000,,0.000248573109275,-0.121258169413,-4.54990695289e-05,0.000789235287812,0.0294994879514,1.68575957105e-06
9367000000,232,9367000000,,0.000276348349871,-0.120101116598,-4.5426095312e-05,0.000717861054,0.033178512007,4.50937113783e-06
9407000000,233,9407000000,,0.000303365261061,-0.118578538299,-4.51807609352e-05,0.000581651111133,0.0389384403825,7.29621160644e-06
9447000000,234,9447000000,,0.000322442676406,-0.117117293179,-4.49150211352e-05,0.00045050267363,0.0410740450025,1.03297998066e-05
9486000000,235,9486000000,,0.000337658828357,-0.115330256522,-4.44324323325e-05,0.000302610133076,0.0450465008616,1.23503959912e-05
9529000000,236,9529000000,,0.000346566841472,-0.113593995571,-4.39823706984e-05,0.000158487644512,0.044946745038,1.1283575077e-05
9566000000,237,9566000000,,0.000350038113538,-0.111643761396,-4.3344032747e-05,1.68342849065e-05,0.0481433197856,1.63947752299e-05
9606000000,238,9606000000,,0.000347624794813,-0.109649017453,-4.2644172936e-05,-0.000116065828479,0.0482398346066,1.70390649146e-05
9648000000,239,9648000000,,0.000340244150721,-0.1076259166,-4.19267307734e-05,-0.00024156262225,0.0465773865581,1.66162117239e-05
9686000000,240,9686000000,,0.000329322501784,-0.105853505433,-4.12860354118e-05,-0.00032267352799,0.0470582693815,1.69085615198e-05
9726000000,241,9726000000,,0.000315342622343,-0.104103304446,-4.06465878768e-05,-0.00041290774243,0.0440263450146,1.59792780323e-05
9768000000,242,9768000000,,0.000298229511827,-0.10238969326,-4.00246790377e-05,-0.000455811183201,0.0436428487301,1.53413748194e-05
9808000000,243,9808000000,,0.000277585786534,-0.100632160902,-3.93988520955e-05,-0.000515158637427,0.039928112179,1.37959559652e-05
9846000000,244,9846000000,,0.000257229199633,-0.0990885421634,-3.88606240449e-05,-0.000528182135895,0.0386179834604,1.30443559101e-05
9886000000,245,9886000000,,0.000236831081565,-0.0977316126227,-3.83880906156e-05,-0.000556103128474,0.0351451300085,1.19891392387e-05
9926000000,246,9926000000,,0.000212721264688,-0.0962275192142,-3.78792901756e-05,-0.000552243727725,0.0325528942049,1.08560307126e-05
9966000000,247,9966000000,,0.000190366627066,-0.095008008182,-3.74553092115e-05,-0.000544828828424,0.0293692909181,1.02190015241e-05
10007000000,248,10007000000,,0.000172760366695,-0.0940723270178,-3.71251844626e-05,-0.000534132122993,0.0270642787218,9.85814858723e-06
10056000000,249,10056000000,,0.000148557228385,-0.0929327234626,-3.66942076653e-05,-0.00049902475439,0.023527674377,9.28474855755e-06
10097000000,250,10097000000,,0.000141173528391,-0.0925883054733,-3.65566666005e-05,-0.000486063741846,0.0223951470107,9.01110252016e-06
10126000000,251,10126000000,,0.000109836022602,-0.0912876427174,-3.59756668331e-05,-0.000427902705269,0.0174476131797,9.03972340893e-06
10166000000,252,10166000000,,9.31684917305e-05,-0.0907185673714,-3.57196622645e-05,-0.000404006015742,0.012055164203,5.38725544175e-06
10206000000,253,10206000000,,7.86246891948e-05,-0.0903499051929,-3.5623612348e-05,-0.000345611013472,0.00841131433845,1.93561027118e-06
10247000000,254,10247000000,,6.48203349556e-05,-0.0900625661016,-3.5640092392e-05,-0.000304758694256,0.00741110369563,1.99173427973e-07
10288000000,255,10288000000,,5.39712345926e-05,-0.0897160992026,-3.56275195372e-05,-0.000246784242336,0.00992383435369,1.53384291934e-08
10329000000,256,10329000000,,4.55689332739e-05,-0.0892852246761,-3.56433920388e-05,-0.000202357230592,0.0151707269251,1.28500903429e-06
10367000000,257,10367000000,,3.87656909879e-05,-0.0885000675917,-3.55509546353e-05,-0.000150867839693,0.024510094896,4.27459872299e-06
10413000000,258,10413000000,,3.38609679602e-05,-0.087420091033,-3.52879760612e-05,-0.000114684225991,0.0361881107092,9.97198458208e-06
10446000000,259,10446000000,,3.02710195683e-05,-0.0855023786426,-3.48099310941e-05,-5.79839688726e-05,0.047577727586,1.13368641905e-05
10486000000,260,10486000000,,2.90368971037e-05,-0.0832831710577,-3.42473977071e-05,-9.89013187791e-06,0.0638156011701,1.63540844369e-05
10526000000,261,10526000000,,2.93510092888e-05,-0.080383464694,-3.34586475219e-05,1.90421324078e-05,0.0762732625008,2.16454300244e-05
10566000000,262,10566000000,,3.08617854898e-05,-0.0769653767347,-3.25019464071e-05,5.64069850952e-05,0.0934894904494,2.60395954683e-05
10607000000,263,10607000000,,3.34944270435e-05,-0.0729292407632,-3.1336217944e-05,7.41618714528e-05,0.104250781238,3.09528331854e-05
10646000000,264,10646000000,,3.6791760067e-05,-0.0686771273613,-3.0121896998e-05,0.00010070719145,0.118281796575,3.47254244843e-05
10686000000,265,10686000000,,4.09770727856e-05,-0.0638359934092,-2.86231770588e-05,0.000109537242679,0.125637739897,3.83263577532e-05
10726000000,266,10726000000,,4.58529357275e-05,-0.0584276653826,-2.69972661044e-05,0.000122695681057,0.134835287929,4.02780860895e-05
10766000000,267,10766000000,,5.0734168326e-05,-0.0529994033277,-2.53122889262e-05,0.000129286883748,0.140592306852,4.37333037553e-05
10807000000,268,10807000000,,5.58991887374e-05,-0.0472507067025,-2.35001243709e-05,0.000122267927509,0.142266616225,4.56537673017e-05
10846000000,269,10846000000,,6.05765308137e-05,-0.0417959690094,-2.16984299186e-05,0.000124685873743,0.147080585361,4.78596230096e-05
10886000000,270,10886000000,,6.52980743325e-05,-0.0359209366143,-1.97304179892e-05,0.000107906031189,0.142415970564,4.94943487865e-05
10926000000,271,10926000000,,6.97212453815e-05,-0.0298657100648,-1.76291869138e-05,9.92309142021e-05,0.145708322525,5.02051043441e-05
10966000000,272,10966000000,,7.32862899895e-05,-0.0243219844997,-1.56202804646e-05,8.10095225461e-05,0.138218417764,5.27237243659e-05
11006000000,273,11006000000,,7.64716169215e-05,-0.0184803102165,-1.33838930196e-05,6.92923058523e-05,0.137692287564,5.271271948e-05
11046000000,274,11046000000,,7.85317242844e-05,-0.0134551785886,-1.13337719085e-05,4.40590301878e-05,0.129128575325,5.4508986068e-05
11086000000,275,11086000000,,8.0043093476e-05,-0.0083364136517,-9.14986321732e-06,2.80290387309e-05,0.1245168522,5.41451117897e-05
11126000000,276,11126000000,,8.04939118098e-05,-0.00361605267972,-6.96713914294e-06,3.8353346099e-06,0.115197025239,5.48089265067e-05
11166000000,277,11166000000,,8.02731156e-05,0.000862939225044,-4.77118555864e-06,-2.04231255339e-05,0.106096439064,5.40711953363e-05
11206000000,278,11206000000,,7.90418853285e-05,0.00478233629838,-2.66057327281e-06,-3.26319859596e-05,0.0979925841093,5.42724155821e-05
11246000000,279,11246000000,,7.58845853852e-05,0.00859693158418,-4.30649322425e-07,-0.000128428058815,0.0857398509979,5.40477849427e-05
11286000000,280,11286000000,,6.8573965109e-05,0.011870241724,1.8372162458e-06,-0.000226420583203,0.0786649212241,5.84747576795e-05
11327000000,281,11327000000,,5.76761703996e-05,0.014847099781,4.26111546403e-06,-0.000298905710224,0.0662491247058,5.96576901444e-05
11366000000,282,11366000000,,4.56539419247e-05,0.017346503213,6.61174453853e-06,-0.000308685848722,0.0583973005414,5.92480682826e-05
11406000000,283,11406000000,,3.3066040487e-05,0.0194318462163,8.9239101726e-06,-0.000310906820232,0.0468237884343,5.6791544921e-05
11449000000,284,11449000000,,2.19324483623e-05,0.0210312698036,1.10606924864e-05,-0.000288225157419,0.0391030982137,5.72847420699e-05
11486000000,285,11486000000,,9.84868984233e-06,0.0224532671273,1.34986294142e-05,-0.000261046283413,0.02813154459,5.61729320907e-05
11540000000,286,11540000000,,-2.67316977443e-06,0.0236347895116,1.65063102031e-05,-0.000216899090447,0.0154623184353,5.59343425266e-05
11591000000,287,11591000000,,-1.22142801047e-05,0.0241573695093,1.94106924027e-05,-0.000161150761414,0.0051282052882,5.79999905312e-05
11617000000,288,11617000000,,-1.62261421792e-05,0.024202182889,2.08867932088e-05,-5.85382575746e-11,-3.1244692944e-10,2.2803559388e-11
11646000000,289,11646000000,,-1.98494326469e-05,0.0240703169256,2.24868945224e-05,-0.000109909778985,-0.00714606698602,5.61842207389e-05
11686000000,290,11686000000,,-2.29006072914e-05,0.0236487239599,2.4586383006e-05,-7.93159124441e-05,-0.0134859774262,5.56292106921e-05
11726000000,291,11726000000,,-2.58100517385e-05,0.0229821056128,2.6902936952e-05,-6.44856627332e-05,-0.0197991095483,5.98644510319e-05
11766000000,292,11766000000,,-2.87972998194e-05,0.0220993962139,2.93566499749e-05,-8.51795412018e-05,-0.0241999663413,6.22886727797e-05
11806000000,293,11806000000,,-3.25963446812e-05,0.0209763683379,3.1989213312e-05,-9.06526984181e-05,-0.0296645332128,6.59816141706e-05
11846000000,294,11846000000,,-3.64281513612e-05,0.0197609756142,3.45760381606e-05,-9.72587513388e-05,-0.0326276645064,6.74513139529e-05
11886000000,295,11886000000,,-3.98703559767e-05,0.0183577127755,3.72958638764e-05,-7.74054060457e-05,-0.0363666079938,6.91987734172e-05
11926000000,296,11926000000,,-4.27412960562e-05,0.0168751720339,4.0056733269e-05,-6.24729364063e-05,-0.0383683666587,7.0024492743e-05
11966000000,297,11966000000,,-4.55049375887e-05,0.0153183024377,4.27991508332e-05,-9.31142494665e-05,-0.0400750078261,7.15542046237e-05
12006000000,298,12006000000,,-5.11516664119e-05,0.0136640379205,4.58361500932e-05,-0.000149155544932,-0.0414166003466,7.55082510295e-05
12046000000,299,12046000000,,-5.73367178731e-05,0.0119601227343,4.89750163979e-05,-0.000168309445144,-0.0408432744443,7.73232968641e-05
12086000000,300,12086000000,,-6.37427874608e-05,0.0102990921587,5.20938483533e-05,-0.000146800928633,-0.0426137112081,7.84318981459e-05
12126000000,301,12126000000,,-6.90334345563e-05,0.00862157065421,5.52368037461e-05,-0.000120586257253,-0.0410594530404,7.81526614446e-05
12167000000,302,12167000000,,-7.25041463738e-05,0.00698154838756,5.81107415201e-05,-5.86345231568e-05,-0.0437858067453,7.50173567212e-05
12206000000,303,12206000000,,-7.38819653634e-05,0.00517277326435,6.11623036093e-05,-6.28689122095e-06,-0.042329415679,7.06039136276e-05
12246000000,304,12246000000,,-7.27463193471e-05,0.00348283839412,6.39058634988e-05,5.87272406847e-05,-0.0401755422354,6.84022670612e-05
12286000000,305,12286000000,,-6.97959258105e-05,0.00212619127706,6.66564010317e-05,0.00010277331603,-0.0334652774036,6.59921279293e-05
12327000000,306,12327000000,,-6.46806438453e-05,0.00097375002224,6.92292160238e-05,0.000153713262989,-0.0246193613857,6.58999342704e-05
12366000000,307,12366000000,,-5.78159815632e-05,0.000290287542157,7.20158495824e-05,0.000182424104423,-0.00978125631809,6.88920772518e-05
12406000000,308,12406000000,,-5.08033299411e-05,0.000240014007431,7.46046134736e-05,0.000210976955714,0.00519349565729,7.09877131158e-05
12446000000,309,12446000000,,-4.10887005273e-05,0.000949124339968,7.79714828241e-05,0.000223537543206,0.0260974466801,7.65730728745e-05
12486000000,310,12486000000,,-3.26688750647e-05,0.00225650100037,8.08860640973e-05,0.000230552701396,0.0430019386113,8.15529056126e-05
12526000000,311,12526000000,,-2.29720371863e-05,0.00453431298956,8.44004971441e-05,0.000224336356041,0.0653928443789,8.60992659e-05
12566000000,312,12566000000,,-1.405382136e-05,0.00749501213431,8.79220460774e-05,0.00021917266713,0.0820493623614,9.1624839115e-05
12606000000,313,12606000000,,-5.47428544451e-06,0.0113307610154,9.17487850529e-05,0.000200801892788,0.103592827916,9.54684437602e-05
12646000000,314,12646000000,,1.71268800386e-06,0.0155917732045,9.55258001341e-05,0.000175854554982,0.11699668318,0.000100730794657
12686000000,315,12686000000,,8.14209579403e-06,0.020667495206,9.96203016257e-05,0.000146221907926,0.133684545755,0.000102738806163
12726000000,316,12726000000,,1.3125051737e-05,0.0261459071189,0.000103809303255,0.00012025374599,0.143586024642,0.000105879153125
12766000000,317,12766000000,,1.68375972862e-05,0.0321469083428,0.000108057967736,6.88186701154e-05,0.152671277523,0.000106460771349
12806000000,318,12806000000,,1.90703085536e-05,0.0383346006274,0.000112390516733,6.29307178315e-05,0.160468563437,0.000108309781353
12846000000,319,12846000000,,1.95084739971e-05,0.0448437407613,0.000116738781799,-2.14708197745e-05,0.159921124578,0.000108541295049
12886000000,320,12886000000,,1.89309121197e-05,0.0513636320829,0.000121082543046,-4.34024223068e-05,0.166820734739,0.000107918545837
12926000000,321,12926000000,,1.62740980159e-05,0.0581393837929,0.000125574253616,-6.90791057423e-05,0.160353794694,0.000107606480015
12966000000,322,12966000000,,1.3334308278e-05,0.064173206687,0.000129566251417,-0.000107141415356,0.163511812687,0.000105545928818
13006000000,323,13006000000,,8.37729658087e-06,0.0709891319275,0.000134103102027,-0.000118077819934,0.1542224437,0.00010426598601
13046000000,324,13046000000,,3.28945088768e-06,0.0771664083004,0.000138224029797,-0.000139701587614,0.152356058359,0.000101969191746
13087000000,325,13087000000,,-2.60911065197e-06,0.0825713723898,0.000142011165735,-0.000155902031111,0.143189311028,0.000102071237052
13126000000,326,13126000000,,-9.89674026641e-06,0.0886405929923,0.000146348058479,-0.000186443008715,0.135782077909,9.86834711512e-05
13166000000,327,13166000000,,-1.75272725755e-05,0.0936856865883,0.000150217107148,-0.000173916327185,0.126963943243,9.84002908808e-05
13206000000,328,13206000000,,-2.62315825239e-05,0.0987057238817,0.000154224675498,-0.000246058101766,0.114376433194,9.6095034678e-05
13259000000,329,13259000000,,-3.79055745725e-05,0.104443892837,0.000159218441695,-0.000224825213081,0.102893576026,9.23020634218e-05
13289000000,330,13289000000,,-4.45309815404e-05,0.106993786991,0.000161680261954,-0.000261842942564,0.0932142883539,9.65897415881e-05
13327000000,331,13327000000,,-5.47787276446e-05,0.110567949712,0.000165495424881,-0.000269603246124,0.0853847637773,9.46048166952e-05
13366000000,332,13366000000,,-6.55760304653e-05,0.113703712821,0.000169268751051,-0.00026426682598,0.071766987443,9.3658833066e-05
13406000000,333,13406000000,,-7.56198642193e-05,0.116333931684,0.000172889500391,-0.000251589168329,0.0627354830503,9.19310914469e-05
13446000000,334,13446000000,,-8.60623040353e-05,0.118614375591,0.000176633329829,-0.000246699841227,0.0500520244241,9.14050033316e-05
13486000000,335,13486000000,,-9.56338844844e-05,0.120421819389,0.000180279428605,-0.000237772037508,0.039833702147,9.0824032668e-05
13527000000,336,13527000000,,-0.00010529490828,0.121764682233,0.000183921336429,-0.00022386405908,0.0290024485439,9.09504815354e-05
13566000000,337,13566000000,,-0.000114147071145,0.122721843421,0.000187562371138,-0.000222695045522,0.0189294554293,9.10358357942e-05
13606000000,338,13606000000,,-0.000122823126731,0.123273849487,0.000191217273823,-0.000201223374461,0.00966114085168,9.16516946745e-05
13646000000,339,13646000000,,-0.000130737462314,0.123525895178,0.000194977823412,-0.00019911173149,0.0025401788298,9.52777045313e-05
13686000000,340,13686000000,,-0.000138328468893,0.123495280743,0.000198897003429,-0.000176574350917,-0.00481746625155,9.95373193291e-05
13726000000,341,13726000000,,-0.000145497833728,0.12311154604,0.000203043149668,-0.000177579117008,-0.0138135813177,0.000102500649518
13767000000,342,13767000000,,-0.000152173786773,0.122319214046,0.000207224875339,-0.00015278646606,-0.026587260887,0.000104997001472
13806000000,343,13806000000,,-0.000158303126227,0.121032707393,0.000211343969568,-0.000158594106324,-0.0399794504046,0.000105710678326
13846000000,344,13846000000,,-0.000163989490829,0.119125567377,0.000215541134821,-0.000133811045089,-0.0578397810459,0.000107389154437
13886000000,345,13886000000,,-0.000169525199453,0.116417996585,0.000219948051381,-0.000139096562634,-0.0759355649352,0.000107545187348
13926000000,346,13926000000,,-0.000173957960214,0.112845189869,0.0002243797353,-9.94366710074e-05,-0.0956822410226,0.00010999404185
13966000000,347,13966000000,,-0.000178165821126,0.108783893287,0.000228643111768,-0.000128376152134,-0.115645371377,0.00011006132263
14006000000,348,14006000000,,-0.000180640025064,0.103635199368,0.000233210404986,-4.86475473735e-05,-0.130546659231,0.000111655841465
14046000000,349,14046000000,,-0.000183286247193,0.097975589335,0.000237675645621,1.49793841047e-05,-0.152085348964,0.000112145040475
14087000000,350,14087000000,,-0.000183225842193,0.0914974734187,0.0002422365651,-2.10426478588e-05,-0.161435395479,0.000110358196252
14126000000,351,14126000000,,-0.000183387208381,0.0853522643447,0.000246286945185,6.09087255725e-05,-0.178152069449,0.000113575835712
14166000000,352,14166000000,,-0.000181540905032,0.0776247307658,0.000251168676186,2.16363605432e-05,-0.183206930757,0.00011225479102
14206000000,353,14206000000,,-0.000179414026206,0.0700034499168,0.000255722610746,7.23538469174e-05,-0.19491687417,0.000114825510536
14246000000,354,14246000000,,-0.000176312649273,0.0622705742717,0.000260251486907,3.75196359528e-05,-0.196634531021,0.000112747889943
14286000000,355,14286000000,,-0.000172346481122,0.054246775806,0.000264778384008,0.000118667790957,-0.2000977844,0.000114042552013
14326000000,356,14326000000,,-0.00016807760403,0.046767629683,0.000269002746791,4.10723041568e-05,-0.19961245358,0.000110621367639
14366000000,357,14366000000,,-0.000161726769875,0.0387800820172,0.000273410056252,0.000219043489778,-0.194369167089,0.000110118111479
14406000000,358,14406000000,,-0.000155544141307,0.0307382419705,0.000277921062661,0.000240320368903,-0.193039491773,0.000106122824945
14446000000,359,14446000000,,-0.000145860976772,0.0232152957469,0.000282105931547,0.000199500238523,-0.179755464196,0.000101498160802
14486000000,360,14486000000,,-0.000138162111398,0.0160559918731,0.000286156922812,0.000285840331344,-0.177431985736,0.000100141012808
14526000000,361,14526000000,,-0.000128424479044,0.00927885156125,0.000290105002932,0.000201812799787,-0.162312835455,9.5887495263e-05
14566000000,362,14566000000,,-0.00012023322779,0.00303369993344,0.000293822668027,0.000237248896156,-0.156033679843,9.41319376579e-05
14607000000,363,14607000000,,-0.000111259709229,-0.00270164548419,0.000297418650007,0.000187504963833,-0.140413254499,9.06292989384e-05
14646000000,364,14646000000,,-0.000102608806628,-0.00827277638018,0.000301103864331,0.000219044712139,-0.129326164722,8.90074807103e-05
14687000000,365,14687000000,,-9.37552104006e-05,-0.0133029427379,0.000304754270473,0.000139804877108,-0.114204987884,8.5944593593e-05
14726000000,366,14726000000,,-8.55713296914e-05,-0.0172095261514,0.000307808950311,0.00022850278765,-0.10134383291,8.39837884996e-05
14766000000,367,14766000000,,-7.69207181293e-05,-0.0211082212627,0.00031127082184,0.000206400582101,-0.0874295458198,8.17455147626e-05
14807000000,368,14807000000,,-6.64426625008e-05,-0.0244513507932,0.000314664386678,0.000231187368627,-0.0704797878861,7.94092338765e-05
14846000000,369,14846000000,,-6.01619576628e-05,-0.026498420164,0.000317107478622,0.000218684508582,-0.0621789470315,7.82412607805e-05
14887000000,370,14887000000,,-4.90572601848e-05,-0.0289259925485,0.000320609513437,0.000224656119826,-0.0455144234002,7.67043238739e-05
14934000000,371,14934000000,,-4.22575467383e-05,-0.0301947649568,0.000322994834278,0.000247522169957,-0.0368924364448,7.6442178397e-05
14967000000,372,14967000000,,-3.04665190924e-05,-0.0316455885768,0.000326751876855,0.000216691376409,-0.0216436032206,7.38825110602e-05
15009000000,373,15009000000,,-2.14287847484e-05,-0.0323009230196,0.000329770991812,0.000223395996727,-0.00978408101946,7.41001422284e-05
15050000000,374,15050000000,,-1.31813776534e-05,-0.0324495024979,0.000332596420776,8.18934919877e-11,2.97651320258e-10,2.90578412027e-11
15086000000,375,15086000000,,-7.46925252315e-06,-0.0323342308402,0.000334641867084,0.000201017333893,0.00718777067959,7.23961275071e-05
15126000000,376,15126000000,,2.23745382755e-06,-0.0315936133265,0.000338540441589,0.000206500626518,0.0194432288408,7.13009794708e-05
15166000000,377,15166000000,,9.55621453613e-06,-0.0306677818298,0.000341327744536,0.000173411521246,0.027243765071,7.18652081559e-05
15206000000,378,15206000000,,1.77434521902e-05,-0.0293801072985,0.000344286119798,0.000171770661836,0.0355009362102,7.20461102901e-05
15246000000,379,15246000000,,2.44521852437e-05,-0.0278707463294,0.00034711897024,0.000180689821718,0.0398208089173,7.08260849933e-05
15287000000,380,15287000000,,3.10931282002e-05,-0.0262535233051,0.000349776586518,0.00013067224063,0.0470356680453,7.24638593965e-05
15326000000,381,15326000000,,3.7141264329e-05,-0.0241746753454,0.000352857983671,0.00014979900152,0.0494338274002,7.13526314939e-05
15366000000,382,15366000000,,4.248384721e-05,-0.0221440102905,0.000355636584572,0.000116312185128,0.0534132607281,7.04809135641e-05
15406000000,383,15406000000,,4.67061108793e-05,-0.0199561547488,0.00035851233406,0.000119105214253,0.0539808943868,6.96331844665e-05
15446000000,384,15446000000,,5.02519105794e-05,-0.0177932661027,0.000361221143976,7.59557442507e-05,0.0557240061462,6.85551713104e-05
15488000000,385,15488000000,,5.29646640643e-05,-0.0154823521152,0.00036410492612,0.000111229819595,0.0556032247841,6.80542289047e-05
15530000000,386,15530000000,,5.42811358173e-05,-0.0135185774416,0.000366488093277,2.51932979154e-05,0.0553360544145,6.69281507726e-05
15566000000,387,15566000000,,5.54928374186e-05,-0.0111949425191,0.000369358662283,4.02860496251e-05,0.0546176098287,6.68081702315e-05
15606000000,388,15606000000,,5.41887129657e-05,-0.00898084789515,0.000372089270968,-5.4426756833e-05,0.0516288839281,6.56078991597e-05
15646000000,389,15646000000,,5.35582948942e-05,-0.00702919252217,0.000374577182811,-7.78728863224e-05,0.0514236241579,6.54301838949e-05
15686000000,390,15686000000,,5.02741531818e-05,-0.00498753366992,0.000377235468477,-5.91946809436e-05,0.0474222712219,6.43747043796e-05
15726000000,391,15726000000,,4.80063099531e-05,-0.00315187033266,0.000379715987947,-9.9145428976e-05,0.0463878139853,6.31616640021e-05
15766000000,392,15766000000,,4.4322663598e-05,-0.00134501978755,0.000382274127332,-7.08092120476e-05,0.0421076640487,6.19832790107e-05
15806000000,393,15806000000,,4.13092966483e-05,0.000306025583996,0.000384726328775,-8.39494241518e-05,0.0398260392249,6.05050845479e-05
15846000000,394,15846000000,,3.78143558919e-05,0.00183131382801,0.000387182401028,-4.83029944007e-05,0.0357651524246,5.96101235715e-05
15886000000,395,15886000000,,3.53025425284e-05,0.00314179807901,0.000389427295886,-6.95995477145e-05,0.0325561389327,5.80984633416e-05
15927000000,396,15927000000,,3.27430498146e-05,0.00434845173731,0.000391745066736,-2.17925044126e-05,0.0288052000105,5.76617130719e-05
15966000000,397,15966000000,,2.97948645311e-05,0.00545171182603,0.000394091446651,-9.86279628705e-05,0.0244362037629,5.65418158658e-05
16007000000,398,16007000000,,2.71739354503e-05,0.00635609263554,0.000396351882955,-9.41026301007e-05,0.0211771726608,5.67439783481e-05
16046000000,399,16046000000,,2.3328278985e-05,0.00711906328797,0.000398604635848,-9.27523069549e-05,0.0168876815587,5.60975931876e-05
16087000000,400,16087000000,,1.9844097551e-05,0.00773167936131,0.000400830060244,-9.88953470369e-05,0.0138101670891,5.54042453587e-05
16126000000,401,16126000000,,1.5825862647e-05,0.00821556895971,0.000403080979595,-9.33395640459e-05,0.0100275287405,5.45880720892e-05
16166000000,402,16166000000,,1.23875515783e-05,0.00854997709394,0.00040519729373,-8.78931532498e-05,0.00708311190829,5.3953313909e-05
16207000000,403,16207000000,,8.49336083775e-06,0.00877335388213,0.000407444807934,-8.62708620843e-05,0.00384534755722,5.32135927642e-05
16246000000,404,16246000000,,5.45729517398e-06,0.00886591058224,0.000409406260587,-5.07474652578e-11,7.53115292351e-10,3.24232411753e-11
16286000000,405,16286000000,,2.0763638986e-06,0.00885685160756,0.000411545246607,-6.21631773834e-11,-1.39832245782e-09,4.2983585441e-11
16326000000,406,16326000000,,-6.70826239002e-07,0.00874334201217,0.000413602683693,-7.28586601326e-05,-0.00384102878161,5.14734274475e-05
16366000000,407,16366000000,,-4.1999419409e-06,0.00853863265365,0.000415660062572,-9.24280830077e-05,-0.00639822660014,5.1476079534e-05
16406000000,408,16406000000,,-7.75759053795e-06,0.00823574978858,0.000417716772063,-9.56994917942e-05,-0.00834457762539,5.12802434969e-05
16446000000,409,16446000000,,-1.19292835734e-05,0.00785663537681,0.000419774587499,-7.92751743575e-05,-0.0106157716364,5.17364860571e-05
16486000000,410,16486000000,,-1.54071622092e-05,0.00740350736305,0.000421850651037,-9.93471549009e-05,-0.0118871219456,5.18107190146e-05
16528000000,411,16528000000,,-1.89633938135e-05,0.00688959285617,0.000423935329309,-6.5753236413e-05,-0.0135952169076,5.23470007465e-05
16566000000,412,16566000000,,-2.17892811634e-05,0.00633612275124,0.000426030630479,-7.7903685451e-05,-0.0141632547602,5.22840018675e-05
16606000000,413,16606000000,,-2.42729856836e-05,0.00572762778029,0.000428183178883,-4.90593156428e-05,-0.015155678615,5.27527517988e-05
16646000000,414,16646000000,,-2.61732857325e-05,0.0051278853789,0.000430293992395,-5.85581765336e-05,-0.0154017750174,5.25571631442e-05
16688000000,415,16688000000,,-2.72682700597e-05,0.00448749121279,0.000432455679402,-1.48283461385e-05,-0.0154413878918,5.30213837919e-05
16726000000,416,16726000000,,-2.81589109363e-05,0.00390098639764,0.000434455490904,-3.9545193431e-05,-0.0158303957433,5.2303308621e-05
16766000000,417,16766000000,,-2.7800546377e-05,0.00326956715435,0.00043655000627,2.61561581283e-05,-0.0154297230765,5.24238057551e-05
16806000000,418,16806000000,,-2.76157625194e-05,0.00269515090622,0.000438753661001,3.48298926838e-05,-0.00846068374813,6.0762209614e-05
16846000000,419,16846000000,,-2.63128404185e-05,0.00250631407835,0.000441411742941,2.83780718746e-05,-0.00343704991974,6.98710355209e-05
16886000000,420,16886000000,,-2.53315265581e-05,0.0022239824757,0.000444124598289,5.36317711521e-05,-0.00534068606794,7.78255343903e-05
16926000000,421,16926000000,,-2.36265623244e-05,0.00169935275335,0.000447273807367,1.96828045773e-06,-0.0178900305182,7.96354579506e-05
16966000000,422,16966000000,,-2.33115824813e-05,0.0004011458077,0.000450322288089,2.84516991087e-05,-0.0473967902362,7.26295256754e-05
17006000000,423,17006000000,,-2.28474873438e-05,-0.00207252195105,0.000452927750302,-7.62558192946e-05,-0.0799531638622,6.15681128693e-05
17046000000,424,17046000000,,-2.32336224144e-05,-0.00594057701528,0.000455257773865,9.95876143861e-06,-0.115755900741,6.04529741395e-05
17094000000,425,17094000000,,-2.63170659309e-05,-0.0127122737467,0.000458047026768,-2.34871804423e-05,-0.157993689179,5.28149430465e-05
17128000000,426,17128000000,,-2.14607953239e-05,-0.0179792121053,0.000459635281004,0.000267732422799,-0.178224205971,5.16233376402e-05
17166000000,427,17166000000,,-2.36675241467e-05,-0.0256573390216,0.000461313553387,-0.000122534926049,-0.209272280335,3.88541375287e-05
17206000000,428,17206000000,,-1.27170551423e-05,-0.0345550812781,0.000463248172309,0.000335900578648,-0.230104446411,5.26443691342e-05
17247000000,429,17247000000,,-1.49826601046e-05,-0.0449442267418,0.000464919983642,0.000567245355342,-0.26525965333,3.57574062946e-05
17287000000,430,17287000000,,-2.3200218493e-06,-0.0561719089746,0.000466289639007,-5.94602570345e-05,-0.282003045082,2.34161416302e-05
17329000000,431,17329000000,,-2.84730685962e-06,-0.0685178115964,0.000468052428914,0.000189392594621,-0.315875560045,5.13294289703e-05
17366000000,432,17366000000,,4.86056705995e-06,-0.0784033313394,0.000469632883323,-0.000175061955815,-0.324221551418,4.42520140496e-05
17415000000,433,17415000000,,9.93570779428e-07,-0.0910545811057,0.000471382110845,0.000485306140035,-0.356199711561,4.3964915676e-05
17470000000,434,17470000000,,5.81719177717e-06,-0.118122793734,0.000475280598039,0.000568457297049,-0.395770817995,5.01260510646e-05
17486000000,435,17486000000,,1.13452451842e-05,-0.124487116933,0.00047580699902,0.00060248823138,-0.397992640734,2.13759194594e-05
17526000000,436,17526000000,,1.2499353943e-05,-0.140662923455,0.000475932698464,-0.000787582190242,-0.420591324568,1.16517412607e-05
17566000000,437,17566000000,,3.32760682795e-05,-0.157944500446,0.000477091554785,0.000935609452426,-0.43446174264,7.23494231352e-05
17606000000,438,17606000000,,1.99894748221e-05,-0.17588879168,0.000478607573314,0.000596703088377,-0.467881977558,4.77318508274e-06
17646000000,439,17646000000,,5.06827927893e-05,-0.1948389709,0.000478520087199,0.000302490894683,-0.475083053112,-1.99210098799e-05
17686000000,440,17686000000,,4.11195869674e-05,-0.213933125138,0.000478093832498,0.00120556307957,-0.505643785,-1.51122676471e-05
17726000000,441,17726000000,,6.74899492878e-05,-0.234530195594,0.000476824905491,-0.000187116631423,-0.498379170895,-5.16494510521e-05
17766000000,442,17766000000,,6.48972491035e-05,-0.254792422056,0.000475509325042,0.000385215302231,-0.508861601353,-2.44393831963e-05
17807000000,443,17807000000,,7.55499349907e-05,-0.274524211884,0.000474347762065,-0.000721999502275,-0.485524296761,-2.98591603496e-05
