%time,field.header.seq,field.header.stamp,field.header.frame_id,field.angular_velocities0,field.angular_velocities1,field.angular_velocities2,field.angular_velocities3
118000000,1,118000000,,427.0,427.0,427.0,427.0
200000000,2,200000000,,777.103062715,776.896937285,777.103062715,776.896937285
300000000,3,300000000,,389.966342556,390.116284427,389.964226384,390.116747318
400000000,4,400000000,,650.313661558,650.290741345,650.310574997,650.291174082
500000000,5,500000000,,647.574537209,647.57244045,647.571163499,647.572811702
601000000,6,601000000,,572.019273866,572.01708237,572.01574849,572.017453622
700000000,7,700000000,,445.148216999,445.145997037,445.144663158,445.14636829
800000000,8,800000000,,316.004209205,316.001989243,316.000655364,316.002360496
901000000,9,901000000,,300.989296978,300.987077017,300.985743138,300.98744827
1004000000,10,1004000000,,337.988635248,337.986433338,337.985135563,337.986804591
1100000000,11,1100000000,,504.395723676,504.393565174,504.392318109,504.393936426
1200000000,12,1200000000,,467.775804097,467.773704875,467.772525661,467.774076128
1300000000,13,1300000000,,452.698421215,452.69639296,452.695287829,452.696764213
1400000000,14,1400000000,,421.193472285,421.191518318,421.190487679,421.191889571
1500000000,15,1500000000,,390.882217586,390.880334407,390.879370853,390.88070566
1600000000,16,1600000000,,381.97862442,381.976796398,381.975876071,381.977167651
1700000000,17,1700000000,,403.640526686,403.638720277,403.637799951,403.63909153
1800000000,18,1800000000,,418.622666937,418.620861213,418.61989603,418.621186239
1900000000,19,1900000000,,433.784525633,433.78274179,433.781740002,433.782987821
2001000000,20,2001000000,,421.351445805,421.349687456,421.348581313,421.349820533
2100000000,21,2100000000,,436.16219193,436.160428223,436.159160902,436.160419436
2200000000,22,2200000000,,409.805042492,409.80325438,409.801800247,409.803088275
2300000000,23,2300000000,,420.985812763,420.983993535,420.982346262,420.983667032
2400000000,24,2400000000,,403.379418934,403.377572209,403.375760837,403.377103858
2500000000,25,2500000000,,424.864522443,424.862661373,424.860734908,424.862084367
2600000000,26,2600000000,,428.085234749,428.083370459,428.081419081,428.08276854
2703000000,27,2703000000,,426.866984161,426.865148037,426.863298858,426.864591987
2815000000,28,2815000000,,450.206895718,450.205141653,450.203578415,450.204763758
2906000000,29,2906000000,,399.385117898,399.383473328,399.382274185,399.383348325
3000000000,30,3000000000,,443.078317236,443.076796941,443.07636418,443.077300971
3100000000,31,3100000000,,418.587249848,418.585874008,418.586518021,418.587303248
3200000000,32,3200000000,,430.643503371,430.642271065,430.644126546,430.64477627
3303000000,33,3303000000,,417.179589605,417.178469057,417.181617108,417.182178819
3400000000,34,3400000000,,427.101942523,427.100883367,427.105252222,427.105779159
3500000000,35,3500000000,,427.480733208,427.477127884,427.48456233,427.482785502
3601000000,36,3601000000,,449.461288016,449.45878666,449.464500299,449.464323188
3701000000,37,3701000000,,435.999813692,435.995661499,436.002148669,436.000578353
3800000000,38,3800000000,,416.31806902,416.319447737,416.319994861,416.324101259
3900000000,39,3900000000,,422.891335068,422.889652546,422.892904043,422.894050444
4000000000,40,4000000000,,430.209398635,430.207718885,430.21048421,430.211580992
4100000000,41,4100000000,,432.943360248,432.941798943,432.943875552,432.944785063
4200000000,42,4200000000,,430.408083037,430.406765276,430.408014055,430.408623748
4300000000,43,4300000000,,437.359537956,437.358579444,437.35893849,437.359129495
4400000000,44,4400000000,,439.071936707,439.064280253,439.07178824,439.064066869
4500000000,45,4500000000,,432.850311658,432.847547237,432.85119601,432.84719191
4602000000,46,4602000000,,422.758840304,422.756661806,422.760759569,422.756829541
4700000000,47,4700000000,,417.839277628,417.837180862,417.841905657,417.838244784
4800000000,48,4800000000,,437.421988427,437.427719646,437.425285231,437.429142681
4900000000,49,4900000000,,435.888937428,435.889644926,435.89274072,435.891287409
5000000000,50,5000000000,,435.685331727,435.686058578,435.689504096,435.688115014
5100000000,51,5100000000,,427.516396945,427.516955266,427.520790735,427.519674486
5200000000,52,5200000000,,435.064016133,435.064116952,435.068311801,435.067837722
5300000000,53,5300000000,,431.729384982,431.728679975,431.733157212,431.733652614
5403000000,54,5403000000,,429.130512024,429.12148396,429.13274614,429.127125807
5502000000,55,5502000000,,426.781470033,426.77575098,426.781894974,426.781403213
5600000000,56,5600000000,,445.529064359,445.523222887,445.528238829,445.528304338
5700000000,57,5700000000,,421.60766801,421.601962386,421.606298635,421.6061665
5800000000,58,5800000000,,427.229618258,427.224346007,427.228156568,427.227568565
5901000000,59,5901000000,,430.138576168,430.133810366,430.137363679,430.136072295
6000000000,60,6000000000,,433.743725363,433.7468074,433.742476096,433.748311967
6100000000,61,6100000000,,440.774778901,440.773127493,440.773273474,440.773921065
6200000000,62,6200000000,,412.830761212,412.821936033,412.829250105,412.821988185
6300000000,63,6300000000,,438.673439778,438.670252695,438.67319255,438.670263561
6402000000,64,6402000000,,437.890663675,437.895435451,437.891820291,437.895350205
6500000000,65,6500000000,,448.270164659,448.27089529,448.272710276,448.27061501
6600000000,66,6600000000,,436.501537642,436.495421725,436.505565029,436.495006361
6700000000,67,6700000000,,429.041125763,429.041029181,429.04569585,429.041642256
6800000000,68,6800000000,,424.268378982,424.266992782,424.272832746,424.269040305
6900000000,69,6900000000,,426.609682399,426.607242899,426.613740465,426.61053886
7000000000,70,7000000000,,424.544204869,424.548288391,424.548213755,424.55262422
7100000000,71,7100000000,,441.076185734,441.067762642,441.079892166,441.072539252
7200000000,72,7200000000,,437.01064556,437.006985366,437.013511124,437.011365447
7300000000,73,7300000000,,434.495195296,434.491282476,434.497028472,434.494746873
7400000000,74,7400000000,,438.981236506,438.984621002,438.982241529,438.987640892
7501000000,75,7501000000,,425.46447114,425.462702655,425.464659623,425.465346807
7600000000,76,7600000000,,430.74533048,430.743423116,430.744675188,430.745429591
7700000000,77,7700000000,,425.186114485,425.182229781,425.190064873,425.183250194
7800000000,78,7800000000,,421.725544142,421.740887863,421.75324638,421.74066054
7900000000,79,7900000000,,438.55135909,438.577909115,438.630936276,438.576544175
8002000000,80,8002000000,,431.183051919,431.249215439,431.327115081,431.247247841
8101000000,81,8101000000,,440.119485162,440.213618538,440.327487881,440.211601275
8200000000,82,8200000000,,441.415432217,441.548605423,441.676470272,441.547075526
8300000000,83,8300000000,,422.708898214,422.869498521,423.004773717,422.868799756
8419000000,84,8419000000,,430.412561818,430.581886163,430.729355949,430.582235287
8500000000,85,8500000000,,433.748974625,433.922355593,434.071944262,433.923503393
8600000000,86,8600000000,,445.675145294,445.84051393,445.989086446,445.842096019
8700000000,87,8700000000,,429.177473546,429.32509724,429.472719166,429.326850714
8800000000,88,8800000000,,430.406014203,430.538809242,430.675375608,430.540463878
8900000000,89,8900000000,,430.15151461,430.2695437,430.392950312,430.27085284
9000000000,90,9000000000,,428.113584575,428.219566181,428.3285209,428.220372831
9100000000,91,9100000000,,428.868355839,428.963752412,429.059765068,428.963941573
9201000000,92,9201000000,,439.680393407,439.76626535,439.8536713,439.766000131
9300000000,93,9300000000,,433.367575905,433.453708132,433.530816339,433.452685074
9400000000,94,9400000000,,432.410150542,432.49456771,432.569867591,432.492584258
9502000000,95,9502000000,,440.156613544,440.241445141,440.318756934,440.238448254
9600000000,96,9600000000,,442.874843424,442.965262033,443.047284992,442.9613214
9700000000,97,9700000000,,419.94332195,420.039935823,420.133403082,420.035150012
9801000000,98,9801000000,,434.37701656,434.484529709,434.589107496,434.478966932
9900000000,99,9900000000,,427.222942039,427.341766636,427.460245658,427.335511243
10007000000,100,10007000000,,428.588432648,428.722118173,428.854938617,428.715176889
10103000000,101,10103000000,,442.561368682,442.709801332,442.856882926,442.702228028
10200000000,102,10200000000,,437.993809494,438.150253779,438.306175883,438.142056873
10310000000,103,10310000000,,430.223161536,430.379397385,430.525155061,430.370468228
10400000000,104,10400000000,,433.120000075,433.271579237,433.398323547,433.261956158
10500000000,105,10500000000,,423.237916915,423.375924709,423.485296684,423.365534275
10600000000,106,10600000000,,425.753491433,425.881355016,425.97540355,425.870097737
10700000000,107,10700000000,,439.203262134,439.32191416,439.410502461,439.309726751
10800000000,108,10800000000,,435.760948778,435.880745279,435.970503628,435.867560977
10900000000,109,10900000000,,439.083217274,439.209521749,439.312175434,439.195286061
11001000000,110,11001000000,,434.303874403,434.44707267,434.564749173,434.431748428
11100000000,111,11100000000,,415.554836874,415.716173208,415.856688802,415.699758254
11200000000,112,11200000000,,427.612857794,427.799700582,427.964785257,427.782186068
11300000000,113,11300000000,,437.339604746,437.554706036,437.746067985,437.536177969
11400000000,114,11400000000,,435.012947694,435.255682625,435.475984867,435.236255723
11501000000,115,11501000000,,431.000986453,431.272560998,431.521500841,431.25228059
11604000000,116,11604000000,,434.643823335,434.94420673,435.219898766,434.923053166
11700000000,117,11700000000,,430.906710063,431.233178345,431.530445139,431.21112607
11800000000,118,11800000000,,430.546449824,430.898521068,431.213044723,430.875568702
11901000000,119,11901000000,,424.975576447,425.346480882,425.679473986,425.322631192
12000000000,120,12000000000,,431.477702469,431.868180173,432.21399406,431.843512202
12100000000,121,12100000000,,432.30762709,432.713000223,433.072934872,432.687585753
12200000000,122,12200000000,,428.657487297,429.066487848,429.433872443,429.040310678
12300000000,123,12300000000,,429.340378119,429.748815674,430.103933224,429.721815771
12400000000,124,12400000000,,436.508828353,436.905043838,437.235271201,436.877127616
12501000000,125,12501000000,,438.104070399,438.480352671,438.784157108,438.451442251
12600000000,126,12600000000,,430.094602388,430.453326072,430.734145007,430.423374802
12701000000,127,12701000000,,436.623259896,436.967121735,437.239950059,436.936091096
12801000000,128,12801000000,,426.658826073,427.00009378,427.268871596,426.967991317
12900000000,129,12900000000,,435.122378184,435.467479749,435.745437402,435.434352995
13000000000,130,13000000000,,435.015117567,435.368537675,435.665109825,435.334420324
13100000000,131,13100000000,,435.678442402,436.0494968,436.36545499,436.014420403
13200000000,132,13200000000,,428.113342784,428.50690317,428.846793419,428.470918493
13305000000,133,13305000000,,433.401511852,433.822023007,434.18866031,433.78518919
13400000000,134,13400000000,,429.005205125,429.452009981,429.844306067,429.414434225
13500000000,135,13500000000,,429.105840804,429.579005099,429.996214084,429.540736528
13600000000,136,13600000000,,439.655956255,440.154799329,440.595049105,440.115876267
13700000000,137,13700000000,,439.733827442,440.263557761,440.730525644,440.224021035
13800000000,138,13800000000,,438.754367909,439.321253305,439.828331406,439.281155548
13900000000,139,13900000000,,445.675728611,446.284314443,446.836678846,446.243701421
14000000000,140,14000000000,,413.73120646,414.384183422,414.974233685,414.343117661
14100000000,141,14100000000,,421.985357318,422.673508057,423.298092215,422.631994736
14200000000,142,14200000000,,441.12210673,441.838711106,442.483681774,441.796774244
14300000000,143,14300000000,,433.918477803,434.650858275,435.309576373,434.608522744
14401000000,144,14401000000,,429.115189297,429.853418196,430.514731954,429.810656993
14500000000,145,14500000000,,437.164394976,437.900264658,438.558045813,437.85706397
14600000000,146,14600000000,,433.98407155,434.709203098,435.357715574,434.665547048
14700000000,147,14700000000,,424.22937197,424.942500039,425.575829881,424.898386706
14800000000,148,14800000000,,435.377776217,436.076109239,436.694104224,436.031532046
14900000000,149,14900000000,,429.770855103,430.454552884,431.05872652,430.409481717
15001000000,150,15001000000,,435.442794848,436.113597949,436.705105068,436.068002547
15101000000,151,15101000000,,429.287341303,429.94643032,430.528775242,429.900357286
15200000000,152,15200000000,,425.043238089,425.696985952,426.271644576,425.650380474
15300000000,153,15300000000,,431.052921355,431.70230385,432.275858637,431.655114732
15400000000,154,15400000000,,426.954452808,427.604501748,428.180148872,427.556710464
15501000000,155,15501000000,,430.868481591,431.522966891,432.104530416,431.474545258
15600000000,156,15600000000,,441.409238911,442.069802875,442.66021346,442.020763994
15700000000,157,15700000000,,433.069363154,433.739440197,434.339401736,433.689819891
15800000000,158,15800000000,,434.923959176,435.604532195,436.215911192,435.554345529
15901000000,159,15901000000,,433.459991211,434.152108649,434.775898692,434.101336378
16000000000,160,16000000000,,421.800397082,422.505384572,423.140977182,422.454036674
16102000000,161,16102000000,,420.26795838,420.985421956,421.633704298,420.933500302
16200000000,162,16200000000,,445.689864583,446.419668741,447.07952397,446.367196206
16300000000,163,16300000000,,432.545516011,433.286761116,433.957864654,433.233717263
16400000000,164,16400000000,,419.461069387,420.21403531,420.894705116,420.160443753
16501000000,165,16501000000,,435.932411903,436.696042496,437.385666941,436.641919967
16600000000,166,16600000000,,419.600561459,420.373377902,421.070895152,420.318746912
16702000000,167,16702000000,,443.274386465,444.055324444,444.760306488,444.00018178
16800000000,168,16800000000,,439.00269575,439.798965235,440.517978139,439.743303537
16900000000,169,16900000000,,436.532073488,437.367473142,438.13067078,437.311274989
17000000000,170,17000000000,,428.806619813,429.691911275,430.534551909,429.635172063
17108000000,171,17108000000,,431.846370254,432.803062644,433.72185435,432.745766765
17201000000,172,17201000000,,434.354537271,435.38625209,436.364697366,435.328462691
17300000000,173,17300000000,,418.295712945,419.382071671,420.441593041,419.323709699
17415000000,174,17415000000,,430.780949657,431.955893846,433.081341753,431.896917359
17500000000,175,17500000000,,426.158410043,427.374178885,428.587562139,427.314416
17600000000,176,17600000000,,442.871984507,444.171482704,445.41643633,444.110820446
17700000000,177,17700000000,,450.390886384,451.724316379,453.011317769,451.662753279
17801000000,178,17801000000,,454.084093258,455.415710748,456.701601235,455.353235069
17902000000,179,17902000000,,449.441166541,450.758420762,451.992442049,450.695495902
18000000000,180,18000000000,,431.143269623,432.464977741,433.606870936,432.400972782
18100000000,181,18100000000,,441.834641169,443.077796686,444.205809504,443.012234541
18200000000,182,18200000000,,447.214214734,448.41611014,449.501144755,448.349074961
18300000000,183,18300000000,,460.042819134,461.234122745,462.259321138,461.165423273
18400000000,184,18400000000,,453.524576153,454.700078226,455.695494341,454.629476671
18500000000,185,18500000000,,465.197030245,466.367448119,467.353877352,466.294837222
18602000000,186,18602000000,,440.301029851,441.472146292,442.469530879,441.397424957
