%time,field.header.seq,field.header.stamp,field.header.frame_id,field.angular_velocities0,field.angular_velocities1,field.angular_velocities2,field.angular_velocities3
118000000,0,118000000,,-1.17006867023e-15,-1.17322519003e-15,-1.17322546752e-15,-1.1700689173e-15
123000000,1,123000000,,-2.35969743957e-15,-2.36165366963e-15,-2.3616538887e-15,-2.35969762823e-15
128000000,2,128000000,,-3.55507475766e-15,-3.55578005574e-15,-3.55608516565e-15,-3.55537988511e-15
174000000,3,174000000,,3.56240244618e-14,3.5699724949e-14,-4.49471536403e-14,-4.50226843817e-14
220000000,4,220000000,,8.62684035202e-05,6.22065517349e-05,-8.62684035314e-05,-6.22065517461e-05
251000000,5,251000000,,9.70381880232e-05,-1.8286884211e-05,-9.70381880357e-05,1.82868841984e-05
329000000,6,329000000,,3.84613285295e-05,-7.3058894288e-06,-3.84613285428e-05,7.30588941556e-06
355000000,7,355000000,,3.08891707757e-05,1.91798301632e-05,-3.08891707892e-05,-1.91798301767e-05
386000000,8,386000000,,1.97363165119e-05,9.99682942141e-06,-1.97363165257e-05,-9.9968294352e-06
412000000,9,412000000,,1.75657323784e-05,5.63745422386e-06,-1.75657323924e-05,-5.6374542379e-06
457000000,10,457000000,,1.71166205411e-05,3.74462708783e-06,-1.71166205552e-05,-3.74462710189e-06
501000000,11,501000000,,1.59470766178e-05,3.29902744095e-06,-1.59470766317e-05,-3.29902745486e-06
545000000,12,545000000,,1.42552133483e-05,3.29522917664e-06,-1.42552133619e-05,-3.29522919023e-06
582000000,13,582000000,,1.25798847398e-05,3.29353258105e-06,-1.2579884753e-05,-3.29353259419e-06
619000000,14,619000000,,1.12249385002e-05,3.20119490517e-06,-1.12249385128e-05,-3.20119491773e-06
652000000,15,652000000,,9.97146478608e-06,3.02552163222e-06,-9.97146479804e-06,-3.02552164417e-06
692000000,16,692000000,,9.37003382385e-06,2.83687140332e-06,-9.37003383516e-06,-2.83687141463e-06
731000000,17,731000000,,8.7762396811e-06,2.64583651633e-06,-8.77623969174e-06,-2.64583652697e-06
777000000,18,777000000,,8.1627719551e-06,2.45401593322e-06,-8.16277196514e-06,-2.45401594326e-06
820000000,19,820000000,,7.53009817157e-06,2.26607630445e-06,-7.53009818108e-06,-2.26607631396e-06
882000000,20,882000000,,6.87592579327e-06,2.0879194613e-06,-6.87592580241e-06,-2.08791947044e-06
909000000,21,909000000,,6.08598210489e-06,1.8784001212e-06,-6.08598211379e-06,-1.8784001301e-06
946000000,22,946000000,,5.46475601908e-06,1.72553204442e-06,-5.46475602787e-06,-1.7255320532e-06
1006000000,23,1006000000,,4.77569204478e-06,1.5641026505e-06,-4.77569205359e-06,-1.56410265931e-06
1025000000,24,1025000000,,3.96573566029e-06,1.37740344744e-06,-3.96573566925e-06,-1.37740345639e-06
1058000000,25,1058000000,,3.29217292348e-06,1.23566571227e-06,-3.29217293267e-06,-1.23566572145e-06
1115000000,26,1115000000,,2.55311325896e-06,1.09430736772e-06,-2.55311326844e-06,-1.0943073772e-06
1151000000,27,1151000000,,1.82148218872e-06,9.6274844861e-07,-1.82148219854e-06,-9.62748458425e-07
1183000000,28,1183000000,,1.1236558859e-06,8.39719835847e-07,-1.12365589597e-06,-8.39719845918e-07
1228000000,29,1228000000,,4.77090838077e-07,7.41098402881e-07,-4.77090848317e-07,-7.41098413117e-07
1254000000,30,1254000000,,-1.05581093035e-07,6.67409009623e-07,1.05581082684e-07,-6.67409019969e-07
1311000000,31,1311000000,,-6.09180138134e-07,6.20364293469e-07,6.09180127709e-07,-6.2036430389e-07
1342000000,32,1342000000,,-1.00662820419e-06,6.10029441225e-07,1.00662819372e-06,-6.10029451682e-07
1381000000,33,1381000000,,-1.26576902975e-06,6.48618436729e-07,1.26576901928e-06,-6.48618447201e-07
1424000000,34,1424000000,,-1.40264151766e-06,7.25981195861e-07,1.40264150718e-06,-7.2598120633e-07
1467000000,35,1467000000,,-1.36166009593e-06,8.64716089057e-07,1.36166008546e-06,-8.6471609953e-07
1501000000,36,1501000000,,-1.16934212765e-06,1.05087988472e-06,1.16934211716e-06,-1.0508798952e-06
1528000000,37,1528000000,,-7.8860234399e-07,1.30011022876e-06,7.88602333477e-07,-1.30011023927e-06
1588000000,38,1588000000,,-2.18345650039e-07,1.60735029524e-06,2.18345639473e-07,-1.60735030581e-06
1634000000,39,1634000000,,5.2484874545e-07,1.972095353e-06,-5.248487561e-07,-1.97209536364e-06
1659000000,40,1659000000,,1.70425796274e-06,2.48129112303e-06,-1.7042579735e-06,-2.48129113379e-06
1700000000,41,1700000000,,2.73313893932e-06,2.92392787996e-06,-2.73313895023e-06,-2.92392789087e-06
1755000000,42,1755000000,,4.03762181838e-06,3.45150449952e-06,-4.03762182947e-06,-3.4515045106e-06
1788000000,43,1788000000,,5.56811561562e-06,4.07815431557e-06,-5.5681156269e-06,-4.07815432685e-06
1807000000,44,1807000000,,7.20890917651e-06,4.70532221704e-06,-7.20890918799e-06,-4.70532222851e-06
1852000000,45,1852000000,,5.40227070792e-06,5.364306845e-06,-5.4022707196e-06,-5.36430685667e-06
1900000000,46,1900000000,,6.37991376702e-06,6.07339333523e-06,-6.37991377888e-06,-6.07339334708e-06
1936000000,47,1936000000,,8.26380787164e-06,6.81223038863e-06,-8.26380788367e-06,-6.81223040065e-06
1983000000,48,1983000000,,1.02341402023e-05,7.56020253643e-06,-1.02341402144e-05,-7.5602025486e-06
2015000000,49,2015000000,,1.20828038793e-05,8.29659950809e-06,-1.20828038916e-05,-8.29659952039e-06
2051000000,50,2051000000,,1.37803920018e-05,9.01094492643e-06,-1.37803920142e-05,-9.01094493886e-06
2086000000,51,2086000000,,1.53043377273e-05,9.67853537531e-06,-1.53043377398e-05,-9.67853538787e-06
2137000000,52,2137000000,,1.66545947567e-05,1.0292973858e-05,-1.66545947694e-05,-1.02929738707e-05
2175000000,53,2175000000,,1.77981694828e-05,1.08210907975e-05,-1.77981694956e-05,-1.08210908103e-05
2237000000,54,2237000000,,1.86898434544e-05,1.12505202788e-05,-1.86898434673e-05,-1.12505202917e-05
2259000000,55,2259000000,,1.93243139471e-05,1.15606566281e-05,-1.93243139601e-05,-1.1560656641e-05
2305000000,56,2305000000,,1.95853995039e-05,1.17176368072e-05,-1.9585399517e-05,-1.17176368203e-05
2328000000,57,2328000000,,1.9505062292e-05,1.17161253791e-05,-1.95050623052e-05,-1.17161253923e-05
2381000000,58,2381000000,,1.91241569309e-05,1.15588991145e-05,-1.91241569442e-05,-1.15588991277e-05
2429000000,59,2429000000,,1.8309725534e-05,1.11873258667e-05,-1.83097255474e-05,-1.118732588e-05
2456000000,60,2456000000,,1.71174279641e-05,1.05988870408e-05,-1.71174279776e-05,-1.05988870543e-05
2509000000,61,2509000000,,1.56235619898e-05,9.85425181402e-06,-1.56235620035e-05,-9.85425182765e-06
2558000000,62,2558000000,,1.35362555248e-05,8.75396548551e-06,-1.35362555386e-05,-8.75396549929e-06
2589000000,63,2589000000,,1.10939312174e-05,7.45479173468e-06,-1.10939312313e-05,-7.45479174858e-06
2619000000,64,2619000000,,8.34434630114e-06,5.93394124076e-06,-8.34434631518e-06,-5.9339412548e-06
2654000000,65,2654000000,,5.2754176553e-06,4.21862689595e-06,-5.27541766946e-06,-4.2186269101e-06
2705000000,66,2705000000,,1.84203445832e-06,2.23124472688e-06,-1.84203447259e-06,-2.23124474114e-06
2743000000,67,2743000000,,-1.84363004978e-06,6.79246325635e-08,1.84363003541e-06,-6.79246469255e-08
2773000000,68,2773000000,,-5.82277054281e-06,-2.33672991872e-06,5.82277052834e-06,2.33672990427e-06
2815000000,69,2815000000,,-9.44377695561e-06,-4.50798591045e-06,9.44377694105e-06,4.50798589589e-06
2862000000,70,2862000000,,-1.41908004184e-05,-7.51300180506e-06,1.41908004038e-05,7.51300179042e-06
2909000000,71,2909000000,,-1.82671639282e-05,-1.01775608419e-05,1.82671639135e-05,1.01775608272e-05
2950000000,72,2950000000,,-2.237541876e-05,-1.29147051162e-05,2.23754187452e-05,1.29147051014e-05
2979000000,73,2979000000,,-3.85601386829e-05,-2.78427407441e-05,3.85601386681e-05,2.78427407292e-05
3031000000,74,3031000000,,-4.57246765051e-05,-3.39219423334e-05,4.57246764901e-05,3.39219423185e-05
3062000000,75,3062000000,,-5.03232736204e-05,-3.76511995863e-05,5.03232736053e-05,3.76511995713e-05
3101000000,76,3101000000,,-5.43830558798e-05,-4.10814924819e-05,5.43830558646e-05,4.10814924668e-05
3142000000,77,3142000000,,-5.83966694354e-05,-4.48034428893e-05,5.83966694203e-05,4.48034428741e-05
3182000000,78,3182000000,,-6.22697801708e-05,-4.87222409124e-05,6.22697801556e-05,4.87222408971e-05
3220000000,79,3220000000,,-6.57956142775e-05,-5.26416211234e-05,6.57956142622e-05,5.26416211081e-05
3262000000,80,3262000000,,-6.87346822427e-05,-5.6397520012e-05,6.87346822273e-05,5.63975199966e-05
3299000000,81,3299000000,,-7.09265972848e-05,-5.98179587785e-05,7.09265972693e-05,5.9817958763e-05
3336000000,82,3336000000,,-7.23523144089e-05,-6.28118807888e-05,7.23523143934e-05,6.28118807733e-05
3381000000,83,3381000000,,-7.28096847319e-05,-6.5225899194e-05,7.28096847163e-05,6.52258991784e-05
3423000000,84,3423000000,,-7.20485795561e-05,-6.68057594899e-05,7.20485795405e-05,6.68057594742e-05
3465000000,85,3465000000,,-4.33254394563e-05,-5.06254043691e-05,4.33254394406e-05,5.06254043534e-05
3502000000,86,3502000000,,-2.42617442154e-05,-3.79008084508e-05,2.42617441996e-05,3.7900808435e-05
3555000000,87,3555000000,,-1.06057822726e-05,-2.76067043967e-05,1.06057822567e-05,2.76067043809e-05
3580000000,88,3580000000,,-1.26289917302e-06,-1.91374756325e-05,1.26289915706e-06,1.91374756165e-05
3616000000,89,3616000000,,5.01565865271e-06,-1.14318966937e-05,-5.01565866873e-06,1.14318966776e-05
3652000000,90,3652000000,,2.77064312962e-06,-5.66820650196e-06,-2.7706431457e-06,5.66820648589e-06
3702000000,91,3702000000,,1.09755411632e-06,5.78948637026e-09,-1.09755413243e-06,-5.78950247373e-09
3741000000,92,3741000000,,-9.75520262769e-06,-1.759946921e-05,9.75520261155e-06,1.75994691939e-05
3777000000,93,3777000000,,-8.86640279984e-06,-1.9233051162e-05,8.86640278369e-06,1.92330511459e-05
3841000000,94,3841000000,,-4.57476407306e-06,-1.51459708636e-05,4.5747640569e-06,1.51459708475e-05
3858000000,95,3858000000,,5.01088814898e-07,-9.18823274337e-06,-5.0108883109e-07,9.18823272719e-06
3925000000,96,3925000000,,4.54858954722e-06,-3.83717572675e-06,-4.54858956345e-06,3.83717571053e-06
3932000000,97,3932000000,,8.91955105604e-06,3.02384960335e-06,-8.91955107232e-06,-3.02384961963e-06
3985000000,98,3985000000,,1.25557489179e-05,9.32582127364e-06,-1.25557489343e-05,-9.32582128997e-06
4011000000,99,4011000000,,1.62039463015e-05,1.62414228309e-05,-1.62039463179e-05,-1.62414228473e-05
4077000000,100,4077000000,,1.95835086001e-05,2.36843161497e-05,-1.95835086165e-05,-2.36843161662e-05
4091000000,101,4091000000,,2.25371470811e-05,3.15150497717e-05,-2.25371470976e-05,-3.15150497882e-05
4139000000,102,4139000000,,2.49384265228e-05,3.92534331758e-05,-2.49384265393e-05,-3.92534331924e-05
4173000000,103,4173000000,,2.66738314446e-05,4.68825019724e-05,-2.66738314613e-05,-4.6882501989e-05
4213000000,104,4213000000,,2.76461411553e-05,5.4176357007e-05,-2.7646141172e-05,-5.41763570236e-05
4257000000,105,4257000000,,2.77817551432e-05,6.09499516737e-05,-2.77817551599e-05,-6.09499516904e-05
4320000000,106,4320000000,,2.70416411497e-05,6.69667918824e-05,-2.70416411664e-05,-6.69667918992e-05
4344000000,107,4344000000,,2.11725550253e-06,5.59601724013e-05,-2.11725551931e-06,-5.5960172418e-05
4373000000,108,4373000000,,-1.31850835801e-05,4.64750618647e-05,1.31850835633e-05,-4.64750618815e-05
4430000000,109,4430000000,,-2.23368039468e-05,3.76391111361e-05,2.23368039299e-05,-3.76391111529e-05
4470000000,110,4470000000,,-2.78249314448e-05,3.04626869174e-05,2.78249314279e-05,-3.04626869342e-05
4511000000,111,4511000000,,-3.00371572561e-05,2.26592876225e-05,3.00371572392e-05,-2.26592876394e-05
4548000000,112,4548000000,,-3.10096927032e-05,1.64982490994e-05,3.10096926863e-05,-1.64982491163e-05
4583000000,113,4583000000,,-3.04774821234e-05,9.72394758483e-06,3.04774821065e-05,-9.72394760173e-06
4637000000,114,4637000000,,-2.92601187884e-05,4.74806856184e-06,2.92601187715e-05,-4.74806857874e-06
4669000000,115,4669000000,,-2.75312467495e-05,-6.96770378759e-07,2.75312467326e-05,6.96770361834e-07
4692000000,116,4692000000,,-2.53241009134e-05,-4.85009958002e-06,2.53241008965e-05,4.85009956307e-06
4730000000,117,4730000000,,-2.90553732322e-05,1.58359638546e-05,2.90553732152e-05,-1.58359638715e-05
4780000000,118,4780000000,,-3.15100344294e-05,1.83185212421e-05,3.15100344123e-05,-1.83185212592e-05
4820000000,119,4820000000,,-3.31171282881e-05,1.45963114646e-05,3.3117128271e-05,-1.45963114817e-05
4859000000,120,4859000000,,-2.94582038909e-05,1.37397461623e-05,2.94582038738e-05,-1.37397461794e-05
4896000000,121,4896000000,,-2.87259193013e-05,8.88025819404e-06,2.87259192841e-05,-8.8802582112e-06
4940000000,122,4940000000,,-2.83446180298e-05,2.52014675477e-06,2.83446180126e-05,-2.52014677196e-06
4971000000,123,4971000000,,-2.73816628092e-05,-4.51052501627e-06,2.73816627919e-05,4.51052499906e-06
5020000000,124,5020000000,,-2.55228686745e-05,-1.19302045362e-05,2.55228686573e-05,1.1930204519e-05
5065000000,125,5065000000,,-2.26444458686e-05,-1.96976335787e-05,2.26444458514e-05,1.96976335614e-05
5131000000,126,5131000000,,-1.88616116336e-05,-2.759583291e-05,1.88616116163e-05,2.75958328927e-05
5153000000,127,5153000000,,-1.29181228733e-05,-3.66108828778e-05,1.2918122856e-05,3.66108828606e-05
5194000000,128,5194000000,,-8.05658441091e-06,-4.35591222315e-05,8.05658439361e-06,4.35591222142e-05
5217000000,129,5217000000,,-1.88953913443e-06,-5.04903320755e-05,1.88953911711e-06,5.04903320582e-05
5253000000,130,5253000000,,5.12010928486e-06,-5.70556381056e-05,-5.12010930219e-06,5.70556380883e-05
5291000000,131,5291000000,,1.30635586446e-05,-6.294228053e-05,-1.3063558662e-05,6.29422805126e-05
5337000000,132,5337000000,,4.28586329081e-05,-5.13335120635e-05,-4.28586329254e-05,5.13335120462e-05
5373000000,133,5373000000,,5.87160331055e-05,-4.1332553142e-05,-5.87160331228e-05,4.13325531247e-05
5418000000,134,5418000000,,6.69671078166e-05,-3.3064646565e-05,-6.69671078339e-05,3.30646465476e-05
5452000000,135,5452000000,,6.98175422583e-05,-2.56518324851e-05,-6.98175422757e-05,2.56518324677e-05
5539000000,136,5539000000,,6.9466549929e-05,-1.95244994829e-05,-6.94665499464e-05,1.95244994655e-05
5554000000,137,5554000000,,6.29539046393e-05,-1.17144220444e-05,-6.29539046567e-05,1.1714422027e-05
5584000000,138,5584000000,,5.96927876342e-05,-6.31778995574e-06,-5.96927876516e-05,6.31778993832e-06
5620000000,139,5620000000,,5.52127120819e-05,-1.59035568494e-06,-5.52127120993e-05,1.59035566749e-06
5660000000,140,5660000000,,5.04572371681e-05,3.11346561834e-06,-5.04572371855e-05,-3.11346563581e-06
5700000000,141,5700000000,,4.5182463351e-05,6.56241088307e-06,-4.51824633685e-05,-6.56241090053e-06
5729000000,142,5729000000,,4.06470386321e-05,1.02015872392e-05,-4.06470386495e-05,-1.02015872566e-05
5774000000,143,5774000000,,3.49035008816e-05,1.24468686508e-05,-3.4903500899e-05,-1.24468686682e-05
5812000000,144,5812000000,,3.09051405039e-05,1.4697128889e-05,-3.09051405214e-05,-1.46971289065e-05
5860000000,145,5860000000,,2.594425056e-05,1.63613613638e-05,-2.59442505775e-05,-1.63613613813e-05
5913000000,146,5913000000,,2.22225733297e-05,1.74465889218e-05,-2.22225733472e-05,-1.74465889393e-05
5948000000,147,5948000000,,1.7913645621e-05,1.83287021578e-05,-1.79136456385e-05,-1.83287021753e-05
5967000000,148,5967000000,,3.96214231635e-05,1.76626507774e-05,-3.96214231811e-05,-1.76626507949e-05
6045000000,149,6045000000,,4.33758453676e-05,2.04296758912e-05,-4.33758453852e-05,-2.04296759088e-05
6068000000,150,6068000000,,4.22115001523e-05,2.39373863949e-05,-4.22115001698e-05,-2.39373864125e-05
6110000000,151,6110000000,,3.70934117227e-05,2.74484466779e-05,-3.70934117403e-05,-2.74484466955e-05
6146000000,152,6146000000,,3.12935247738e-05,3.0524650527e-05,-3.12935247914e-05,-3.05246505446e-05
6181000000,153,6181000000,,2.49442778316e-05,3.31859291754e-05,-2.49442778492e-05,-3.3185929193e-05
6216000000,154,6216000000,,-6.47370887106e-06,2.13725086957e-05,6.47370885345e-06,-2.13725087133e-05
6262000000,155,6262000000,,-2.55495683303e-05,1.27567226909e-05,2.55495683127e-05,-1.27567227085e-05
6297000000,156,6297000000,,-3.82109621721e-05,6.98463402204e-06,3.82109621544e-05,-6.98463403969e-06
6352000000,157,6352000000,,-4.52721538518e-05,2.49314086215e-06,4.52721538341e-05,-2.49314087984e-06
6382000000,158,6382000000,,-3.67613811854e-05,2.05165763645e-05,3.67613811677e-05,-2.05165763822e-05
6412000000,159,6412000000,,-4.08028654544e-05,2.49814033408e-05,4.08028654366e-05,-2.49814033585e-05
6458000000,160,6458000000,,-4.84327645968e-05,2.47499290294e-05,4.8432764579e-05,-2.47499290472e-05
6491000000,161,6491000000,,-5.64710420475e-05,2.22272587674e-05,5.64710420297e-05,-2.22272587852e-05
6570000000,162,6570000000,,-6.3569427412e-05,1.92948517564e-05,6.35694273942e-05,-1.92948517741e-05
6606000000,163,6606000000,,-6.99087855932e-05,1.46240852809e-05,6.99087855754e-05,-1.46240852986e-05
6615000000,164,6615000000,,-5.55758215786e-05,-1.23874701441e-05,5.55758215608e-05,1.23874701264e-05
6663000000,165,6663000000,,-4.41800281143e-05,-2.78939956682e-05,4.41800280966e-05,2.78939956504e-05
6688000000,166,6688000000,,-3.68136282795e-05,-3.79785787427e-05,3.68136282617e-05,3.7978578725e-05
6747000000,167,6747000000,,-3.04471021995e-05,-4.32325978303e-05,3.04471021819e-05,4.32325978126e-05
6779000000,168,6779000000,,-2.51636837037e-05,-4.61911436542e-05,2.51636836861e-05,4.61911436365e-05
6822000000,169,6822000000,,-2.14963174512e-05,-4.66439945121e-05,2.14963174336e-05,4.66439944945e-05
6852000000,170,6852000000,,-1.8602907959e-05,-4.50097285616e-05,1.86029079414e-05,4.5009728544e-05
6901000000,171,6901000000,,-1.69777710732e-05,-4.25342564227e-05,1.69777710555e-05,4.25342564051e-05
6940000000,172,6940000000,,-1.4511363259e-05,-3.94775701068e-05,1.45113632413e-05,3.94775700891e-05
6979000000,173,6979000000,,-3.440301177e-05,-4.80736609938e-05,3.44030117524e-05,4.80736609761e-05
7020000000,174,7020000000,,-3.89655987533e-05,-5.27407394318e-05,3.89655987356e-05,5.27407394141e-05
7060000000,175,7060000000,,-3.71082900951e-05,-5.45334155044e-05,3.71082900774e-05,5.45334154867e-05
7098000000,176,7098000000,,-1.53422822398e-05,-3.15625887023e-05,1.5342282222e-05,3.15625886845e-05
7140000000,177,7140000000,,-1.96761123976e-06,-1.53868627967e-05,1.967611222e-06,1.5386862779e-05
7176000000,178,7176000000,,7.29546016723e-06,-3.70895111956e-06,-7.29546018501e-06,3.7089511018e-06
7221000000,179,7221000000,,1.27470491118e-05,4.84198901132e-06,-1.27470491296e-05,-4.84198902909e-06
7261000000,180,7261000000,,1.60924310875e-05,1.18513364131e-05,-1.60924311053e-05,-1.18513364309e-05
7308000000,181,7308000000,,1.80607279302e-05,1.65204953977e-05,-1.8060727948e-05,-1.65204954154e-05
7342000000,182,7342000000,,1.37449455443e-05,-4.74345635686e-06,-1.37449455621e-05,4.7434563391e-06
7389000000,183,7389000000,,1.62836544394e-05,-7.38337780861e-06,-1.62836544572e-05,7.38337779086e-06
7435000000,184,7435000000,,2.06611062034e-05,-3.5882004656e-06,-2.06611062212e-05,3.58820044785e-06
7451000000,185,7451000000,,2.50584890757e-05,1.81563019046e-06,-2.50584890934e-05,-1.81563020819e-06
7512000000,186,7512000000,,2.88956668308e-05,7.59769383262e-06,-2.88956668485e-05,-7.59769385033e-06
7542000000,187,7542000000,,3.2229811304e-05,1.36218142845e-05,-3.22298113217e-05,-1.36218143022e-05
7572000000,188,7572000000,,3.48300887657e-05,2.01939150143e-05,-3.48300887834e-05,-2.0193915032e-05
7630000000,189,7630000000,,3.68140098756e-05,2.70821043692e-05,-3.68140098933e-05,-2.70821043868e-05
7663000000,190,7663000000,,3.80434937203e-05,3.43974793665e-05,-3.8043493738e-05,-3.43974793842e-05
7692000000,191,7692000000,,-0.000199417595591,4.26954402385e-05,0.000199417595574,-4.26954402561e-05
7751000000,192,7751000000,,-0.000578156637732,5.34008769487e-05,0.000578156637715,-5.34008769663e-05
7779000000,193,7779000000,,-0.000993344791131,5.8427838644e-05,0.000993344791114,-5.84278386617e-05
7815000000,194,7815000000,,-0.00140083981596,6.01028638191e-05,0.00140083981594,-6.01028638367e-05
7863000000,195,7863000000,,-0.00174943018826,6.83976383795e-05,0.00174943018824,-6.83976383971e-05
7897000000,196,7897000000,,-0.00211830491008,6.32434619139e-05,0.00211830491006,-6.32434619316e-05
7929000000,197,7929000000,,-0.00230340170296,5.50921420766e-05,0.00230340170294,-5.50921420943e-05
7975000000,198,7975000000,,-0.00242546649112,4.78335997165e-05,0.0024254664911,-4.78335997342e-05
8030000000,199,8030000000,,-0.002508862599,4.13421079285e-05,0.00250886259898,-4.13421079462e-05
8048000000,200,8048000000,,-0.00248578238493,3.4047712806e-05,0.00248578238491,-3.40477128238e-05
8101000000,201,8101000000,,-0.0024115048866,2.82007713138e-05,0.00241150488658,-2.82007713316e-05
8130000000,202,8130000000,,-0.00228048520019,2.06686939281e-05,0.00228048520017,-2.06686939458e-05
8186000000,203,8186000000,,-0.00204726244515,1.59465764481e-05,0.00204726244513,-1.59465764659e-05
8226000000,204,8226000000,,-0.00181473435412,1.03512946129e-05,0.0018147343541,-1.03512946307e-05
8263000000,205,8263000000,,-0.00144748521018,6.24353197573e-06,0.00144748521016,-6.24353199346e-06
8289000000,206,8289000000,,-0.00113539665495,1.95811779138e-06,0.00113539665493,-1.95811780909e-06
8347000000,207,8347000000,,-0.000711911027814,-1.11639726233e-06,0.000711911027797,1.11639724465e-06
8380000000,208,8380000000,,-0.000313433104534,-3.90622413232e-06,0.000313433104517,3.90622411465e-06
8440000000,209,8440000000,,4.31783971032e-05,-6.67758875136e-06,-4.31783971208e-05,6.67758873371e-06
8465000000,210,8465000000,,0.000550369812727,-7.83706050088e-06,-0.000550369812745,7.83706048322e-06
8503000000,211,8503000000,,0.00102147673476,-4.00777435126e-06,-0.00102147673478,4.0077743336e-06
8544000000,212,8544000000,,0.00157082458302,-1.42256547211e-06,-0.00157082458304,1.42256545445e-06
8584000000,213,8584000000,,0.0020327787644,4.94087461705e-07,-0.00203277876442,-4.94087479362e-07
8616000000,214,8616000000,,0.0026074440813,2.04240960986e-06,-0.00260744408131,-2.04240962752e-06
8665000000,215,8665000000,,0.0030931359074,3.5367775055e-06,-0.00309313590742,-3.53677752314e-06
8702000000,216,8702000000,,0.00365474119868,4.63493426446e-06,-0.0036547411987,-4.63493428208e-06
8731000000,217,8731000000,,0.00416098950387,6.26297661384e-06,-0.00416098950389,-6.26297663143e-06
8788000000,218,8788000000,,0.0047093435133,7.91281108122e-06,-0.00470934351332,-7.91281109877e-06
8820000000,219,8820000000,,0.00523115523921,9.57915258404e-06,-0.00523115523923,-9.57915260158e-06
8860000000,220,8860000000,,0.0057416721949,1.17155912846e-05,-0.00574167219492,-1.17155913021e-05
8897000000,221,8897000000,,0.00627622784363,1.34045454952e-05,-0.00627622784365,-1.34045455127e-05
8953000000,222,8953000000,,0.00677278196748,1.57073077577e-05,-0.00677278196749,-1.57073077752e-05
8987000000,223,8987000000,,0.00729975290833,1.76960101792e-05,-0.00729975290834,-1.76960101966e-05
9027000000,224,9027000000,,0.00779645480098,2.01031644827e-05,-0.007796454801,-2.01031645001e-05
9064000000,225,9064000000,,0.00830422565419,2.23676776665e-05,-0.00830422565421,-2.23676776839e-05
9102000000,226,9102000000,,0.00879544607819,2.47483658005e-05,-0.0087954460782,-2.4748365818e-05
9142000000,227,9142000000,,0.00928352726497,2.71376443737e-05,-0.00928352726499,-2.71376443912e-05
9175000000,228,9175000000,,0.00977241912578,1.71036914709e-05,-0.0097724191258,-1.71036914884e-05
9213000000,229,9213000000,,0.0102374113273,2.60519812407e-05,-0.0102374113273,-2.60519812581e-05
9259000000,230,9259000000,,0.0106782508489,3.27422418492e-05,-0.0106782508489,-3.27422418666e-05
9298000000,231,9298000000,,0.011132092669,3.81110776916e-05,-0.011132092669,-3.81110777091e-05
9353000000,232,9353000000,,0.0115543920931,4.20829130283e-05,-0.0115543920931,-4.20829130457e-05
9386000000,233,9386000000,,0.0119949208462,4.56851354959e-05,-0.0119949208463,-4.56851355133e-05
9438000000,234,9438000000,,0.0123946456656,4.85193806384e-05,-0.0123946456656,-4.85193806558e-05
9456000000,235,9456000000,,0.0128165485746,5.10527078242e-05,-0.0128165485746,-5.10527078415e-05
9502000000,236,9502000000,,0.0132032070915,5.31870001557e-05,-0.0132032070915,-5.3187000173e-05
9541000000,237,9541000000,,0.0135903390916,5.49005669648e-05,-0.0135903390916,-5.49005669821e-05
9581000000,238,9581000000,,0.0139709699654,5.64676478662e-05,-0.0139709699654,-5.64676478835e-05
9627000000,239,9627000000,,0.0143492085534,5.77099801791e-05,-0.0143492085535,-5.77099801964e-05
9658000000,240,9658000000,,0.0147351558707,5.8638556208e-05,-0.0147351558707,-5.86385562252e-05
9699000000,241,9699000000,,0.0150941045358,5.98013871402e-05,-0.0150941045358,-5.98013871574e-05
9734000000,242,9734000000,,0.0154804021353,6.06909542468e-05,-0.0154804021353,-6.06909542639e-05
9774000000,243,9774000000,,0.0158331525692,6.18654920381e-05,-0.0158331525692,-6.18654920552e-05
9812000000,244,9812000000,,0.0162063970747,6.26476351333e-05,-0.0162063970747,-6.26476351504e-05
9850000000,245,9850000000,,0.0165540807201,6.37839333599e-05,-0.0165540807201,-6.3783933377e-05
9897000000,246,9897000000,,0.0169208792505,6.4746954639e-05,-0.0169208792505,-6.47469546561e-05
9936000000,247,9936000000,,0.0172687524917,6.5756380809e-05,-0.0172687524918,-6.57563808261e-05
9985000000,248,9985000000,,0.0176214998351,6.68026217233e-05,-0.0176214998351,-6.68026217403e-05
10020000000,249,10020000000,,0.0179697740486,6.79832486118e-05,-0.0179697740486,-6.79832486288e-05
10057000000,250,10057000000,,0.0183187599637,6.91678018569e-05,-0.0183187599637,-6.91678018739e-05
10106000000,251,10106000000,,0.0186587792536,7.06265216809e-05,-0.0186587792536,-7.0626521698e-05
10139000000,252,10139000000,,0.0192507155925,7.17924047288e-05,-0.0192507155925,-7.17924047458e-05
10178000000,253,10178000000,,0.0199619119035,7.28441327503e-05,-0.0199619119036,-7.28441327673e-05
10217000000,254,10217000000,,0.0207016379656,7.43259944903e-05,-0.0207016379657,-7.43259945072e-05
10267000000,255,10267000000,,0.021428128457,7.5704778066e-05,-0.021428128457,-7.5704778083e-05
10295000000,256,10295000000,,0.022116952238,7.7333916129e-05,-0.022116952238,-7.7333916146e-05
10337000000,257,10337000000,,0.022758136598,7.89256432447e-05,-0.022758136598,-7.89256432616e-05
10374000000,258,10374000000,,0.0233240832073,8.06489789884e-05,-0.0233240832073,-8.06489790052e-05
10425000000,259,10425000000,,0.0238604549592,8.2502373536e-05,-0.0238604549592,-8.25023735529e-05
10451000000,260,10451000000,,0.0242813278785,8.43091158484e-05,-0.0242813278785,-8.43091158652e-05
10502000000,261,10502000000,,0.0246039765033,8.62685629292e-05,-0.0246039765034,-8.6268562946e-05
10547000000,262,10547000000,,0.0249016387472,8.81371164079e-05,-0.0249016387472,-8.81371164247e-05
10586000000,263,10586000000,,0.0250864632983,9.0169308391e-05,-0.0250864632984,-9.01693084077e-05
10635000000,264,10635000000,,0.0252652143176,9.20724389394e-05,-0.0252652143177,-9.20724389561e-05
10656000000,265,10656000000,,0.0253601657349,9.41166507669e-05,-0.0253601657349,-9.41166507837e-05
10702000000,266,10702000000,,0.0254626729247,9.60235135966e-05,-0.0254626729247,-9.60235136134e-05
10744000000,267,10744000000,,0.0254842299956,9.80176201049e-05,-0.0254842299956,-9.80176201216e-05
10783000000,268,10783000000,,0.025485523816,0.000100004787604,-0.025485523816,-0.00010000478762
10816000000,269,10816000000,,0.0254871445751,0.000101852052997,-0.0254871445751,-0.000101852053014
10859000000,270,10859000000,,0.0254240128581,0.000103795021652,-0.0254240128581,-0.000103795021668
10900000000,271,10900000000,,0.025411837033,0.000105552533354,-0.025411837033,-0.00010555253337
10942000000,272,10942000000,,0.0252710659934,0.000107364594224,-0.0252710659934,-0.000107364594241
10978000000,273,10978000000,,0.0252113943286,0.000109068580484,-0.0252113943286,-0.0001090685805
11020000000,274,11020000000,,0.0250475828272,0.000110817603184,-0.0250475828272,-0.0001108176032
11062000000,275,11062000000,,0.0249506154681,0.000112381228305,-0.0249506154681,-0.000112381228322
11101000000,276,11101000000,,0.024794361498,0.000113982792022,-0.0247943614981,-0.000113982792039
11141000000,277,11141000000,,0.0246664984224,0.000115447618097,-0.0246664984224,-0.000115447618113
11182000000,278,11182000000,,0.0245304514865,0.000116838301078,-0.0245304514865,-0.000116838301095
11221000000,279,11221000000,,0.0243767259415,0.000118310597141,-0.0243767259415,-0.000118310597158
11261000000,280,11261000000,,0.0242528179461,0.000115802499954,-0.0242528179461,-0.000115802499971
11303000000,281,11303000000,,0.0240772249376,0.000114849173826,-0.0240772249376,-0.000114849173842
11355000000,282,11355000000,,0.0239490535575,0.000114521746992,-0.0239490535575,-0.000114521747008
11405000000,283,11405000000,,0.0237851282131,0.000114952401813,-0.0237851282131,-0.000114952401829
11423000000,284,11423000000,,0.0236526977623,0.00011541794021,-0.0236526977623,-0.000115417940227
11463000000,285,11463000000,,0.0235036328287,0.000116441424605,-0.0235036328288,-0.000116441424621
11502000000,286,11502000000,,0.0233869211714,0.000117493542802,-0.0233869211715,-0.000117493542818
11540000000,287,11540000000,,0.0233054798408,0.000118660494416,-0.0233054798408,-0.000118660494432
11617000000,288,11617000000,,0.0232523904933,0.000120159380777,-0.0232523904933,-0.000120159380793
11644000000,289,11644000000,,0.0231462909618,0.000123346615468,-0.0231462909618,-0.000123346615484
11672000000,290,11672000000,,0.0230320824833,0.000123932935406,-0.0230320824833,-0.000123932935422
11712000000,291,11712000000,,0.0229202229703,0.000124374672351,-0.0229202229703,-0.000124374672368
11749000000,292,11749000000,,0.0228389509268,0.000125223237426,-0.0228389509268,-0.000125223237443
11769000000,293,11769000000,,0.022758702775,0.000124900600938,-0.022758702775,-0.000124900600955
11811000000,294,11811000000,,0.0227067270654,0.000125274095564,-0.0227067270654,-0.00012527409558
11850000000,295,11850000000,,0.0226433623611,0.000125796469454,-0.0226433623612,-0.00012579646947
11889000000,296,11889000000,,0.0226017840073,0.000126655876065,-0.0226017840074,-0.000126655876081
11931000000,297,11931000000,,0.0225574112193,0.000127523497628,-0.0225574112193,-0.000127523497644
11969000000,298,11969000000,,0.0225174408258,0.000125134537175,-0.0225174408258,-0.000125134537192
12035000000,299,12035000000,,0.0224905987811,0.00012414006196,-0.0224905987811,-0.000124140061976
12075000000,300,12075000000,,0.0224561975866,0.000123918521694,-0.0224561975866,-0.00012391852171
12111000000,301,12111000000,,0.0224564436434,0.000124398831578,-0.0224564436434,-0.000124398831595
12136000000,302,12136000000,,0.0226732261047,0.00012510402656,-0.0226732261047,-0.000125104026576
12184000000,303,12184000000,,0.0230348266554,0.000126529936052,-0.0230348266554,-0.000126529936068
12221000000,304,12221000000,,0.023417274175,0.000127934765167,-0.023417274175,-0.000127934765183
12281000000,305,12281000000,,0.0238109482045,0.000129594842236,-0.0238109482045,-0.000129594842252
12303000000,306,12303000000,,0.0242164231706,0.000131355056001,-0.0242164231706,-0.000131355056017
12348000000,307,12348000000,,0.0244970002521,0.000133042028429,-0.0244970002521,-0.000133042028445
12398000000,308,12398000000,,0.0247055476959,0.000134701206551,-0.0247055476959,-0.000134701206567
12432000000,309,12432000000,,0.0248752176405,0.000136432730242,-0.0248752176406,-0.000136432730258
12476000000,310,12476000000,,0.0249219303071,0.000138128194754,-0.0249219303071,-0.00013812819477
12513000000,311,12513000000,,0.02494681892,0.000139743187396,-0.02494681892,-0.000139743187412
12550000000,312,12550000000,,0.0248423698365,0.00014125076665,-0.0248423698365,-0.000141250766666
12588000000,313,12588000000,,0.0247199926432,0.000142762306066,-0.0247199926433,-0.000142762306082
12631000000,314,12631000000,,0.0244694529336,0.000144131130911,-0.0244694529336,-0.000144131130927
12661000000,315,12661000000,,0.0242319771096,0.000145351391504,-0.0242319771097,-0.000145351391519
12701000000,316,12701000000,,0.0238952327542,0.000146446056026,-0.0238952327542,-0.000146446056042
12747000000,317,12747000000,,0.0235576202159,0.000147507068869,-0.023557620216,-0.000147507068885
12779000000,318,12779000000,,0.0231712206817,0.000148183065221,-0.0231712206817,-0.000148183065237
12821000000,319,12821000000,,0.0227395815878,0.000149259848372,-0.0227395815879,-0.000149259848387
12859000000,320,12859000000,,0.0223488117039,0.000149366796239,-0.0223488117039,-0.000149366796255
12889000000,321,12889000000,,0.0218351886263,0.000149874956475,-0.0218351886263,-0.000149874956491
12928000000,322,12928000000,,0.0214058775179,0.000150374868091,-0.0214058775179,-0.000150374868107
12973000000,323,12973000000,,0.0208691113767,0.000150648860224,-0.0208691113768,-0.000150648860239
13027000000,324,13027000000,,0.0203908815526,0.000151075165858,-0.0203908815526,-0.000151075165874
13053000000,325,13053000000,,0.0198235379599,0.000151364962586,-0.01982353796,-0.000151364962601
13100000000,326,13100000000,,0.0193200450105,0.000151601733658,-0.0193200450105,-0.000151601733674
13139000000,327,13139000000,,0.0187608459906,0.000151526274178,-0.0187608459906,-0.000151526274194
13179000000,328,13179000000,,0.01820795575,0.000151845119905,-0.0182079557501,-0.000151845119921
13259000000,329,13259000000,,0.0176822237407,0.00015108207179,-0.0176822237407,-0.000151082071805
13275000000,330,13275000000,,0.017082740444,0.000150587377051,-0.017082740444,-0.000150587377067
13296000000,331,13296000000,,0.0165566439365,0.000150286729087,-0.0165566439365,-0.000150286729102
13334000000,332,13334000000,,0.015970597561,0.000149912942968,-0.015970597561,-0.000149912942984
13369000000,333,13369000000,,0.015437127494,0.000149560794254,-0.015437127494,-0.00014956079427
13432000000,334,13432000000,,0.0148669828509,0.00014924162123,-0.0148669828509,-0.000149241621245
13464000000,335,13464000000,,0.0143331711165,0.000148732813755,-0.0143331711165,-0.00014873281377
13488000000,336,13488000000,,0.0137898639319,0.000148193273756,-0.0137898639319,-0.000148193273771
13534000000,337,13534000000,,0.013262122685,0.000147653078018,-0.013262122685,-0.000147653078034
13571000000,338,13571000000,,0.0127413448681,0.000146907634563,-0.0127413448681,-0.000146907634579
13618000000,339,13618000000,,0.0119886939317,0.000146306514454,-0.0119886939317,-0.00014630651447
13660000000,340,13660000000,,0.0111325548288,0.000145475715409,-0.0111325548288,-0.000145475715424
13705000000,341,13705000000,,0.0102502614996,0.000144788554391,-0.0102502614996,-0.000144788554406
13739000000,342,13739000000,,0.00938615791159,0.00014380602418,-0.00938615791161,-0.000143806024196
13782000000,343,13782000000,,0.00858892450227,0.00014303414533,-0.00858892450228,-0.000143034145345
13810000000,344,13810000000,,0.0078364807372,0.000141901518819,-0.00783648073721,-0.000141901518835
13854000000,345,13854000000,,0.007184294914,0.000141020162258,-0.00718429491402,-0.000141020162274
13915000000,346,13915000000,,0.00660868813273,0.000139783573203,-0.00660868813274,-0.000139783573218
13954000000,347,13954000000,,0.00613308896161,0.000138996930457,-0.00613308896162,-0.000138996930472
13977000000,348,13977000000,,0.00573988732286,0.000137465118075,-0.00573988732287,-0.00013746511809
14020000000,349,14020000000,,0.00537854121331,0.000137137939528,-0.00537854121333,-0.000137137939543
14057000000,350,14057000000,,0.00517426926881,0.000137005607688,-0.00517426926882,-0.000137005607703
14105000000,351,14105000000,,0.00493742117271,0.000135699954264,-0.00493742117273,-0.000135699954278
14146000000,352,14146000000,,0.00481796940972,0.000135526359366,-0.00481796940973,-0.000135526359381
14190000000,353,14190000000,,0.00469158840455,0.000134270280432,-0.00469158840457,-0.000134270280447
14223000000,354,14223000000,,0.00469459055075,0.00013380908646,-0.00469459055076,-0.000133809086475
14266000000,355,14266000000,,0.0046622658223,0.000132577866893,-0.00466226582231,-0.000132577866908
14305000000,356,14305000000,,0.00470044493611,0.000132629405891,-0.00470044493613,-0.000132629405906
14343000000,357,14343000000,,0.00473903570585,0.00013108087159,-0.00473903570587,-0.000131080871605
14388000000,358,14388000000,,0.00477927162725,0.000132422381805,-0.00477927162726,-0.00013242238182
14422000000,359,14422000000,,0.0049219419735,0.000132809023876,-0.00492194197352,-0.000132809023891
14464000000,360,14464000000,,0.00496660188174,0.000132163077059,-0.00496660188175,-0.000132163077074
14503000000,361,14503000000,,0.00514796356392,0.000132843073013,-0.00514796356394,-0.000132843073028
14542000000,362,14542000000,,0.0052351407601,0.000131912774788,-0.00523514076011,-0.000131912774803
14573000000,363,14573000000,,0.00541869585569,0.000131959469539,-0.00541869585571,-0.000131959469554
14632000000,364,14632000000,,0.00552682578014,0.00013132107422,-0.00552682578016,-0.000131321074235
14655000000,365,14655000000,,0.00569314621773,0.000131521557607,-0.00569314621774,-0.000131521557622
14714000000,366,14714000000,,0.00583261434514,0.000130608473564,-0.00583261434516,-0.000130608473579
14735000000,367,14735000000,,0.0059729482755,0.000131497530141,-0.00597294827551,-0.000131497530155
14771000000,368,14771000000,,0.00611734336585,0.000131664905084,-0.00611734336586,-0.000131664905098
14826000000,369,14826000000,,0.006219329107,0.000132289159508,-0.00621932910701,-0.000132289159523
14872000000,370,14872000000,,0.00637085558434,0.00013264291193,-0.00637085558435,-0.000132642911944
14890000000,371,14890000000,,0.0064788817305,0.000133149827646,-0.00647888173052,-0.000133149827661
14934000000,372,14934000000,,0.00662874619501,0.000133834275913,-0.00662874619503,-0.000133834275927
14979000000,373,14979000000,,0.00671317293113,0.00013433934477,-0.00671317293114,-0.000134339344784
15011000000,374,15011000000,,0.00677611062558,0.00013504046365,-0.00677611062559,-0.000135040463665
15070000000,375,15070000000,,0.00688314921349,0.000132771827883,-0.00688314921351,-0.000132771827898
15112000000,376,15112000000,,0.00700307129814,0.000135026238835,-0.00700307129816,-0.00013502623885
15149000000,377,15149000000,,0.00703158395956,0.000136616358677,-0.00703158395958,-0.000136616358691
15181000000,378,15181000000,,0.00707187244354,0.000137294913787,-0.00707187244356,-0.000137294913801
15244000000,379,15244000000,,0.00709057081665,0.000138148532994,-0.00709057081667,-0.000138148533008
15269000000,380,15269000000,,0.0071011080617,0.000139340942905,-0.00710110806172,-0.000139340942919
15300000000,381,15300000000,,0.00711889533026,0.000139745216608,-0.00711889533027,-0.000139745216622
15332000000,382,15332000000,,0.00714346795335,0.000140877611853,-0.00714346795336,-0.000140877611868
15376000000,383,15376000000,,0.00713659339484,0.000141598959497,-0.00713659339485,-0.000141598959512
15422000000,384,15422000000,,0.00714326859124,0.000142631737819,-0.00714326859126,-0.000142631737833
15453000000,385,15453000000,,0.00712707150434,0.000143167035506,-0.00712707150435,-0.00014316703552
15499000000,386,15499000000,,0.0071096361714,0.000144540016912,-0.00710963617141,-0.000144540016926
15550000000,387,15550000000,,0.00709437994421,0.000144561430804,-0.00709437994422,-0.000144561430818
15571000000,388,15571000000,,0.00705974553599,0.000145423446358,-0.007059745536,-0.000145423446372
15622000000,389,15622000000,,0.00704145335671,0.000145056325673,-0.00704145335672,-0.000145056325687
15655000000,390,15655000000,,0.00698935169576,0.000145178049452,-0.00698935169578,-0.000145178049466
15700000000,391,15700000000,,0.00696140331109,0.000145917727008,-0.0069614033111,-0.000145917727022
15733000000,392,15733000000,,0.0069000974978,0.00014608884982,-0.00690009749781,-0.000146088849834
15781000000,393,15781000000,,0.00686076193627,0.000146873423242,-0.00686076193629,-0.000146873423256
15828000000,394,15828000000,,0.00679970125538,0.000147339453384,-0.00679970125539,-0.000147339453398
15860000000,395,15860000000,,0.00675003853147,0.000148738124486,-0.00675003853149,-0.0001487381245
15904000000,396,15904000000,,0.00669476250308,0.000149252719058,-0.00669476250309,-0.000149252719072
15942000000,397,15942000000,,0.00664171552204,0.000150368142245,-0.00664171552205,-0.000150368142259
15992000000,398,15992000000,,0.00659572460771,0.000150055852866,-0.00659572460772,-0.00015005585288
16027000000,399,16027000000,,0.00654027675849,0.000150294400711,-0.00654027675851,-0.000150294400724
16058000000,400,16058000000,,0.00649628578262,0.000150666861933,-0.00649628578263,-0.000150666861946
16103000000,401,16103000000,,0.00644331781771,0.000150959486306,-0.00644331781772,-0.000150959486319
16149000000,402,16149000000,,0.00639911464844,0.000151316297948,-0.00639911464845,-0.000151316297962
16175000000,403,16175000000,,0.00635119520016,0.000151694821931,-0.00635119520017,-0.000151694821945
16222000000,404,16222000000,,0.00630893150107,0.000151991150636,-0.00630893150108,-0.00015199115065
16268000000,405,16268000000,,0.00628178500515,0.000153401661874,-0.00628178500517,-0.000153401661888
16304000000,406,16304000000,,0.00621356148723,0.000154064200345,-0.00621356148725,-0.000154064200359
16341000000,407,16341000000,,0.0061856621935,0.000153481536904,-0.00618566219351,-0.000153481536917
16377000000,408,16377000000,,0.00616083519352,0.000153132769985,-0.00616083519353,-0.000153132769999
16424000000,409,16424000000,,0.00613421947476,0.000153076333587,-0.00613421947478,-0.0001530763336
16461000000,410,16461000000,,0.00611985552674,0.000153317487294,-0.00611985552675,-0.000153317487308
16502000000,411,16502000000,,0.00609898416886,0.000153162943749,-0.00609898416887,-0.000153162943763
16542000000,412,16542000000,,0.00608718614506,0.000153533804542,-0.00608718614507,-0.000153533804555
16579000000,413,16579000000,,0.00606885023697,0.00015350346486,-0.00606885023698,-0.000153503464873
16636000000,414,16636000000,,0.0060596235222,0.000153863162723,-0.00605962352222,-0.000153863162736
16688000000,415,16688000000,,0.006047918753,0.000153879624595,-0.00604791875302,-0.000153879624608
16720000000,416,16720000000,,0.00604275455532,0.000154441729229,-0.00604275455534,-0.000154441729243
16755000000,417,16755000000,,0.00603535286502,0.000154420092375,-0.00603535286503,-0.000154420092389
16794000000,418,16794000000,,0.00531321774159,0.000155367596767,-0.0053132177416,-0.00015536759678
16822000000,419,16822000000,,0.00422447216337,0.000155945695694,-0.00422447216338,-0.000155945695708
16876000000,420,16876000000,,0.00302949440493,0.000156211007538,-0.00302949440494,-0.000156211007552
16912000000,421,16912000000,,0.0017235962034,0.000156799935496,-0.00172359620341,-0.000156799935509
16943000000,422,16943000000,,-0.000226636287749,0.000156539931846,0.000226636287737,-0.000156539931859
16977000000,423,16977000000,,-0.00286038009153,0.000156953298495,0.00286038009152,-0.000156953298509
17026000000,424,17026000000,,-0.00653019848918,0.000155880577972,0.00653019848917,-0.000155880577986
17094000000,425,17094000000,,-0.0109515103519,0.000156737938834,0.0109515103519,-0.000156737938847
17116000000,426,17116000000,,-0.0151728975216,0.000156789266476,0.0151728975216,-0.000156789266489
17137000000,427,17137000000,,-0.0206619905756,0.00016078439488,0.0206619905756,-0.000160784394893
17175000000,428,17175000000,,-0.026027245663,0.000157083530657,0.0260272456629,-0.00015708353067
17211000000,429,17211000000,,-0.0317077191643,0.000162376212439,0.0317077191643,-0.000162376212452
17271000000,430,17271000000,,-0.0361712306298,0.000167556506833,0.0361712306298,-0.000167556506846
17299000000,431,17299000000,,-0.0405631024476,0.000161973470652,0.0405631024475,-0.000161973470665
17344000000,432,17344000000,,-0.0434723194065,0.000163548964861,0.0434723194065,-0.000163548964874
17397000000,433,17397000000,,-0.0467903523592,0.000160345353069,0.0467903523592,-0.000160345353082
17470000000,434,17470000000,,-0.0486964085779,0.000166885734262,0.0486964085779,-0.000166885734275
17484000000,435,17484000000,,-0.0482739498069,0.000173610391113,0.0482739498069,-0.000173610391126
17496000000,436,17496000000,,-0.0480140689203,0.000177228899133,0.0480140689203,-0.000177228899146
17552000000,437,17552000000,,-0.0472173835633,0.000158801428919,0.0472173835633,-0.000158801428932
17585000000,438,17585000000,,-0.0461141529889,0.000176022954586,0.0461141529889,-0.000176022954599
17631000000,439,17631000000,,-0.0445243757574,0.000178487415409,0.0445243757574,-0.000178487415422
17671000000,440,17671000000,,-0.0429499498684,0.000177182898654,0.0429499498684,-0.000177182898667
17704000000,441,17704000000,,-0.0409508510134,0.000189099463644,0.0409508510134,-0.000189099463657
17750000000,442,17750000000,,-0.0391111476409,0.000177003745359,0.0391111476409,-0.000177003745372
17781000000,443,17781000000,,-0.036961364528,0.000180909900774,0.036961364528,-0.000180909900787
17847000000,444,17847000000,,-0.0350368566827,0.000169289549092,0.0350368566827,-0.000169289549105
17851000000,445,17851000000,,-0.0329423718436,0.000178627917311,0.0329423718436,-0.000178627917324
17889000000,446,17889000000,,-0.0310740775279,0.000162919889417,0.0310740775278,-0.00016291988943
17948000000,447,17948000000,,-0.0293406044667,0.000190792366131,0.0293406044667,-0.000190792366143
17974000000,448,17974000000,,-0.0274964422645,0.000200719554866,0.0274964422644,-0.000200719554879
18042000000,449,18042000000,,-0.0258470416349,0.000203980038197,0.0258470416349,-0.000203980038209
18076000000,450,18076000000,,-0.024079672302,0.000213352892903,0.024079672302,-0.000213352892915
18111000000,451,18111000000,,-0.02244306323,0.000210556064068,0.02244306323,-0.000210556064081
18145000000,452,18145000000,,-0.0207671486292,0.000215865948718,0.0207671486292,-0.000215865948731
18168000000,453,18168000000,,-0.0191422763463,0.000213888289451,0.0191422763463,-0.000213888289463
18237000000,454,18237000000,,-0.0175473771469,0.00022433931532,0.0175473771468,-0.000224339315332
18256000000,455,18256000000,,-0.01599594342,0.000230073426369,0.01599594342,-0.00023007342638
18312000000,456,18312000000,,-0.0144699491971,0.000235643731507,0.0144699491971,-0.000235643731519
18353000000,457,18353000000,,-0.0130016337779,0.000240100071484,0.0130016337779,-0.000240100071496
18382000000,458,18382000000,,-0.0115489581887,0.000246774574466,0.0115489581887,-0.000246774574478
18421000000,459,18421000000,,-0.0102122171294,0.000251018641697,0.0102122171294,-0.000251018641708
18470000000,460,18470000000,,-0.00879067171624,0.000258727383415,0.00879067171623,-0.000258727383426
18494000000,461,18494000000,,-0.00773939056123,0.000260292550885,0.00773939056122,-0.000260292550896
18549000000,462,18549000000,,-0.00676820937663,0.000271745997678,0.00676820937662,-0.000271745997689
18582000000,463,18582000000,,-0.00575123328478,0.000270498610943,0.00575123328477,-0.000270498610954
18635000000,464,18635000000,,-0.00500133793305,0.000269894574153,0.00500133793304,-0.000269894574163
18657000000,465,18657000000,,-0.0041055739314,0.000283330846253,0.00410557393139,-0.000283330846264
