%time,field.header.seq,field.header.stamp,field.header.frame_id,field.angular_velocities0,field.angular_velocities1,field.angular_velocities2,field.angular_velocities3
126000000,0,126000000,,427.0,427.0,427.0,427.0
206000000,1,206000000,,777.103062715,776.896937285,777.103062715,776.896937285
329000000,2,329000000,,389.966381018,390.116277122,389.964187922,390.116754624
406000000,3,406000000,,650.313681294,650.290751342,650.31055526,650.291164085
526000000,4,526000000,,647.574553156,647.572443749,647.571147552,647.572808403
606000000,5,606000000,,572.019286446,572.017085663,572.015735911,572.017450329
726000000,6,726000000,,445.148226369,445.145999874,445.144653788,445.146365454
806000000,7,806000000,,316.004217368,316.001991698,316.000647202,316.002358042
926000000,8,926000000,,300.989303064,300.987078895,300.985737052,300.987446391
1006000000,9,1006000000,,337.988640024,337.986434903,337.985130787,337.986803027
1130000000,10,1130000000,,504.395726229,504.393566268,504.392315556,504.393935332
1206000000,11,1206000000,,467.77580522,467.773705715,467.772524537,467.774075288
1326000000,12,1326000000,,452.698420606,452.69639358,452.695288438,452.696763593
1406000000,13,1406000000,,421.193471019,421.191518967,421.190488945,421.191888922
1526000000,14,1526000000,,390.882216416,390.880335458,390.879372022,390.880704609
1608000000,15,1608000000,,381.978624202,381.976798005,381.975876289,381.977166043
1728000000,16,1728000000,,403.640529419,403.638723201,403.637797217,403.639088606
1806000000,17,1806000000,,418.622672505,418.620865292,418.619890462,418.621182161
1927000000,18,1927000000,,433.784532013,433.782747863,433.781733622,433.782981748
2006000000,19,2006000000,,421.351456039,421.349695016,421.348571079,421.349812973
2126000000,20,2126000000,,436.162207234,436.160437901,436.159145597,436.160409757
2206000000,21,2206000000,,409.80506029,409.803265201,409.801782448,409.803077454
2326000000,22,2326000000,,420.985832349,420.984005252,420.982326677,420.983655314
2406000000,23,2406000000,,403.379438058,403.377583768,403.375741713,403.377092299
2527000000,24,2527000000,,424.864538066,424.862671227,424.860719284,424.862074513
2606000000,25,2606000000,,428.085245843,428.083377914,428.081407987,428.082761085
2727000000,26,2727000000,,426.866986003,426.865150269,426.863297016,426.864589755
2849000000,27,2849000000,,450.206886275,450.205137145,450.203587859,450.204768266
2926000000,28,2926000000,,399.385099631,399.38346315,399.382292452,399.383358503
3009000000,29,3009000000,,443.078278676,443.076769098,443.07640274,443.077328814
3126000000,30,3126000000,,418.587195465,418.585832927,418.586572404,418.58734433
3206000000,31,3206000000,,430.643441101,430.642222343,430.644188816,430.644824992
3326000000,32,3326000000,,417.179518679,417.178409239,417.181688035,417.182238637
3408000000,33,3408000000,,427.101869713,427.100818141,427.105325031,427.105844385
3527000000,34,3527000000,,427.480708946,427.477089983,427.484586592,427.482823403
3606000000,35,3606000000,,449.461286753,449.458767523,449.464501562,449.464342326
3726000000,36,3726000000,,435.99981479,435.995661505,436.002147571,436.000578347
3808000000,37,3808000000,,416.318060154,416.319428504,416.320003728,416.324120492
3926000000,38,3926000000,,422.891339616,422.889648709,422.892899494,422.894054281
4006000000,39,4006000000,,430.209411191,430.207728211,430.210471654,430.211571666
4126000000,40,4126000000,,432.943382785,432.941830458,432.943853015,432.944753548
4206000000,41,4206000000,,430.408109711,430.406812158,430.407987381,430.408576866
4326000000,42,4326000000,,437.359564997,437.35864641,437.358911449,437.359062528
4408000000,43,4408000000,,439.071923522,439.064326728,439.071801425,439.064020394
4528000000,44,4528000000,,432.850281621,432.847569897,432.851226047,432.847169251
4606000000,45,4606000000,,422.758809826,422.75667153,422.760790046,422.756819817
4726000000,46,4726000000,,417.839252304,417.837176012,417.841930981,417.838249634
4806000000,47,4806000000,,437.421956917,437.427737964,437.425316741,437.429124363
4927000000,48,4927000000,,435.888908702,435.889653806,435.892769446,435.891278529
5006000000,49,5006000000,,435.685304345,435.686054068,435.689531478,435.688119525
5132000000,50,5132000000,,427.516378083,427.51692767,427.520809596,427.519702082
5206000000,51,5206000000,,435.064008076,435.064073393,435.068319857,435.067881281
5326000000,52,5326000000,,431.729398045,431.728617033,431.733144148,431.733715556
5408000000,53,5408000000,,429.13057074,429.121442627,429.132687424,429.127167139
5539000000,54,5539000000,,426.781539499,426.775731456,426.781825507,426.781422738
5606000000,55,5606000000,,445.529124051,445.523216569,445.528179136,445.528310656
5726000000,56,5726000000,,421.607713192,421.601968948,421.606253453,421.606159937
5806000000,57,5806000000,,427.229653161,427.224358453,427.228121664,427.227556119
5926000000,58,5926000000,,430.138598391,430.133827812,430.137341456,430.136054848
6007000000,59,6007000000,,433.743764984,433.746825063,433.742436474,433.748294304
6126000000,60,6126000000,,440.774815995,440.773154942,440.773236381,440.773893617
6206000000,61,6206000000,,412.830786156,412.821969219,412.82922516,412.821954999
6326000000,62,6326000000,,438.673401567,438.67025968,438.673230761,438.670256576
6409000000,63,6409000000,,437.890626913,437.895455968,437.891857053,437.895329688
6526000000,64,6526000000,,448.270108188,448.270917517,448.272766747,448.270592782
6606000000,65,6606000000,,436.501467733,436.495436349,436.505634938,436.494991737
6726000000,66,6726000000,,429.041088949,429.040991202,429.045732664,429.041680234
6808000000,67,6808000000,,424.268353818,424.266946591,424.272857909,424.269086496
6927000000,68,6927000000,,426.609665421,426.607200365,426.613757442,426.610581394
7006000000,69,7006000000,,424.544170465,424.548240317,424.548248158,424.552672294
7126000000,70,7126000000,,441.076170391,441.067731079,441.079907509,441.072570814
7206000000,71,7206000000,,437.010652856,437.006981657,437.013503828,437.011369156
7326000000,72,7326000000,,434.495213356,434.491298996,434.497010412,434.494730353
7406000000,73,7406000000,,438.98125279,438.984613618,438.982225245,438.987648276
7527000000,74,7527000000,,425.464500035,425.462710252,425.464630728,425.465339209
7606000000,75,7606000000,,430.74536531,430.74344331,430.744640358,430.745409397
7726000000,76,7726000000,,425.185915067,425.182272477,425.19026429,425.183207499
7806000000,77,7806000000,,421.724550797,421.740946291,421.754239725,421.740602113
7926000000,78,7926000000,,438.549240785,438.577972359,438.633054581,438.576480932
8010000000,79,8010000000,,431.180626453,431.249263272,431.329540548,431.247200007
8127000000,80,8127000000,,440.117073657,440.213646739,440.329899386,440.211573074
8206000000,81,8206000000,,441.413384955,441.548621369,441.678517534,441.547059579
8326000000,82,8326000000,,422.707762818,422.869500479,423.005909114,422.868797798
8446000000,83,8446000000,,430.412604997,430.581879486,430.729312771,430.582241964
8526000000,84,8526000000,,433.749996101,433.922351585,434.070922785,433.923507401
8606000000,85,8606000000,,445.677178073,445.840514424,445.987053667,445.842095525
8726000000,86,8726000000,,429.181128287,429.325101875,429.469064425,429.326846079
8806000000,87,8806000000,,430.410723546,430.538817154,430.670666265,430.540455966
8926000000,88,8926000000,,430.157790837,430.269557105,430.386674084,430.270839435
9006000000,89,9006000000,,428.120884328,428.219583877,428.321221147,428.220355135
9126000000,90,9126000000,,428.877151286,428.963777161,429.050969621,428.963916824
9206000000,91,9206000000,,439.690165827,439.766282454,439.843898881,439.765983027
9327000000,92,9327000000,,433.378707997,433.453746244,433.519684246,433.452646963
9407000000,93,9407000000,,432.422145463,432.494613396,432.55787267,432.492538572
9529000000,94,9529000000,,440.169816751,440.241498328,440.305553727,440.238395067
9606000000,95,9606000000,,442.888814394,442.965318501,443.033314022,442.961264932
9726000000,96,9726000000,,419.958416054,420.039995624,420.118308977,420.035090211
9808000000,97,9808000000,,434.392849713,434.484591574,434.573274343,434.478905067
9926000000,98,9926000000,,427.239862918,427.341831383,427.443324779,427.335446496
10056000000,99,10056000000,,428.606402422,428.722186156,428.836968843,428.715108905
10126000000,100,10126000000,,442.580027461,442.709871958,442.838224147,442.702157401
10206000000,101,10206000000,,438.013771406,438.150326624,438.286213971,438.141984029
10329000000,102,10329000000,,430.245278488,430.379474719,430.503038109,430.370390894
10414000000,103,10414000000,,433.143324159,433.271659886,433.374999464,433.261875509
10526000000,104,10526000000,,423.262520891,423.376010977,423.460692707,423.365448006
10607000000,105,10607000000,,425.778577896,425.881445185,425.950317087,425.870007568
10726000000,106,10726000000,,439.228724807,439.322010183,439.385039788,439.309630727
10807000000,107,10807000000,,435.786434302,435.880845283,435.945018104,435.867460972
10926000000,108,10926000000,,439.108629111,439.209627301,439.286763597,439.195180508
11006000000,109,11006000000,,434.329085798,434.447181739,434.539537779,434.43163936
11126000000,110,11126000000,,415.579631235,415.716287191,415.831894441,415.699644271
11206000000,111,11206000000,,427.637388245,427.79981742,427.940254805,427.782069229
11327000000,112,11327000000,,437.363681971,437.554820885,437.72199076,437.53606312
11406000000,113,11406000000,,435.036732822,435.255797577,435.452199739,435.23614077
11540000000,114,11540000000,,431.024373374,431.272678491,431.49811392,431.252163096
11617000000,115,11617000000,,434.667075726,434.944326889,435.196646376,434.922933006
11726000000,116,11726000000,,430.929630286,431.233302719,431.507524916,431.211001695
11806000000,117,11806000000,,430.569208527,430.898645968,431.19028602,430.875443802
11926000000,118,11926000000,,424.998178231,425.346607538,425.656872202,425.322504536
12006000000,119,12006000000,,431.50021991,431.868305307,432.191476619,431.843387068
12126000000,120,12126000000,,432.330083533,432.713124622,433.050478428,432.687461354
12206000000,121,12206000000,,428.680522124,429.066614378,429.410837616,429.040184148
12327000000,122,12327000000,,429.364594542,429.748947029,430.079716801,429.721684416
12406000000,123,12406000000,,436.533533901,436.905178539,437.210565654,436.876992915
12526000000,124,12526000000,,438.129017218,438.480492414,438.759210289,438.451302508
12606000000,125,12606000000,,430.11932238,430.453468834,430.709425014,430.423232039
12726000000,126,12726000000,,436.647155129,436.967268181,437.216054826,436.93594465
12806000000,127,12806000000,,426.681997294,427.000241963,427.245700375,426.967843134
12926000000,128,12926000000,,435.144213372,435.467629624,435.723602213,435.43420312
13006000000,129,13006000000,,435.035986679,435.368688324,435.644240714,435.334269675
13126000000,130,13126000000,,435.697762447,436.049648402,436.346134945,436.014268801
13206000000,131,13206000000,,428.13155074,428.507055015,428.828585463,428.470766648
13327000000,132,13327000000,,433.418068496,433.822173294,434.172103666,433.785038903
13406000000,133,13406000000,,429.020642253,429.452159541,429.82886894,429.414284664
13527000000,134,13527000000,,429.119630668,429.579153293,429.98242422,429.540588335
13606000000,135,13606000000,,439.6686976,440.154946237,440.582307761,440.11572936
13726000000,136,13726000000,,439.744077703,440.26370255,440.720275383,440.223876247
13806000000,137,13806000000,,438.762956834,439.321396339,439.819742481,439.281012514
13926000000,138,13926000000,,445.682337299,446.284454226,446.830070158,446.243561637
14006000000,139,14006000000,,413.736946347,414.384320887,414.968493798,414.342980196
14126000000,140,14126000000,,421.990294739,422.673643757,423.293154794,422.631859036
14206000000,141,14206000000,,441.126798319,441.838845377,442.478990185,441.796639974
14326000000,142,14326000000,,433.923178248,434.650990905,435.304875928,434.608390114
14406000000,143,14406000000,,429.119968568,429.853550618,430.509952682,429.810524571
14526000000,144,14526000000,,437.16954294,437.900397501,438.552897849,437.856931127
14607000000,145,14607000000,,433.989490246,434.709335057,435.352296878,434.665415089
14726000000,146,14726000000,,424.235204584,424.942630648,425.569997266,424.898256098
14807000000,147,14807000000,,435.38389356,436.076240903,436.687986881,436.031400382
14934000000,148,14934000000,,429.777333985,430.454686033,431.052247639,430.409348567
15009000000,149,15009000000,,435.449508021,436.113732288,436.698391895,436.067868207
15126000000,150,15126000000,,429.294344374,429.946565347,430.52177217,429.900222259
15206000000,151,15206000000,,425.050309961,425.697123247,426.264572704,425.650243179
15326000000,152,15326000000,,431.060040251,431.702443595,432.268739742,431.654974987
15406000000,153,15406000000,,426.961589401,427.604643347,428.173012279,427.556568865
15530000000,154,15530000000,,430.875591227,431.523111431,432.09742078,431.474400718
15606000000,155,15606000000,,441.416298656,442.069948299,442.653153715,442.020618571
15726000000,156,15726000000,,433.076324558,433.739586115,434.332440333,433.689673973
15806000000,157,15806000000,,434.930819938,435.604679069,436.20905043,435.554198656
15927000000,158,15927000000,,433.466685974,434.152257902,434.76920393,434.101187125
16008000000,159,16008000000,,421.806992807,422.505534628,423.134381457,422.453886618
16126000000,160,16126000000,,420.274401698,420.985572915,421.627260981,420.933349342
16207000000,161,16207000000,,445.696215778,446.419820435,447.073172775,446.367044511
16326000000,162,16326000000,,432.551729572,433.286915181,433.951651093,433.233563199
16406000000,163,16406000000,,419.467230222,420.214188443,420.888544281,420.16029062
16528000000,164,16528000000,,435.938510887,436.696195659,437.379567957,436.641766804
16606000000,165,16606000000,,419.606630309,420.373531405,421.064826302,420.318593408
16726000000,166,16726000000,,443.28042922,444.055478886,444.754263733,444.000027339
16806000000,167,16806000000,,439.008008968,439.799120602,440.512664922,439.74314817
16926000000,168,16926000000,,436.533797085,437.367629942,438.128947184,437.311118189
17006000000,169,17006000000,,428.803759433,429.692068228,430.537412289,429.635015109
17128000000,170,17128000000,,431.831197356,432.803219433,433.737027247,432.745609975
17206000000,171,17206000000,,434.328510025,435.386409174,436.390724612,435.328305607
17329000000,172,17329000000,,418.255149843,419.382233645,420.482156144,419.323547725
17470000000,173,17470000000,,430.732253248,431.956060731,433.130038161,431.896750473
17526000000,174,17526000000,,426.110395974,427.374356114,428.635576208,427.314238771
17606000000,175,17606000000,,442.825870354,444.171658727,445.462550483,444.110644423
17726000000,176,17726000000,,450.349935533,451.724505479,453.05226862,451.662564179
17807000000,177,17807000000,,454.047131893,455.415891657,456.7385626,455.353054159
17926000000,178,17926000000,,449.410092463,450.758583682,452.023516126,450.695332982
18007000000,179,18007000000,,431.115773181,432.46517846,433.634367378,432.400772062
18126000000,180,18126000000,,441.812198106,443.078007242,444.228252567,443.012023985
18206000000,181,18206000000,,447.195072458,448.416324028,449.520287032,448.348861073
18326000000,182,18326000000,,460.028349185,461.234358389,462.273791087,461.165187629
18406000000,183,18406000000,,453.513027195,454.700325001,455.707043299,454.629229896
18526000000,184,18526000000,,465.189290855,466.367708411,467.361616743,466.29457693
18606000000,185,18606000000,,440.295278618,441.472416791,442.475282112,441.397154458
