%time,field.header.seq,field.header.stamp,field.header.frame_id,field.pose.position.x,field.pose.position.y,field.pose.position.z,field.pose.orientation.x,field.pose.orientation.y,field.pose.orientation.z,field.pose.orientation.w
1000000,0,1000000,world,0.0,0.0,0.74,0.0,0.0,0.0,1.0
11000000,1,11000000,world,-1.07738277069e-27,-1.09807001825e-27,0.739461,-5.3725141903e-27,4.12735521657e-27,1.15199516752e-27,1.0
21000000,2,21000000,world,1.63692024856e-24,1.51811157212e-24,0.737942,1.20292517363e-23,-1.19965837191e-23,-1.854574052e-24,1.0
31000000,3,31000000,world,-4.38394968409e-25,-6.00545634499e-25,0.735443,7.22102059036e-24,-1.67577970031e-23,7.60542676413e-25,1.0
41000000,4,41000000,world,-1.4288227372e-24,-1.79321964477e-24,0.731964,3.00119168489e-24,-2.37804484207e-23,1.87282292978e-24,1.0
51000000,5,51000000,world,-2.69206115799e-25,-7.55861801429e-25,0.727505,1.38393085235e-24,-2.25640175756e-23,9.00100114244e-26,1.0
61000000,6,61000000,world,4.36934927905e-25,3.89341348587e-26,0.722066,5.0410970436e-24,-1.98350052118e-23,-1.05020053119e-24,1.0
71000000,7,71000000,world,-1.86791788946e-24,-1.93013297106e-24,0.715647,-1.20644535193e-23,5.77375623005e-24,1.31598182171e-24,1.0
81000000,8,81000000,world,7.48519303337e-25,9.83142948158e-25,0.708248,-1.0824931521e-23,2.74627787874e-23,-2.20480911062e-24,1.0
101000000,10,101000000,world,2.35839674353e-24,4.0055428591e-24,0.69051,-3.32832026127e-23,1.17540461049e-22,-4.32512836904e-24,1.0
111000000,11,111000000,world,1.85735667253e-24,4.2854929649e-24,0.680171,-4.75719339489e-23,1.6305735749e-22,-3.03485205137e-24,1.0
121000000,12,121000000,world,2.83172823233e-24,5.97049740872e-24,0.668852,-6.41019866264e-23,2.1112063484e-22,-3.28875491333e-24,1.0
131000000,13,131000000,world,-3.7891259141e-19,3.78801971743e-19,0.656553,-7.6826874808e-20,-7.34092352726e-20,-3.54013837791e-24,1.0
141000000,14,141000000,world,1.90663111244e-14,1.79796769666e-14,0.643274123389,1.37817320166e-13,-1.24172810298e-13,-2.22891493804e-14,1.0
151000000,15,151000000,world,3.29705891827e-14,3.01461320114e-14,0.629016941796,4.92851638917e-13,-4.92210708487e-13,-3.7169093585e-14,1.0
161000000,16,161000000,world,-1.63756374595e-06,5.17784818739e-08,0.624998110512,-1.17348828402e-06,-1.57814083739e-06,-3.1979697048e-07,0.999999999998
171000000,17,171000000,world,3.75504720686e-06,2.07266699249e-06,0.624996439269,-2.239108923e-06,2.89424043033e-06,-1.01828895158e-06,0.999999999993
181000000,18,181000000,world,-3.39429267871e-06,-3.6306080497e-06,0.624996389781,2.22604555949e-06,-2.97656444269e-06,-2.28295011049e-06,0.99999999999
191000000,19,191000000,world,4.54031764089e-06,1.0738763869e-06,0.624996320642,-2.26842019366e-06,3.08547621197e-06,-3.70348065769e-06,0.999999999986
201000000,20,201000000,world,-2.76442920287e-06,-4.46202736225e-06,0.624996475176,2.19393023271e-06,-2.91566587733e-06,-4.84171116197e-06,0.999999999982
211000000,21,211000000,world,4.98165615848e-06,1.03005328367e-07,0.624996423179,-2.24747232556e-06,3.00781763853e-06,-6.17940168444e-06,0.999999999974
221000000,22,221000000,world,-2.0281006725e-06,-5.18947765913e-06,0.624996671804,2.09496640443e-06,-2.75289747153e-06,-7.23682830936e-06,0.999999999968
231000000,23,231000000,world,4.96118798144e-06,-4.96913317169e-06,0.624996851735,1.68094500022e-06,2.79088317002e-06,-7.08792147965e-06,0.99999999997
241000000,24,241000000,world,-1.82295557756e-06,-1.15733451086e-06,0.624997039785,-1.91131290971e-06,-2.44222288514e-06,-5.89940545443e-06,0.999999999978
251000000,25,251000000,world,4.23932251037e-06,-5.56385002449e-06,0.624997044824,1.76323242672e-06,2.51190471056e-06,-5.03173645364e-06,0.999999999983
261000000,26,261000000,world,-1.74985180945e-06,-1.89647473272e-06,0.624997419095,-1.64770404576e-06,-2.1304747504e-06,-4.15870420699e-06,0.999999999988
271000000,27,271000000,world,2.4450685424e-06,-5.00647189584e-06,0.624998223855,9.44500297332e-07,1.32861590206e-06,-4.52076599928e-06,0.999999999988
281000000,28,281000000,world,-1.05010635829e-06,-5.09457519271e-06,0.624998119878,1.13062828589e-06,-1.56624269457e-06,-4.84685914414e-06,0.999999999986
291000000,29,291000000,world,1.03814289174e-06,-5.13899224224e-06,0.624999352822,1.16792811111e-06,1.26596153132e-08,-4.71901668422e-06,0.999999999988
301000000,30,301000000,world,9.06044042103e-07,-2.00359359553e-06,0.624999321786,-1.27818869928e-06,-1.67613979434e-07,-4.69425844034e-06,0.999999999988
311000000,31,311000000,world,2.73874419154e-06,-2.8779202343e-06,0.624998482488,-6.78484845396e-07,1.40672205645e-06,-4.90552910861e-06,0.999999999987
321000000,32,321000000,world,1.00523589333e-07,-3.64885587296e-06,0.624999439651,3.63228250275e-09,-6.9022168574e-07,-4.96601801818e-06,0.999999999987
331000000,33,331000000,world,3.21048949092e-06,-3.24554738772e-06,0.624998786617,-1.96125296847e-07,1.69130117105e-06,-5.03405231264e-06,0.999999999986
341000000,34,341000000,world,1.13663327013e-06,-3.5012011784e-06,0.624999989307,1.95945359357e-09,1.47800094563e-08,-5.00494317383e-06,0.999999999987
351000000,35,351000000,world,1.02139475272e-06,-3.43338122426e-06,0.625000022312,-2.69086360621e-08,-4.57955629008e-08,-4.62402956997e-06,0.999999999989
361000000,36,361000000,world,1.1129273334e-06,-3.71244007746e-06,0.625000096664,2.26100742979e-09,1.3808517689e-07,-4.26303422955e-06,0.999999999991
371000000,37,371000000,world,7.89843147141e-07,-3.62275687224e-06,0.625000057492,-3.36467186619e-08,-7.88467195297e-08,-3.88131026937e-06,0.999999999992
381000000,38,381000000,world,9.4806615418e-07,-3.76515183046e-06,0.625000019759,1.3632912825e-08,4.38427656047e-08,-3.50457895582e-06,0.999999999994
391000000,39,391000000,world,8.82381802154e-07,-3.5719705787e-06,0.625000010681,-1.12999996157e-08,-4.65999839313e-08,-3.28140174006e-06,0.999999999995
401000000,40,401000000,world,9.06617379489e-07,-3.83762401841e-06,0.625000112346,1.60403591732e-07,-7.76341435264e-09,-3.22357023482e-06,0.999999999995
411000000,41,411000000,world,8.91843303062e-07,-3.36286547971e-06,0.625000149211,-2.12897145333e-07,2.81061440508e-09,-3.24106545702e-06,0.999999999995
421000000,42,421000000,world,8.89505475092e-07,-3.63309033955e-06,0.624999990709,4.1367702063e-10,2.59210282241e-09,-3.24669440272e-06,0.999999999995
431000000,43,431000000,world,1.50206280082e-06,-3.80405054635e-06,0.624999478345,1.05562337787e-07,5.45487710043e-07,-3.23461729608e-06,0.999999999995
441000000,44,441000000,world,3.56222136464e-07,-3.66195663555e-06,0.624999673029,-6.11542143913e-09,-3.96349957706e-07,-3.22406933805e-06,0.999999999995
451000000,45,451000000,world,8.03905277234e-07,-3.66589041462e-06,0.624999991391,-1.18102195646e-08,1.5034509147e-08,-3.22667733412e-06,0.999999999995
461000000,46,461000000,world,7.92552582974e-07,-3.47963367065e-06,0.625000163495,-1.53383528198e-07,2.17840558957e-09,-3.24600824185e-06,0.999999999995
471000000,47,471000000,world,4.18442186561e-07,-3.91893341301e-06,0.625001797278,1.87956318678e-07,1.55946775962e-08,-3.24238156171e-06,0.999999999995
481000000,48,481000000,world,-1.4152888991e-06,-4.06975940784e-06,0.625025381877,2.578786623e-07,6.51206175835e-08,-3.23354526046e-06,0.999999999995
491000000,49,491000000,world,-4.72797590671e-06,-4.21232003338e-06,0.625108365036,2.85588251044e-07,1.58377356644e-07,-3.22462160807e-06,0.999999999995
501000000,50,501000000,world,-9.38351714121e-06,-4.36441359799e-06,0.625288691701,2.85150638146e-07,2.43770104238e-07,-3.2149714052e-06,0.999999999995
511000000,51,511000000,world,-1.47372028941e-05,-4.36407036092e-06,0.625603454755,2.50844844105e-07,3.79464029472e-07,-3.20440651559e-06,0.999999999995
521000000,52,521000000,world,-2.10699677838e-05,-4.36499551771e-06,0.626088882252,2.06190151648e-07,5.25729083162e-07,-3.1926456705e-06,0.999999999995
531000000,53,531000000,world,-2.83876912103e-05,-4.42146561936e-06,0.626780326909,1.63591089528e-07,6.66858135412e-07,-3.18004284359e-06,0.999999999995
541000000,54,541000000,world,-3.65697077104e-05,-4.5404664556e-06,0.627712104489,8.75428824087e-08,8.02908731574e-07,-3.16692462523e-06,0.999999999995
551000000,55,551000000,world,-4.51483558248e-05,-4.72335733034e-06,0.628917300246,-3.07220851599e-08,1.00719873006e-06,-3.15306916131e-06,0.999999999995
561000000,56,561000000,world,-5.38738710257e-05,-4.96953457918e-06,0.630428073356,-1.65377271122e-07,1.28849967233e-06,-3.13832739004e-06,0.999999999994
571000000,57,571000000,world,-6.31984355907e-05,-5.28141684459e-06,0.632275705913,-3.02831094102e-07,1.56003812238e-06,-3.1228230778e-06,0.999999999994
581000000,58,581000000,world,-7.30371306788e-05,-5.65652073458e-06,0.634490607798,-4.28526048178e-07,1.83356682493e-06,-3.1062904283e-06,0.999999999993
591000000,59,591000000,world,-8.27180137275e-05,-6.08866255739e-06,0.637102323619,-5.35454820913e-07,2.17661156754e-06,-3.08879334148e-06,0.999999999993
601000000,60,601000000,world,-9.25493333317e-05,-6.57639292911e-06,0.640139541494,-6.53351343162e-07,2.54450909415e-06,-3.07104950612e-06,0.999999999992
611000000,61,611000000,world,-0.000102734036851,-7.11723384667e-06,0.643630086669,-8.10086891937e-07,2.93283810698e-06,-3.05293922059e-06,0.999999999991
621000000,62,621000000,world,-0.000113218435727,-7.70554135517e-06,0.647596278609,-9.79900552304e-07,3.36355491067e-06,-3.03415993351e-06,0.999999999989
631000000,63,631000000,world,-0.000123951289196,-8.3356831082e-06,0.652049330636,-1.14580142668e-06,3.79163823748e-06,-3.0148604814e-06,0.999999999988
641000000,64,641000000,world,-0.000134288500254,-8.96125769059e-06,0.656998690333,-1.29753224426e-06,4.29331374167e-06,-2.9947223455e-06,0.999999999985
651000000,65,651000000,world,-0.000144758937989,-9.61603456852e-06,0.662453463827,-1.42397927756e-06,4.80859273174e-06,-2.97380587604e-06,0.999999999983
661000000,66,661000000,world,-0.00015533869237,-1.02927332514e-05,0.668422426711,-1.56047593886e-06,5.32879955939e-06,-2.952896732e-06,0.99999999998
671000000,67,671000000,world,-0.000165533579914,-1.0923478959e-05,0.674914034859,-1.74196784912e-06,5.92828400434e-06,-2.93180727729e-06,0.999999999977
681000000,68,681000000,world,-0.000175878889605,-1.1580810187e-05,0.681936435076,-1.93090920218e-06,6.55911124716e-06,-2.9102482055e-06,0.999999999972
691000000,69,691000000,world,-0.000186353247855,-1.22607334596e-05,0.689497475476,-2.11073870258e-06,7.18132664053e-06,-2.88834860854e-06,0.999999999968
701000000,70,701000000,world,-0.000196730035555,-1.28927735553e-05,0.697604715606,-2.27476335926e-06,7.82604392068e-06,-2.86571365014e-06,0.999999999963
711000000,71,711000000,world,-0.000207158769119,-1.35277384709e-05,0.706265436282,-2.41003841197e-06,8.47013677248e-06,-2.84258208862e-06,0.999999999957
721000000,72,721000000,world,-0.000217676034148,-1.41812846962e-05,0.715486649157,-2.5597538621e-06,9.0980193851e-06,-2.81967198075e-06,0.999999999951
731000000,73,731000000,world,-0.000228266762933,-1.485125719e-05,0.725274990313,-2.74186121664e-06,9.74904287593e-06,-2.79665959613e-06,0.999999999945
741000000,74,741000000,world,-0.000238703626749,-1.54622401527e-05,0.735626916601,-2.93121199986e-06,1.04320111213e-05,-2.77336057268e-06,0.999999999937
751000000,75,751000000,world,-0.000249173728994,-1.60793410668e-05,0.746522375986,-3.1055060112e-06,1.11023580223e-05,-2.74983242911e-06,0.99999999993
761000000,76,761000000,world,-0.000259690183158,-1.67085717306e-05,0.757940673994,-3.2532522895e-06,1.17644479429e-05,-2.72563723464e-06,0.999999999922
771000000,77,771000000,world,-0.000270242031678,-1.73478261237e-05,0.769862061601,-3.37109774535e-06,1.24110757629e-05,-2.70124856919e-06,0.999999999914
781000000,78,781000000,world,-0.000280772312015,-1.79809536994e-05,0.782267687429,-3.50956450271e-06,1.30405749191e-05,-2.6771616058e-06,0.999999999905
791000000,79,791000000,world,-0.000291141225087,-1.85626497396e-05,0.795139552906,-3.67986818992e-06,1.37126326534e-05,-2.65299219863e-06,0.999999999896
801000000,80,801000000,world,-0.000301529576331,-1.91532928523e-05,0.808460470069,-3.84480623221e-06,1.43792869656e-05,-2.62864935261e-06,0.999999999886
811000000,81,811000000,world,-0.000311929591034,-1.97510066742e-05,0.822213909906,-3.99191492202e-06,1.50265063677e-05,-2.6041453055e-06,0.999999999876
821000000,82,821000000,world,-0.000322334424638,-2.03540140328e-05,0.836374522765,-4.11266819759e-06,1.56606020244e-05,-2.5791004495e-06,0.999999999866
831000000,83,831000000,world,-0.000332542681978,-2.08988435985e-05,0.850902207979,-4.20981898431e-06,1.62960704671e-05,-2.55392156162e-06,0.999999999855
841000000,84,841000000,world,-0.00034273403906,-2.14440544631e-05,0.865757509697,-4.32063552464e-06,1.69067935058e-05,-2.52904271648e-06,0.999999999845
851000000,85,851000000,world,-0.000352927656846,-2.19961664269e-05,0.880903072282,-4.45492723927e-06,1.7523793755e-05,-2.50417796834e-06,0.999999999833
861000000,86,861000000,world,-0.000363119422499,-2.25532872491e-05,0.896303515007,-4.58600277231e-06,1.8141608625e-05,-2.47915569258e-06,0.999999999822
871000000,87,871000000,world,-0.000373304287267,-2.31138910652e-05,0.911925315246,-4.70421866438e-06,1.87340383652e-05,-2.45405682385e-06,0.99999999981
881000000,88,881000000,world,-0.000383478004581,-2.36764465237e-05,0.927736699385,-4.79894644931e-06,1.93090569458e-05,-2.42866134767e-06,0.999999999799
891000000,89,891000000,world,-0.000393468252738,-2.41941088193e-05,0.943707540821,-4.87296854391e-06,1.98836318103e-05,-2.40292157909e-06,0.999999999788
901000000,90,901000000,world,-0.000403408135929,-2.46994681145e-05,0.959809264553,-4.93831520323e-06,2.0436346392e-05,-2.37735204564e-06,0.999999999776
911000000,91,911000000,world,-0.000413325549868,-2.52082072622e-05,0.976014757835,-5.02249799589e-06,2.09639317162e-05,-2.35197227103e-06,0.999999999765
921000000,92,921000000,world,-0.000423015213753,-2.56619862419e-05,0.992298286674,-5.12530260454e-06,2.15279576135e-05,-2.3265119638e-06,0.999999999752
931000000,93,931000000,world,-0.000432679496177,-2.61061688506e-05,1.00863540622,-5.22245688984e-06,2.20733494873e-05,-2.30096385972e-06,0.99999999974
941000000,94,941000000,world,-0.000442343730664,-2.65549723169e-05,1.02500195332,-5.30636725245e-06,2.25902428539e-05,-2.27534938613e-06,0.999999999728
951000000,95,951000000,world,-0.000451941294526,-2.6990713783e-05,1.04137339795,-5.37003165368e-06,2.3090748346e-05,-2.24950762845e-06,0.999999999716
961000000,96,961000000,world,-0.000461443783594,-2.74058243453e-05,1.05772630862,-5.41395626965e-06,2.35762310567e-05,-2.22340617536e-06,0.999999999705
971000000,97,971000000,world,-0.000470949865876,-2.78260535826e-05,1.07403843839,-5.44440733005e-06,2.40303288554e-05,-2.19743084736e-06,0.999999999694
981000000,98,981000000,world,-0.000480457467786,-2.82514003259e-05,1.090288658,-5.48682578868e-06,2.44518523911e-05,-2.17163223599e-06,0.999999999684
991000000,99,991000000,world,-0.000489964531628,-2.86811059539e-05,1.10645689311,-5.54221441822e-06,2.48670066335e-05,-2.14583340171e-06,0.999999999673
1001000000,100,1001000000,world,-0.000499468033858,-2.91137454464e-05,1.12252406558,-5.59351318385e-06,2.5272885155e-05,-2.11994311905e-06,0.999999999663
1011000000,101,1011000000,world,-0.000508891520385,-2.95304727283e-05,1.13847210055,-5.63696209418e-06,2.56513509124e-05,-2.09402709168e-06,0.999999999653
1021000000,102,1021000000,world,-0.000518202305647,-2.9922967047e-05,1.15428635328,-5.6670217113e-06,2.60120745226e-05,-2.06802294295e-06,0.999999999643
1031000000,103,1031000000,world,-0.000527441819967,-3.03013745619e-05,1.16995614223,-5.68029397733e-06,2.63528027048e-05,-2.0417964834e-06,0.999999999635
1041000000,104,1041000000,world,-0.000536525009329,-3.06450274027e-05,1.1854714784,-5.67431266088e-06,2.66796538381e-05,-2.0154836187e-06,0.999999999626
1051000000,105,1051000000,world,-0.000545613536448,-3.09931211669e-05,1.20082282091,-5.66436641406e-06,2.69717453775e-05,-1.98933457979e-06,0.999999999618
1061000000,106,1061000000,world,-0.000554690834275,-3.13424293508e-05,1.2160010552,-5.66534670808e-06,2.72321691408e-05,-1.96332389418e-06,0.999999999611
1071000000,107,1071000000,world,-0.000563640048126,-3.16680206173e-05,1.23099747232,-5.6767858875e-06,2.75010876974e-05,-1.93730055014e-06,0.999999999604
1081000000,108,1081000000,world,-0.000572597069853,-3.19980045075e-05,1.24580374931,-5.68196550618e-06,2.7747591292e-05,-1.91122282788e-06,0.999999999597
1091000000,109,1091000000,world,-0.000581559267698,-3.23316634216e-05,1.26041193068,-5.67677095459e-06,2.79523201312e-05,-1.8851411435e-06,0.999999999591
1101000000,110,1101000000,world,-0.000590523867683,-3.26681195925e-05,1.27481441077,-5.65571700479e-06,2.8120648637e-05,-1.85900292044e-06,0.999999999587
1111000000,111,1111000000,world,-0.000599487620053,-3.30064849882e-05,1.28900391722,-5.61628063397e-06,2.82549941403e-05,-1.83269657626e-06,0.999999999583
1121000000,112,1121000000,world,-0.000608378570334,-3.33337183461e-05,1.3029734951,-5.55634521747e-06,2.83622593448e-05,-1.80631160269e-06,0.999999999581
1131000000,113,1131000000,world,-0.000617165382425,-3.36444241988e-05,1.31671649206,-5.49041035225e-06,2.84437570942e-05,-1.78008012176e-06,0.999999999579
1141000000,114,1141000000,world,-0.000625950936479,-3.39569906378e-05,1.3302308608,-5.43163047431e-06,2.84903097873e-05,-1.75400193251e-06,0.999999999578
1151000000,115,1151000000,world,-0.000634731939738,-3.42706022713e-05,1.34353208642,-5.38013114751e-06,2.85235380115e-05,-1.72795860293e-06,0.999999999577
1161000000,116,1161000000,world,-0.000643346717785,-3.45587993297e-05,1.35663950624,-5.3263358831e-06,2.85570941482e-05,-1.70187585535e-06,0.999999999577
1171000000,117,1171000000,world,-0.000651956923562,-3.48472267019e-05,1.36957192584,-5.26217765356e-06,2.85401300993e-05,-1.67581560611e-06,0.999999999577
1181000000,118,1181000000,world,-0.000660559378076,-3.51350585794e-05,1.38234762255,-5.18222623722e-06,2.84768656079e-05,-1.64973886277e-06,0.99999999958
1191000000,119,1191000000,world,-0.000669054184585,-3.54063094833e-05,1.39498435029,-5.08225286627e-06,2.8379667446e-05,-1.62351990892e-06,0.999999999583
1201000000,120,1201000000,world,-0.000677499349254,-3.56698705585e-05,1.40749934535,-4.95771570136e-06,2.82426174069e-05,-1.5972149104e-06,0.999999999588
1211000000,121,1211000000,world,-0.000685934332531,-3.59321913722e-05,1.41990932655,-4.82019444691e-06,2.8059499725e-05,-1.57113650146e-06,0.999999999593
1221000000,122,1221000000,world,-0.000694356055782,-3.61932688585e-05,1.43222873925,-4.68908934475e-06,2.78350741423e-05,-1.54529829177e-06,0.9999999996
1231000000,123,1231000000,world,-0.000702745252253,-3.64514610366e-05,1.44446763188,-4.56360241982e-06,2.7605767041e-05,-1.51952828504e-06,0.999999999607
1241000000,124,1241000000,world,-0.000711022801353,-3.66969720438e-05,1.4566351929,-4.43074015297e-06,2.73528963694e-05,-1.49376404967e-06,0.999999999615
1251000000,125,1251000000,world,-0.000719283882088,-3.69399718948e-05,1.46874029469,-4.28443811621e-06,2.7038136108e-05,-1.46806480387e-06,0.999999999624
1261000000,126,1261000000,world,-0.000727476796593,-3.71789280525e-05,1.48079150235,-4.11650192658e-06,2.66711679496e-05,-1.44233979134e-06,0.999999999635
1271000000,127,1271000000,world,-0.000735619388439,-3.74137580035e-05,1.49279708268,-3.925504224e-06,2.62536494602e-05,-1.41643399056e-06,0.999999999647
1281000000,128,1281000000,world,-0.000743743674127,-3.76449058044e-05,1.50476501293,-3.70428292114e-06,2.57842757872e-05,-1.39063228899e-06,0.99999999966
1291000000,129,1291000000,world,-0.00075184752493,-3.78728730572e-05,1.51670298953,-3.48106515433e-06,2.52662277405e-05,-1.36515383692e-06,0.999999999674
1301000000,130,1301000000,world,-0.000759929273464,-3.80978222023e-05,1.52861843659,-3.26577694335e-06,2.47235294312e-05,-1.33988509085e-06,0.999999999688
1311000000,131,1311000000,world,-0.000767987399229,-3.8319345201e-05,1.54051851436,-3.04695352398e-06,2.41768088132e-05,-1.31463570989e-06,0.999999999702
1321000000,132,1321000000,world,-0.000775974565076,-3.85436414062e-05,1.55241012747,-2.81529186034e-06,2.35676234466e-05,-1.28947205125e-06,0.999999999717
1331000000,133,1331000000,world,-0.000783930569128,-3.87648223935e-05,1.56429993026,-2.56542679254e-06,2.28919807129e-05,-1.26435326749e-06,0.999999999734
1341000000,134,1341000000,world,-0.000791859299039,-3.89815811774e-05,1.57619357286,-2.29079050633e-06,2.21537409153e-05,-1.23909636782e-06,0.999999999751
1351000000,135,1351000000,world,-0.000799754568353,-3.92083495552e-05,1.58809479865,-1.98238818898e-06,2.13607887158e-05,-1.21381433106e-06,0.999999999769
1361000000,136,1361000000,world,-0.000807618786996,-3.94365775405e-05,1.60000698715,-1.66152180617e-06,2.05174135658e-05,-1.1888735777e-06,0.999999999787
1371000000,137,1371000000,world,-0.000815453956876,-3.96605585786e-05,1.61193339089,-1.3474309359e-06,1.9642958239e-05,-1.16423151541e-06,0.999999999805
1381000000,138,1381000000,world,-0.000823260721052,-3.98804350718e-05,1.62387713988,-1.03421776244e-06,1.87798524967e-05,-1.13965601588e-06,0.999999999822
1391000000,139,1391000000,world,-0.000831076644614,-4.01263887785e-05,1.63584124607,-7.07583020485e-07,1.78530300265e-05,-1.11516249874e-06,0.99999999984
1401000000,140,1401000000,world,-0.000838863948134,-4.03742428143e-05,1.64782860758,-3.65371036123e-07,1.68542862869e-05,-1.09075560267e-06,0.999999999857
1411000000,141,1411000000,world,-0.000846618173958,-4.06163357225e-05,1.65984198968,3.86260126885e-10,1.57886967786e-05,-1.06626269462e-06,0.999999999875
1421000000,142,1421000000,world,-0.000854339929261,-4.08530255787e-05,1.67188206173,3.95374033696e-07,1.46668831275e-05,-1.04167131149e-06,0.999999999892
1431000000,143,1431000000,world,-0.000862072485863,-4.11100319392e-05,1.68394611737,8.11900352011e-07,1.34921991526e-05,-1.01739859733e-06,0.999999999908
1441000000,144,1441000000,world,-0.00086981367054,-4.13867278251e-05,1.69603124608,1.22530088742e-06,1.22839092566e-05,-9.93470134284e-07,0.999999999923
1451000000,145,1451000000,world,-0.000877521886416,-4.16581958736e-05,1.7081346556,1.63400758684e-06,1.10977705922e-05,-9.69656538769e-07,0.999999999937
1461000000,146,1461000000,world,-0.000885197110307,-4.19248080226e-05,1.72025366687,2.04941951999e-06,9.87006542492e-06,-9.45909173984e-07,0.999999999949
1471000000,147,1471000000,world,-0.000892884312014,-4.2208461808e-05,1.7323857093,2.47787628363e-06,8.56702209646e-06,-9.22271128575e-07,0.99999999996
1481000000,148,1481000000,world,-0.000900639223759,-4.25356334336e-05,1.7445283162,2.93099785011e-06,7.18751748169e-06,-8.98601637156e-07,0.999999999969
1491000000,149,1491000000,world,-0.000908357920971,-4.28564002911e-05,1.75667912049,3.40723754494e-06,5.75477857086e-06,-8.74788365252e-07,0.999999999977
1501000000,150,1501000000,world,-0.000916042236803,-4.31716100943e-05,1.7688358506,3.90732314804e-06,4.28038372129e-06,-8.51224001398e-07,0.999999999983
1511000000,151,1511000000,world,-0.000923865125945,-4.35568750218e-05,1.78099632645,4.4107781802e-06,2.76305775868e-06,-8.28023764971e-07,0.999999999986
1521000000,152,1521000000,world,-0.000931668643323,-4.39434877012e-05,1.79315845575,4.90628244287e-06,1.27187481829e-06,-8.04997216923e-07,0.999999999987
1531000000,153,1531000000,world,-0.000939484938648,-4.43440426821e-05,1.80532017556,5.40530327087e-06,-2.32494658815e-07,-7.82018005025e-07,0.999999999985
1541000000,154,1541000000,world,-0.000947458079422,-4.4817730804e-05,1.817477261,5.9178197624e-06,-1.82100698309e-06,-7.59160710016e-07,0.999999999981
1551000000,155,1551000000,world,-0.00095538371312,-4.52810297133e-05,1.8296227758,6.44205447972e-06,-3.46729053456e-06,-7.36325529438e-07,0.999999999973
1561000000,156,1561000000,world,-0.000963264550089,-4.57347992299e-05,1.84174989397,6.98151680099e-06,-5.16042778599e-06,-7.13337480093e-07,0.999999999962
1571000000,157,1571000000,world,-0.000971104463671,-4.61802559698e-05,1.85385208,7.54607675021e-06,-6.88436455951e-06,-6.90474522088e-07,0.999999999948
1581000000,158,1581000000,world,-0.000978908100441,-4.66198938544e-05,1.86592307572,8.10778740534e-06,-8.62517869863e-06,-6.67965461615e-07,0.99999999993
1591000000,159,1591000000,world,-0.000986757954977,-4.70854773683e-05,1.87795688768,8.66018846723e-06,-1.03500865727e-05,-6.4569719192e-07,0.999999999909
1601000000,160,1601000000,world,-0.000994802734879,-4.76338826881e-05,1.88994777538,9.21617462124e-06,-1.20595791221e-05,-6.23476909229e-07,0.999999999885
1611000000,161,1611000000,world,-0.00100280922027,-4.81758266893e-05,1.90189023988,9.77095859017e-06,-1.38150228527e-05,-6.01357030953e-07,0.999999999857
1621000000,162,1621000000,world,-0.00101078151241,-4.87128038437e-05,1.91377901314,1.03286755144e-05,-1.56192673585e-05,-5.79307938015e-07,0.999999999825
1631000000,163,1631000000,world,-0.00101872506783,-4.92465967519e-05,1.92560904774,1.08967503609e-05,-1.74665076229e-05,-5.57173026142e-07,0.999999999788
1641000000,164,1641000000,world,-0.00102664620773,-4.97792438893e-05,1.93737545289,1.14828608918e-05,-1.9339797694e-05,-5.34983455873e-07,0.999999999747
1651000000,165,1651000000,world,-0.00103455146979,-5.03134102903e-05,1.94907271456,1.20762918403e-05,-2.1226543577e-05,-5.13084054319e-07,0.999999999702
1661000000,166,1661000000,world,-0.00104275754288,-5.09690007231e-05,1.96069492214,1.26695424057e-05,-2.31357081174e-05,-4.9148926847e-07,0.999999999652
1671000000,167,1671000000,world,-0.00105148043947,-5.18196890153e-05,1.97223639988,1.32701075246e-05,-2.50355193223e-05,-4.70015319477e-07,0.999999999598
1681000000,168,1681000000,world,-0.00106015494092,-5.2659882798e-05,1.98369171149,1.3862753078e-05,-2.69300039553e-05,-4.48588900695e-07,0.999999999541
1691000000,169,1691000000,world,-0.00106878126415,-5.34899051286e-05,1.99505564934,1.444944974e-05,-2.88599658283e-05,-4.27264419614e-07,0.999999999479
1701000000,170,1701000000,world,-0.00107736327417,-5.4310868334e-05,2.00632322434,1.50365492798e-05,-3.08204515452e-05,-4.05956287023e-07,0.999999999412
1711000000,171,1711000000,world,-0.00108621687635,-5.52339677558e-05,2.01748965623,1.56383221842e-05,-3.28329984398e-05,-3.84520924695e-07,0.999999999339
1721000000,172,1721000000,world,-0.00109509627435,-5.61721423999e-05,2.02855036443,1.62560791936e-05,-3.48519696665e-05,-3.63177095024e-07,0.99999999926
1741000000,174,1741000000,world,-0.00111271572146,-5.80188876303e-05,2.05033723352,1.74468954769e-05,-3.88042994166e-05,-3.2133710152e-07,0.999999999095
1751000000,175,1751000000,world,-0.0011214723841,-5.89328519198e-05,2.06105515463,1.80136995848e-05,-4.06726046539e-05,-3.0058627614e-07,0.999999999011
1761000000,176,1761000000,world,-0.00113020416228,-5.98445202686e-05,2.07165085698,1.85676874575e-05,-4.25457674955e-05,-2.79906592701e-07,0.999999998923
1771000000,177,1771000000,world,-0.00113892062672,-6.07572626336e-05,2.08212063472,1.91118467316e-05,-4.44373818357e-05,-2.5930901861e-07,0.99999999883
1781000000,178,1781000000,world,-0.00114763228865,-6.16744546647e-05,2.09246153279,1.96541666975e-05,-4.63440172781e-05,-2.38689484688e-07,0.999999998733
1791000000,179,1791000000,world,-0.00115644595175,-6.2632671795e-05,2.10267311995,2.02009243565e-05,-4.82630605746e-05,-2.17953345825e-07,0.999999998631
1801000000,180,1801000000,world,-0.00116586203096,-6.38084109708e-05,2.11275556877,2.07757022444e-05,-5.0232026132e-05,-1.97393923346e-07,0.999999998523
1811000000,181,1811000000,world,-0.00117558173411,-6.51012347623e-05,2.12270904508,2.13428145422e-05,-5.22017965766e-05,-1.77135327678e-07,0.99999999841
1821000000,182,1821000000,world,-0.00118559477166,-6.64973287742e-05,2.13253409409,2.18942157569e-05,-5.4079665163e-05,-1.57705350433e-07,0.999999998298
1831000000,183,1831000000,world,-0.0011957755945,-6.79537739601e-05,2.14223289939,2.24304456626e-05,-5.57898360814e-05,-1.39689325682e-07,0.999999998192
1841000000,184,1841000000,world,-0.00120590469226,-6.93973932071e-05,2.15180800245,2.29466006144e-05,-5.73896431976e-05,-1.23083904148e-07,0.99999999809
1851000000,185,1851000000,world,-0.00121598695651,-7.08298753146e-05,2.1612618486,2.34456909858e-05,-5.88811865093e-05,-1.07819534681e-07,0.999999997992
1861000000,186,1861000000,world,-0.00122603011756,-7.22537409248e-05,2.17059679055,2.39351146212e-05,-6.02603478065e-05,-9.37222044012e-08,0.999999997898
1871000000,187,1871000000,world,-0.00123534164629,-7.37804847989e-05,2.17981509185,2.44300965089e-05,-6.14419820531e-05,-8.0700579858e-08,0.999999997814
1881000000,188,1881000000,world,-0.00124422004375,-7.53697481981e-05,2.18891892999,2.4922194894e-05,-6.24546291365e-05,-6.90364657009e-08,0.999999997739
1891000000,189,1891000000,world,-0.00125316769158,-7.69506752567e-05,2.19791039964,2.53806360288e-05,-6.33480438827e-05,-5.87589811971e-08,0.999999997671
1901000000,190,1901000000,world,-0.00126220401641,-7.85266920146e-05,2.20679151576,2.58018011351e-05,-6.40985239181e-05,-4.96798674604e-08,0.999999997613
1911000000,191,1911000000,world,-0.00127148284964,-8.0261828566e-05,2.2155642165,2.62106941006e-05,-6.47395900119e-05,-4.16423371111e-08,0.999999997561
1921000000,192,1921000000,world,-0.00128089257022,-8.20178302058e-05,2.22423036607,2.65955398919e-05,-6.53094622737e-05,-3.46741773108e-08,0.999999997514
1931000000,193,1931000000,world,-0.0012904165001,-8.37681862035e-05,2.23279176006,2.69583071864e-05,-6.58037073974e-05,-2.86828031426e-08,0.999999997472
1941000000,194,1941000000,world,-0.00130029385246,-8.5583628619e-05,2.24125085108,2.7311410556e-05,-6.62453330092e-05,-2.34883588889e-08,0.999999997433
1951000000,195,1951000000,world,-0.00131062376244,-8.75186681472e-05,2.24961161347,2.76669008286e-05,-6.66421981387e-05,-1.91605547444e-08,0.999999997397
1961000000,196,1961000000,world,-0.00132104771787,-8.94481399757e-05,2.25787808699,2.79933584355e-05,-6.69572169108e-05,-1.59607847662e-08,0.999999997367
1971000000,197,1971000000,world,-0.00133156505807,-9.13757721014e-05,2.26605416159,2.82730612165e-05,-6.71859862125e-05,-1.38379832362e-08,0.999999997343
1981000000,198,1981000000,world,-0.00134217659031,-9.33053911373e-05,2.27414358269,2.85074081764e-05,-6.7297818055e-05,-1.25748300918e-08,0.999999997329
1991000000,199,1991000000,world,-0.00135326945598,-9.53602581924e-05,2.28214995623,2.87192482534e-05,-6.73694772406e-05,-1.21176742839e-08,0.999999997318
2001000000,200,2001000000,world,-0.00136463714865,-9.74808533356e-05,2.29007675364,2.89055300022e-05,-6.73951796121e-05,-1.24752121648e-08,0.999999997311
2011000000,201,2011000000,world,-0.00137606175899,-9.96038325117e-05,2.29792729497,2.90675594117e-05,-6.73456130065e-05,-1.35137032099e-08,0.99999999731
2021000000,202,2021000000,world,-0.00138775125949,-0.000101800520353,2.30570388764,2.92129902327e-05,-6.72388205639e-05,-1.50754774968e-08,0.999999997313
2031000000,203,2031000000,world,-0.00139978972312,-0.000104101831564,2.31340760714,2.93491340966e-05,-6.70851413397e-05,-1.74282168856e-08,0.999999997319
2041000000,204,2041000000,world,-0.00141185028907,-0.00010640607826,2.32103941388,2.94362757167e-05,-6.68512063354e-05,-2.07171087774e-08,0.999999997332
2051000000,205,2051000000,world,-0.00142393168369,-0.000108716350362,2.32860023111,2.94643744268e-05,-6.65273985168e-05,-2.48048106345e-08,0.999999997353
2061000000,206,2061000000,world,-0.00143638577646,-0.000111148919714,2.33609094629,2.94562993361e-05,-6.61251593014e-05,-2.94992939631e-08,0.99999999738
2071000000,207,2071000000,world,-0.00144892819117,-0.000113623738826,2.34351241255,2.94120898349e-05,-6.56533125563e-05,-3.48275963175e-08,0.999999997412
2081000000,208,2081000000,world,-0.00146146912417,-0.000116104199336,2.35086544995,2.93329446113e-05,-6.50952201079e-05,-4.07366961291e-08,0.999999997451
2091000000,209,2091000000,world,-0.0014741185911,-0.000118624672848,2.3581508467,2.92296800947e-05,-6.44560313817e-05,-4.70574499757e-08,0.999999997496
2101000000,210,2101000000,world,-0.00148701137871,-0.000121247452018,2.36536936044,2.91091385706e-05,-6.37513705114e-05,-5.37992563358e-08,0.999999997544
2111000000,211,2111000000,world,-0.00149989208495,-0.00012387742945,2.37252171943,2.89469263094e-05,-6.29601661727e-05,-6.12840012891e-08,0.999999997599
2121000000,212,2121000000,world,-0.00151276415631,-0.000126517675223,2.37960862362,2.87193108669e-05,-6.20884104741e-05,-6.95115130505e-08,0.99999999766
2131000000,213,2131000000,world,-0.00152563314612,-0.000129170990909,2.38663074578,2.84262352964e-05,-6.11153677576e-05,-7.82760077362e-08,0.999999997728
2141000000,214,2141000000,world,-0.00153853348261,-0.000131849899153,2.39358887708,2.80872154831e-05,-6.00450425513e-05,-8.7492055238e-08,0.999999997803
2151000000,215,2151000000,world,-0.00155168879573,-0.00013463505947,2.40048529147,2.77170183698e-05,-5.89109127945e-05,-9.72049367198e-08,0.999999997881
2161000000,216,2161000000,world,-0.00156484404954,-0.000137435202122,2.40732305866,2.73151906284e-05,-5.76760893913e-05,-1.07296522734e-07,0.999999997964
2171000000,217,2171000000,world,-0.00157800414175,-0.000140252403523,2.41410514285,2.68802733634e-05,-5.63400020199e-05,-1.17599695121e-07,0.999999998052
2181000000,218,2181000000,world,-0.00159128153448,-0.000143123209472,2.42083439646,2.64164202675e-05,-5.49260957e-05,-1.28382274056e-07,0.999999998143
2191000000,219,2191000000,world,-0.00160465374205,-0.000146041559246,2.4275135642,2.58916493288e-05,-5.34431219753e-05,-1.39839812687e-07,0.999999998237
2201000000,220,2201000000,world,-0.00161803463572,-0.000148980497177,2.43414528698,2.5289680158e-05,-5.1890498088e-05,-1.51848120862e-07,0.999999998334
2211000000,221,2211000000,world,-0.00163142930234,-0.000151941078875,2.4407321057,2.46277058103e-05,-5.02328981589e-05,-1.64204039222e-07,0.999999998435
2221000000,222,2221000000,world,-0.00164484185975,-0.00015492428784,2.44727646485,2.39217691604e-05,-4.84840778964e-05,-1.76951715053e-07,0.999999998539
2231000000,223,2231000000,world,-0.00165827676693,-0.000157931273388,2.45378071611,2.31793321876e-05,-4.66336720384e-05,-1.90048662652e-07,0.999999998644
2241000000,224,2241000000,world,-0.00167173809203,-0.000160963064908,2.4602471217,2.24077027695e-05,-4.46769030145e-05,-2.03320290553e-07,0.999999998751
2251000000,225,2251000000,world,-0.00168529683808,-0.000164035697689,2.46667729931,2.16035127578e-05,-4.26348500732e-05,-2.16805117556e-07,0.999999998858
2261000000,226,2261000000,world,-0.0016989128641,-0.000167140156353,2.473069766,2.07460473216e-05,-4.05211226627e-05,-2.30851688505e-07,0.999999998964
2271000000,227,2271000000,world,-0.0017125622233,-0.000170252604562,2.47942209628,1.98073890247e-05,-3.83544632315e-05,-2.45450407959e-07,0.999999999068
2281000000,228,2281000000,world,-0.00172624029221,-0.000173392719565,2.48573196277,1.87941729569e-05,-3.61192196598e-05,-2.60382600728e-07,0.999999999171
2291000000,229,2291000000,world,-0.0017399481784,-0.000176559585064,2.49199713213,1.7735326123e-05,-3.37937216409e-05,-2.75591937443e-07,0.999999999272
2301000000,230,2301000000,world,-0.00175368607551,-0.000179752532566,2.4982154611,1.6639948582e-05,-3.13742244861e-05,-2.91112115507e-07,0.999999999369
2311000000,231,2311000000,world,-0.0017674270119,-0.00018295894856,2.50438489281,1.55181288542e-05,-2.88482800213e-05,-3.06820282097e-07,0.999999999463
2321000000,232,2321000000,world,-0.00178109414286,-0.000186125970021,2.51050345312,1.43570660814e-05,-2.62164415339e-05,-3.2257585259e-07,0.999999999553
2331000000,233,2331000000,world,-0.00179478458884,-0.000189321229961,2.51656924927,1.31570607855e-05,-2.35136420712e-05,-3.38693243395e-07,0.999999999637
2341000000,234,2341000000,world,-0.00180828020933,-0.000192416044228,2.52258101388,1.187178772e-05,-2.07402253242e-05,-3.55322110908e-07,0.999999999714
2351000000,235,2351000000,world,-0.00182182318071,-0.000195546149205,2.52853875056,1.05041545171e-05,-1.79458889879e-05,-3.7232484045e-07,0.999999999784
2361000000,236,2361000000,world,-0.00183541404644,-0.00019871014383,2.53444262353,9.08381342063e-06,-1.50823145489e-05,-3.89524576845e-07,0.999999999845
2371000000,237,2371000000,world,-0.00184905089311,-0.000201905980638,2.54029279052,7.63121041265e-06,-1.21424279576e-05,-4.06980555662e-07,0.999999999897
2381000000,238,2381000000,world,-0.00186273054938,-0.000205131310911,2.54608940305,6.15578640055e-06,-9.11265304072e-06,-4.24639620402e-07,0.999999999939
2391000000,239,2391000000,world,-0.00187624846522,-0.000208276648222,2.55183260673,4.65079018241e-06,-5.97023841742e-06,-4.42329399672e-07,0.999999999971
2401000000,240,2401000000,world,-0.001889681062,-0.000211382957896,2.55752254145,3.10965960528e-06,-2.74976572932e-06,-4.60135892924e-07,0.999999999991
2411000000,241,2411000000,world,-0.00190316177066,-0.000214522084085,2.56315927977,1.51514426461e-06,5.0738980906e-07,-4.78387435999e-07,0.999999999999
2421000000,242,2421000000,world,-0.00191668516795,-0.00021769206122,2.56874142341,-1.57908111246e-07,3.7666717517e-06,-4.97055992594e-07,0.999999999993
2431000000,243,2431000000,world,-0.00193024527527,-0.000220889258472,2.57426617791,-1.89922790089e-06,7.04200830763e-06,-5.15931364785e-07,0.999999999973
2441000000,244,2441000000,world,-0.00194336850938,-0.000223864079178,2.57973080243,-3.69653992211e-06,1.04244502698e-05,-5.34975600973e-07,0.999999999939
2451000000,245,2451000000,world,-0.00195654261849,-0.000226871074314,2.58513266747,-5.51108373819e-06,1.38746435203e-05,-5.54224345342e-07,0.999999999888
2461000000,246,2461000000,world,-0.00196952985243,-0.000229781500609,2.59046925023,-7.34344869995e-06,1.74256856789e-05,-5.73557883562e-07,0.999999999821
2471000000,247,2471000000,world,-0.00198222927694,-0.000232541237697,2.59573813008,-9.21146708335e-06,2.10712503809e-05,-5.9284868474e-07,0.999999999735
2481000000,248,2481000000,world,-0.00199499543262,-0.000235342099371,2.60093698436,-1.11059875524e-05,2.47384856833e-05,-6.12412650133e-07,0.999999999632
2491000000,249,2491000000,world,-0.00200782193765,-0.000238181744259,2.60606358425,-1.30599915876e-05,2.83966040672e-05,-6.32390919809e-07,0.999999999511
2501000000,250,2501000000,world,-0.00202069941675,-0.000241055978373,2.61111579091,-1.50858381745e-05,3.20107624125e-05,-6.52649251736e-07,0.999999999374
2511000000,251,2511000000,world,-0.00203361853595,-0.000243958124569,2.61609155173,-1.71462550033e-05,3.56399686122e-05,-6.73020916651e-07,0.999999999218
2521000000,252,2521000000,world,-0.00204599077506,-0.000246570832895,2.62098889673,-1.92480427453e-05,3.93659072689e-05,-6.9355952166e-07,0.99999999904
2531000000,253,2531000000,world,-0.00205835265173,-0.000249181926268,2.62580593531,-2.13493886601e-05,4.31449525456e-05,-7.14229183557e-07,0.999999998841
2541000000,254,2541000000,world,-0.00207076144246,-0.00025182208299,2.63054166488,-2.34416138588e-05,4.69702123737e-05,-7.34877070763e-07,0.999999998622
2551000000,255,2551000000,world,-0.00208320566137,-0.000254485632896,2.63519753557,-2.55422925495e-05,5.08111086314e-05,-7.55550051976e-07,0.999999998383
2561000000,256,2561000000,world,-0.00209546113017,-0.000257072022662,2.63977537702,-2.76847871426e-05,5.46596905737e-05,-7.76571012273e-07,0.999999998123
2571000000,257,2571000000,world,-0.00210711966858,-0.000259307399896,2.64427694869,-2.99250075779e-05,5.8518689038e-05,-7.97934586523e-07,0.99999999784
2581000000,258,2581000000,world,-0.00211882144221,-0.000261572761181,2.64870394288,-3.2215336747e-05,6.23160948222e-05,-8.19457232855e-07,0.999999997539
2591000000,259,2591000000,world,-0.00213046525399,-0.000263809794697,2.65305798686,-3.45134158274e-05,6.61236738051e-05,-8.41082185168e-07,0.999999997218
2601000000,260,2601000000,world,-0.00214132784975,-0.000265614599154,2.65734064535,-3.68456636159e-05,7.00282649533e-05,-8.62851799924e-07,0.999999996869
2611000000,261,2611000000,world,-0.00215225283406,-0.000267457465306,2.6615534289,-3.91481596708e-05,7.39491107684e-05,-8.84679809807e-07,0.999999996499
2621000000,262,2621000000,world,-0.00216313301734,-0.000269276953823,2.66569802054,-4.14386011157e-05,7.78812601858e-05,-9.06414061179e-07,0.999999996108
2631000000,263,2631000000,world,-0.00217320411857,-0.000270630740377,2.66977633603,-4.37737574911e-05,8.18651810323e-05,-9.28314774602e-07,0.999999995691
2641000000,264,2641000000,world,-0.00218335619733,-0.000272036388658,2.67379023737,-4.61333711528e-05,8.57720233591e-05,-9.50586436613e-07,0.999999995257
2651000000,265,2651000000,world,-0.00219357760418,-0.000273488540197,2.67774151514,-4.85332986924e-05,8.95590941679e-05,-9.73117482379e-07,0.999999994811
2661000000,266,2661000000,world,-0.00220324287259,-0.000274621109766,2.68163189123,-5.09732832877e-05,9.33414354613e-05,-9.95718168794e-07,0.999999994344
2671000000,267,2671000000,world,-0.00221258440768,-0.000275568504419,2.68546302169,-5.34011179808e-05,9.71198774816e-05,-1.01844622106e-06,0.999999993858
2681000000,268,2681000000,world,-0.00222200857518,-0.000276567536494,2.68923649913,-5.57783373739e-05,0.000100861911979,-1.04128265801e-06,0.999999993357
2691000000,269,2691000000,world,-0.00223149883309,-0.000277608688429,2.69295385489,-5.80978495354e-05,0.000104566634893,-1.06407432846e-06,0.999999992845
2701000000,270,2701000000,world,-0.00224103482276,-0.000278680863583,2.69661656148,-6.03798246515e-05,0.000108203862849,-1.08683252882e-06,0.999999992323
2711000000,271,2711000000,world,-0.00225015373507,-0.000279505061635,2.70022603463,-6.26741509005e-05,0.000111789714572,-1.10990147687e-06,0.999999991787
2721000000,272,2721000000,world,-0.00225865353131,-0.000279960657094,2.70378363564,-6.5021197519e-05,0.000115307506851,-1.13329239427e-06,0.999999991238
2731000000,273,2731000000,world,-0.00226719552294,-0.000280448707913,2.70729067364,-6.73706925816e-05,0.000118684649707,-1.15681894868e-06,0.999999990687
2741000000,274,2741000000,world,-0.00227576261227,-0.000280957110718,2.7107484071,-6.96706830666e-05,0.000121974725986,-1.1804208181e-06,0.999999990133
2751000000,275,2751000000,world,-0.0022843335882,-0.000281472753331,2.71415804595,-7.1905740487e-05,0.000125184487155,-1.20415428217e-06,0.999999989578
2761000000,276,2761000000,world,-0.00229277135676,-0.000281911628912,2.71752073542,-7.40714774271e-05,0.000128334683059,-1.2279177036e-06,0.999999989021
2771000000,277,2771000000,world,-0.00230017679283,-0.000281722911865,2.72083744201,-7.62359716038e-05,0.000131505237404,-1.25154341742e-06,0.999999988446
2781000000,278,2781000000,world,-0.00230711177991,-0.000281242242269,2.72410903614,-7.83766744931e-05,0.00013460316999,-1.27532951964e-06,0.999999987869
2801000000,280,2801000000,world,-0.00231966786992,-0.000279472943015,2.73052019967,-8.26824745368e-05,0.000140451563359,-1.32381846638e-06,0.999999986718
2811000000,281,2811000000,world,-0.00232598992076,-0.000278628920769,2.73366134581,-8.47700182774e-05,0.000143147363586,-1.34823039243e-06,0.999999986161
2821000000,282,2821000000,world,-0.00233231894174,-0.000277796691334,2.73676053505,-8.6768574863e-05,0.000145708115395,-1.37276070157e-06,0.999999985619
2831000000,283,2831000000,world,-0.00233863347889,-0.00027696252227,2.7398184812,-8.86680735325e-05,0.000148141162403,-1.39737246457e-06,0.999999985095
2841000000,284,2841000000,world,-0.00234434833836,-0.000275757956835,2.74283587008,-9.05017227776e-05,0.000150505046931,-1.42189165448e-06,0.999999984578
2851000000,285,2851000000,world,-0.00234966860107,-0.000274312491731,2.74581336119,-9.22692158849e-05,0.000152753633553,-1.44638516032e-06,0.999999984075
2861000000,286,2861000000,world,-0.00235496113742,-0.000272857682835,2.74875158844,-9.39672584412e-05,0.000154825372553,-1.47120099133e-06,0.999999983599
2871000000,287,2871000000,world,-0.00235965042472,-0.000271011391867,2.75165120212,-9.56597851325e-05,0.000156760687314,-1.49630870067e-06,0.999999983137
2881000000,288,2881000000,world,-0.00236349114432,-0.000268609944356,2.75451452774,-9.73487290428e-05,0.00015860836249,-1.5214989257e-06,0.999999982682
2891000000,289,2891000000,world,-0.00236732665289,-0.000266214449259,2.75734599706,-9.8928937949e-05,0.000160282427804,-1.54676435771e-06,0.99999998226
2901000000,290,2901000000,world,-0.00237114131876,-0.000263814622545,2.76015001874,-0.000100387891875,0.000161773185414,-1.57214225477e-06,0.999999981875
2911000000,291,2911000000,world,-0.00237481617275,-0.000261326835025,2.76293083808,-0.000101721800026,0.000163092323749,-1.59750531404e-06,0.999999981526
2921000000,292,2921000000,world,-0.00237756368299,-0.000258193238698,2.7656925424,-0.000102996132013,0.000164310264889,-1.62271248886e-06,0.999999981196
2931000000,293,2931000000,world,-0.00238028585049,-0.000255055817873,2.76843900386,-0.000104174002481,0.000165337719493,-1.64815023798e-06,0.999999980904
2941000000,294,2941000000,world,-0.00238297358731,-0.000251911745013,2.77117050313,-0.000105572497222,0.000166451148576,-1.67392015608e-06,0.999999980573
2951000000,295,2951000000,world,-0.00238561113502,-0.000248750948744,2.77388225725,-0.000107267094498,0.000167722487331,-1.69984567931e-06,0.99999998018
2961000000,296,2961000000,world,-0.00238733605823,-0.000244944946066,2.77656927981,-0.000109269862266,0.000169240560823,-1.72576555259e-06,0.999999979707
2971000000,297,2971000000,world,-0.00238892814718,-0.000241060803836,2.77922679319,-0.000111480887543,0.000170888321419,-1.75177772451e-06,0.999999979183
2981000000,298,2981000000,world,-0.0023897874325,-0.000236496166727,2.78185021777,-0.000113930893051,0.00017272456128,-1.77777593251e-06,0.999999978591
2991000000,299,2991000000,world,-0.00238466416748,-0.00022616293203,2.78443516086,-0.000117117488877,0.000175280650605,-1.80316215757e-06,0.999999977778
3001000000,300,3001000000,world,-0.00237985650987,-0.000216175077704,2.78697741871,-0.000120410441807,0.000177839930578,-1.82863895622e-06,0.999999976935
3011000000,301,3011000000,world,-0.00237539417498,-0.000206566907272,2.78947296527,-0.000123812825707,0.000180345956616,-1.85445660412e-06,0.999999976071
3021000000,302,3021000000,world,-0.0023712817539,-0.000197348428104,2.79192009276,-0.000127322982718,0.000182747473893,-1.88053167242e-06,0.999999975194
3031000000,303,3031000000,world,-0.00236750621008,-0.000188509640713,2.79432195034,-0.000130879224952,0.000185060971845,-1.90667256628e-06,0.99999997431
3041000000,304,3041000000,world,-0.00236208954496,-0.000178189658785,2.79668219875,-0.000134599090036,0.0001874704392,-1.93278656856e-06,0.999999973367
3051000000,305,3051000000,world,-0.0023568515561,-0.000168103689644,2.79900436418,-0.000138259394481,0.000189765451575,-1.95900338043e-06,0.999999972435
3061000000,306,3061000000,world,-0.00235198827926,-0.000158437710936,2.80129183973,-0.000141807078826,0.000191902925312,-1.98519029331e-06,0.99999997153
3071000000,307,3071000000,world,-0.00234673330379,-0.000148464431198,2.80354789052,-0.000145326741059,0.000193924479072,-2.01125757545e-06,0.999999970635
3081000000,308,3081000000,world,-0.00234168625515,-0.00013875587168,2.80577565987,-0.000148765216435,0.000195725099431,-2.03761796633e-06,0.999999969778
3091000000,309,3091000000,world,-0.00233693377924,-0.000129395614087,2.80797817244,-0.000152129453421,0.000197262440949,-2.06431748066e-06,0.99999996897
3101000000,310,3101000000,world,-0.00233242525785,-0.000120334228184,2.81015833868,-0.000155400514148,0.000198549108171,-2.09116229417e-06,0.999999968212
3111000000,311,3111000000,world,-0.00232764723606,-0.000111017560398,2.81231895875,-0.000158549625806,0.000199632277564,-2.11802741089e-06,0.999999967502
3121000000,312,3121000000,world,-0.00232295060595,-0.000101832456461,2.81446272753,-0.000161499214474,0.000200437834736,-2.14502037094e-06,0.999999966869
3131000000,313,3131000000,world,-0.00231836701888,-9.28181756944e-05,2.81659214963,-0.000164219036282,0.000200950319034,-2.17204180868e-06,0.999999966323
3141000000,314,3141000000,world,-0.00231384542524,-8.3923982608e-05,2.81870754745,-0.000166722834809,0.000201159289109,-2.198924676e-06,0.999999965867
3151000000,315,3151000000,world,-0.00230895405131,-7.45823148746e-05,2.8208071659,-0.000169074007901,0.000201096135886,-2.2258987148e-06,0.999999965485
3161000000,316,3161000000,world,-0.00230395786124,-6.51678652794e-05,2.82288923555,-0.000171257953974,0.00020072668457,-2.25321330143e-06,0.999999965187
3171000000,317,3171000000,world,-0.00229891530401,-5.57727124375e-05,2.8249520578,-0.000173267608435,0.000200071939794,-2.28075130923e-06,0.999999964972
3181000000,318,3181000000,world,-0.00229378820757,-4.6354937494e-05,2.82699400203,-0.000175051080995,0.00019914606409,-2.30834594935e-06,0.999999964846
3191000000,319,3191000000,world,-0.00228822538946,-3.63365991683e-05,2.82901350254,-0.000176635365172,0.000197906146105,-2.33593924743e-06,0.999999964814
3201000000,320,3201000000,world,-0.00228244884915,-2.61193365767e-05,2.83100905679,-0.000177962791989,0.000196317900368,-2.36356870342e-06,0.999999964891
3211000000,321,3211000000,world,-0.00227651211132,-1.58122559796e-05,2.83297923075,-0.000179018042158,0.000194371077902,-2.39108205029e-06,0.999999965083
3221000000,322,3221000000,world,-0.00227039033676,-5.38676767457e-06,2.83492338869,-0.000179803201202,0.000192078229354,-2.41861189414e-06,0.999999965385
3231000000,323,3231000000,world,-0.00226383224107,5.79947871999e-06,2.83684216842,-0.000180401112282,0.00018947799062,-2.44630836096e-06,0.999999965774
3241000000,324,3241000000,world,-0.00225706023454,1.71202499138e-05,2.83873630079,-0.000180755857161,0.000186590092621,-2.47431166107e-06,0.999999966253
3251000000,325,3251000000,world,-0.00225006005915,2.85955679918e-05,2.84060648786,-0.000180846039727,0.000183469397312,-2.50242043451e-06,0.999999966814
3261000000,326,3261000000,world,-0.00224281533659,4.02456019984e-05,2.84245340447,-0.000180645728828,0.000179986271083,-2.53061726196e-06,0.999999967483
3271000000,327,3271000000,world,-0.00223532591787,5.24935981943e-05,2.84427769901,-0.000180191560023,0.000176101603736,-2.55873628338e-06,0.999999968256
3281000000,328,3281000000,world,-0.00222757289032,6.50272191956e-05,2.84607999494,-0.000179441090845,0.000171811361341,-2.58676667459e-06,0.999999969138
3291000000,329,3291000000,world,-0.00221954678292,7.77547530385e-05,2.84786089136,-0.000178375556811,0.000167141479614,-2.61469437207e-06,0.99999997012
3301000000,330,3301000000,world,-0.00221124336618,9.06882912961e-05,2.84962096402,-0.000176986907728,0.000162126676169,-2.64290559149e-06,0.999999971192
3311000000,331,3311000000,world,-0.00220287456365,0.000104073777899,2.85136076624,-0.000175315984323,0.000156798938417,-2.6713092199e-06,0.999999972336
3321000000,332,3321000000,world,-0.00219430615481,0.000117771309722,2.85308082977,-0.000173339471948,0.000151281325432,-2.69984887796e-06,0.99999997353
3331000000,333,3331000000,world,-0.00218544143391,0.000131684435818,2.85478164164,-0.000171043894839,0.000145452801496,-2.72846611459e-06,0.99999997479
3341000000,334,3341000000,world,-0.00217651176513,0.000145878682285,2.85646268033,-0.000168437764201,0.000139176151105,-2.75709563395e-06,0.999999976126
3351000000,335,3351000000,world,-0.00216761607679,0.000160383388799,2.85812217078,-0.000165521368002,0.000132431826696,-2.78559382695e-06,0.999999977528
3361000000,336,3361000000,world,-0.00215840232967,0.000175110832184,2.85975832711,-0.000162272294695,0.000125282976481,-2.81395595375e-06,0.999999978982
3371000000,337,3371000000,world,-0.00214887776525,0.000190064702584,2.86136943521,-0.000158651818056,0.000117793176114,-2.84248527309e-06,0.999999980473
3381000000,338,3381000000,world,-0.00213905306335,0.000205246816976,2.86295384959,-0.000154673003284,0.000110023965832,-2.87140108705e-06,0.999999981981
3391000000,339,3391000000,world,-0.00212979551662,0.000220582785307,2.86450999085,-0.000150319932157,0.000102025479422,-2.9003421053e-06,0.999999983493
3401000000,340,3401000000,world,-0.00212026179568,0.000236144475656,2.86603634233,-0.000145622164685,9.38483431471e-05,-2.92938086349e-06,0.999999984989
3411000000,341,3411000000,world,-0.00211041134104,0.000251939444065,2.86753145002,-0.000140608800964,8.52742422289e-05,-2.95853762563e-06,0.999999986474
3421000000,342,3421000000,world,-0.0021002586768,0.000267965860969,2.86899441121,-0.000135285586763,7.62735568651e-05,-2.98776505463e-06,0.999999987936
3431000000,343,3431000000,world,-0.00209073905231,0.000283940856221,2.87042545542,-0.000129614849905,6.67558784307e-05,-3.01667584124e-06,0.999999989367
3441000000,344,3441000000,world,-0.00208128722969,0.00030004176204,2.87182494702,-0.000123553246474,5.68645931286e-05,-3.04549857857e-06,0.999999990746
3451000000,345,3451000000,world,-0.00207151367291,0.00031639006271,2.87319323621,-0.000117101637847,4.67194545051e-05,-3.07468082149e-06,0.999999992048
3461000000,346,3461000000,world,-0.00206143986392,0.00033298107898,2.87453065958,-0.000110252424726,3.64523683009e-05,-3.10422131773e-06,0.999999993253
3471000000,347,3471000000,world,-0.00205960451671,0.000345495138633,2.87583754231,-0.000102561637341,2.53095120305e-05,-3.13250857767e-06,0.999999994415
3481000000,348,3481000000,world,-0.00206254730207,0.000354285764785,2.87711419415,-9.41581287177e-05,1.33682518546e-05,-3.16053827891e-06,0.999999995473
3491000000,349,3491000000,world,-0.00206434294311,0.000363841225244,2.87836091207,-8.55647178658e-05,1.17157668559e-06,-3.1887902044e-06,0.999999996334
3501000000,350,3501000000,world,-0.00206494287569,0.000374200882178,2.87957798328,-7.68084141469e-05,-1.12472583152e-05,-3.21714532274e-06,0.999999996982
3511000000,351,3511000000,world,-0.00207191914061,0.000380170122035,2.88076568427,-6.73118262875e-05,-2.45822592712e-05,-3.24459959087e-06,0.999999997427
3521000000,352,3521000000,world,-0.00207856958701,0.000385994524368,2.88192427893,-5.74700079267e-05,-3.79612485975e-05,-3.2724052821e-06,0.999999997623
3531000000,353,3531000000,world,-0.00208350044568,0.000393040671032,2.8830540226,-4.74506874419e-05,-5.10704164548e-05,-3.30076029434e-06,0.999999997565
3541000000,354,3541000000,world,-0.00208674500498,0.000401303218519,2.88415518852,-3.72699331106e-05,-6.36736038582e-05,-3.32951672036e-06,0.999999997273
3551000000,355,3551000000,world,-0.00208836674989,0.000410745052983,2.88522807486,-2.70696259541e-05,-7.59688859926e-05,-3.35851462361e-06,0.999999996742
3561000000,356,3561000000,world,-0.0020917258259,0.000418536771428,2.88627296999,-1.66300873025e-05,-8.85072062835e-05,-3.38740057311e-06,0.999999995939
3571000000,357,3571000000,world,-0.00209608521856,0.000425331536638,2.88729015113,-6.06080612805e-06,-0.000101188847072,-3.41619385309e-06,0.999999994856
3581000000,358,3581000000,world,-0.00209878226441,0.000433419157266,2.88827988522,4.41475091885e-06,-0.000113654505562,-3.44502549822e-06,0.999999993526
3591000000,359,3591000000,world,-0.00210341914377,0.00043893048351,2.88924242762,1.52730123655e-05,-0.000126134063702,-3.47355430459e-06,0.999999991922
3601000000,360,3601000000,world,-0.00210641893215,0.000445827060964,2.8901780253,2.60842586257e-05,-0.000138121044222,-3.50258793337e-06,0.999999990115
3611000000,361,3611000000,world,-0.00210789988922,0.000454046219283,2.89108691796,3.68506672468e-05,-0.000149431384473,-3.53204392332e-06,0.99999998815
3621000000,362,3621000000,world,-0.00210872457346,0.00046253342247,2.89197037227,4.75729611334e-05,-0.000160039893751,-3.56292976224e-06,0.999999986056
3631000000,363,3631000000,world,-0.00210932836267,0.000470007540655,2.89283207306,5.82503879644e-05,-0.000170202801622,-3.59578177817e-06,0.999999983812
3641000000,364,3641000000,world,-0.00210873538047,0.000478701421171,2.89367592386,6.86044666973e-05,-0.000179836353652,-3.63092192347e-06,0.99999998147
3651000000,365,3651000000,world,-0.00210709237343,0.000488520409827,2.89450568233,7.86421260127e-05,-0.000188923556474,-3.668086611e-06,0.999999979055
3661000000,366,3661000000,world,-0.00210356245009,0.000498543707152,2.89532496581,8.85461394778e-05,-0.000197281731528,-3.70681828456e-06,0.999999976613
3671000000,367,3671000000,world,-0.00209789753154,0.00050832857493,2.89613725595,9.83716912395e-05,-0.000204819159951,-3.74725997163e-06,0.999999974179
3681000000,368,3681000000,world,-0.00209178627941,0.000519030191469,2.89694590326,0.000107989121982,-0.000211641964948,-3.78987009102e-06,0.999999971766
3691000000,369,3691000000,world,-0.00208538668712,0.000530541753878,2.89775413268,0.000117363581156,-0.000217698906476,-3.83435811583e-06,0.999999969409
3701000000,370,3701000000,world,-0.00207883593618,0.000542749317185,2.89856504764,0.000126365912682,-0.000223193488289,-3.88064514326e-06,0.999999967101
3711000000,371,3711000000,world,-0.00207051993182,0.000554124659594,2.89938163491,0.00013512267486,-0.000228017416504,-3.92795286816e-06,0.999999964867
3721000000,372,3721000000,world,-0.00206197017642,0.000565713729505,2.90020676768,0.000143517510754,-0.000232333253934,-3.97669589207e-06,0.999999962704
3731000000,373,3731000000,world,-0.0020537496331,0.000577790185803,2.90104320815,0.000151587456639,-0.000236176293193,-4.02685460192e-06,0.999999960613
3741000000,374,3741000000,world,-0.00204595386978,0.000590262787492,2.9018929284,0.000159384552843,-0.000239538189811,-4.0787324492e-06,0.999999958601
3751000000,375,3751000000,world,-0.00203352361609,0.000610432511518,2.90275630689,0.000166123136692,-0.000241880680749,-4.13323027975e-06,0.99999995694
3761000000,376,3761000000,world,-0.00202071341296,0.000632175574927,2.90363349801,0.000172461818049,-0.00024364479312,-4.18939024089e-06,0.999999955438
3771000000,377,3771000000,world,-0.00200894183666,0.00065342853317,2.90452465259,0.000178544767941,-0.00024505737622,-4.24682321882e-06,0.999999954025
3781000000,378,3781000000,world,-0.00199812194967,0.000674381728982,2.90542991705,0.000184344595369,-0.000246186008797,-4.30557939517e-06,0.999999952695
3791000000,379,3791000000,world,-0.001987858203,0.000695844613396,2.90634943251,0.000189802674828,-0.000247006068344,-4.36559958744e-06,0.999999951472
3801000000,380,3801000000,world,-0.00197880333258,0.000716422676824,2.90728333318,0.000195125400858,-0.000247600887606,-4.42646513705e-06,0.9999999503
3811000000,381,3811000000,world,-0.00197096096549,0.00073605659238,2.90823174882,0.000200391617961,-0.000247989153924,-4.48841749937e-06,0.999999949162
3821000000,382,3821000000,world,-0.00196431724735,0.000754709034453,2.9091942167,0.000205608812115,-0.000248190627201,-4.55162878877e-06,0.999999948053
3831000000,383,3831000000,world,-0.00195884453484,0.000772362928617,2.910167933,0.000210800461913,-0.00024820645622,-4.61591176582e-06,0.999999946968
3841000000,384,3841000000,world,-0.00195450531221,0.000789014955102,2.91114963279,0.000215931083337,-0.000248037075543,-4.68104802886e-06,0.999999945915
3851000000,385,3851000000,world,-0.00195200710084,0.000803785767766,2.9121361835,0.000221073698846,-0.000247814806935,-4.74705224871e-06,0.999999944846
3861000000,386,3861000000,world,-0.00195070318723,0.000817298867657,2.91312458145,0.000226171348554,-0.000247475703467,-4.81385016199e-06,0.99999994379
3871000000,387,3871000000,world,-0.00195136848645,0.000828339859141,2.91411194351,0.000231375638707,-0.000247104496889,-4.88114232448e-06,0.99999994269
3881000000,388,3881000000,world,-0.00195283543182,0.000838647515114,2.91509550593,0.0002365702488,-0.000246585843551,-4.9491629866e-06,0.999999941603
3891000000,389,3891000000,world,-0.00195504046943,0.00084826995381,2.91607261573,0.00024174290222,-0.000245923428776,-5.01820596197e-06,0.999999940528
3901000000,390,3901000000,world,-0.00195792741759,0.000857248002174,2.91704072736,0.000246892236282,-0.000245118629529,-5.0881779539e-06,0.999999939468
3911000000,391,3911000000,world,-0.00196144751383,0.000865615068296,2.91799739822,0.000251982895738,-0.000244138052777,-5.15883509726e-06,0.999999938437
3921000000,392,3921000000,world,-0.00196555689398,0.00087339784245,2.9189402844,0.000256962667904,-0.000243004866546,-5.2301985397e-06,0.999999937446
3931000000,393,3931000000,world,-0.00197054859626,0.000879930449854,2.91986714778,0.000261896777835,-0.000241745878814,-5.30219182496e-06,0.99999993647
3941000000,394,3941000000,world,-0.00197700582665,0.000883739380506,2.92077632318,0.000266944830163,-0.00024041550182,-5.37451570812e-06,0.999999935456
3951000000,395,3951000000,world,-0.00198403103791,0.0008868218041,2.92166683717,0.000271943615404,-0.000238922541472,-5.44727103644e-06,0.999999934467
