%time,field.header.seq,field.header.stamp,field.header.frame_id,field.point.x,field.point.y,field.point.z
1000000,0,1000000,world,0.0,0.0,0.74
11000000,1,11000000,world,-1.07738277069e-27,-1.09807001825e-27,0.739461
21000000,2,21000000,world,1.63692024856e-24,1.51811157212e-24,0.737942
31000000,3,31000000,world,-4.38394968409e-25,-6.00545634499e-25,0.735443
41000000,4,41000000,world,-1.4288227372e-24,-1.79321964477e-24,0.731964
51000000,5,51000000,world,-2.69206115799e-25,-7.55861801429e-25,0.727505
61000000,6,61000000,world,4.36934927905e-25,3.89341348587e-26,0.722066
71000000,7,71000000,world,-1.86791788946e-24,-1.93013297106e-24,0.715647
81000000,8,81000000,world,7.48519303337e-25,9.83142948158e-25,0.708248
101000000,10,101000000,world,2.35839674353e-24,4.0055428591e-24,0.69051
111000000,11,111000000,world,1.85735667253e-24,4.2854929649e-24,0.680171
121000000,12,121000000,world,2.83172823233e-24,5.97049740872e-24,0.668852
131000000,13,131000000,world,-3.7891259141e-19,3.78801971743e-19,0.656553
141000000,14,141000000,world,1.90663111244e-14,1.79796769666e-14,0.643274123389
151000000,15,151000000,world,3.29705891827e-14,3.01461320114e-14,0.629016941796
161000000,16,161000000,world,-1.63756374595e-06,5.17784818739e-08,0.624998110512
171000000,17,171000000,world,3.75504720686e-06,2.07266699249e-06,0.624996439269
181000000,18,181000000,world,-3.39429267871e-06,-3.6306080497e-06,0.624996389781
191000000,19,191000000,world,4.54031764089e-06,1.0738763869e-06,0.624996320642
201000000,20,201000000,world,-2.76442920287e-06,-4.46202736225e-06,0.624996475176
211000000,21,211000000,world,4.98165615848e-06,1.03005328367e-07,0.624996423179
221000000,22,221000000,world,-2.0281006725e-06,-5.18947765913e-06,0.624996671804
231000000,23,231000000,world,4.96118798144e-06,-4.96913317169e-06,0.624996851735
241000000,24,241000000,world,-1.82295557756e-06,-1.15733451086e-06,0.624997039785
251000000,25,251000000,world,4.23932251037e-06,-5.56385002449e-06,0.624997044824
261000000,26,261000000,world,-1.74985180945e-06,-1.89647473272e-06,0.624997419095
271000000,27,271000000,world,2.4450685424e-06,-5.00647189584e-06,0.624998223855
281000000,28,281000000,world,-1.05010635829e-06,-5.09457519271e-06,0.624998119878
291000000,29,291000000,world,1.03814289174e-06,-5.13899224224e-06,0.624999352822
301000000,30,301000000,world,9.06044042103e-07,-2.00359359553e-06,0.624999321786
311000000,31,311000000,world,2.73874419154e-06,-2.8779202343e-06,0.624998482488
321000000,32,321000000,world,1.00523589333e-07,-3.64885587296e-06,0.624999439651
331000000,33,331000000,world,3.21048949092e-06,-3.24554738772e-06,0.624998786617
341000000,34,341000000,world,1.13663327013e-06,-3.5012011784e-06,0.624999989307
351000000,35,351000000,world,1.02139475272e-06,-3.43338122426e-06,0.625000022312
361000000,36,361000000,world,1.1129273334e-06,-3.71244007746e-06,0.625000096664
371000000,37,371000000,world,7.89843147141e-07,-3.62275687224e-06,0.625000057492
381000000,38,381000000,world,9.4806615418e-07,-3.76515183046e-06,0.625000019759
391000000,39,391000000,world,8.82381802154e-07,-3.5719705787e-06,0.625000010681
401000000,40,401000000,world,9.06617379489e-07,-3.83762401841e-06,0.625000112346
411000000,41,411000000,world,8.91843303062e-07,-3.36286547971e-06,0.625000149211
421000000,42,421000000,world,8.89505475092e-07,-3.63309033955e-06,0.624999990709
431000000,43,431000000,world,1.50206280082e-06,-3.80405054635e-06,0.624999478345
441000000,44,441000000,world,3.56222136464e-07,-3.66195663555e-06,0.624999673029
451000000,45,451000000,world,8.03905277234e-07,-3.66589041462e-06,0.624999991391
461000000,46,461000000,world,7.92552582974e-07,-3.47963367065e-06,0.625000163495
471000000,47,471000000,world,4.18442186561e-07,-3.91893341301e-06,0.625001797278
481000000,48,481000000,world,-1.4152888991e-06,-4.06975940784e-06,0.625025381877
491000000,49,491000000,world,-4.72797590671e-06,-4.21232003338e-06,0.625108365036
501000000,50,501000000,world,-9.38351714121e-06,-4.36441359799e-06,0.625288691701
511000000,51,511000000,world,-1.47372028941e-05,-4.36407036092e-06,0.625603454755
521000000,52,521000000,world,-2.10699677838e-05,-4.36499551771e-06,0.626088882252
531000000,53,531000000,world,-2.83876912103e-05,-4.42146561936e-06,0.626780326909
541000000,54,541000000,world,-3.65697077104e-05,-4.5404664556e-06,0.627712104489
551000000,55,551000000,world,-4.51483558248e-05,-4.72335733034e-06,0.628917300246
561000000,56,561000000,world,-5.38738710257e-05,-4.96953457918e-06,0.630428073356
571000000,57,571000000,world,-6.31984355907e-05,-5.28141684459e-06,0.632275705913
581000000,58,581000000,world,-7.30371306788e-05,-5.65652073458e-06,0.634490607798
591000000,59,591000000,world,-8.27180137275e-05,-6.08866255739e-06,0.637102323619
601000000,60,601000000,world,-9.25493333317e-05,-6.57639292911e-06,0.640139541494
611000000,61,611000000,world,-0.000102734036851,-7.11723384667e-06,0.643630086669
621000000,62,621000000,world,-0.000113218435727,-7.70554135517e-06,0.647596278609
631000000,63,631000000,world,-0.000123951289196,-8.3356831082e-06,0.652049330636
641000000,64,641000000,world,-0.000134288500254,-8.96125769059e-06,0.656998690333
651000000,65,651000000,world,-0.000144758937989,-9.61603456852e-06,0.662453463827
661000000,66,661000000,world,-0.00015533869237,-1.02927332514e-05,0.668422426711
671000000,67,671000000,world,-0.000165533579914,-1.0923478959e-05,0.674914034859
681000000,68,681000000,world,-0.000175878889605,-1.1580810187e-05,0.681936435076
691000000,69,691000000,world,-0.000186353247855,-1.22607334596e-05,0.689497475476
701000000,70,701000000,world,-0.000196730035555,-1.28927735553e-05,0.697604715606
711000000,71,711000000,world,-0.000207158769119,-1.35277384709e-05,0.706265436282
721000000,72,721000000,world,-0.000217676034148,-1.41812846962e-05,0.715486649157
731000000,73,731000000,world,-0.000228266762933,-1.485125719e-05,0.725274990313
741000000,74,741000000,world,-0.000238703626749,-1.54622401527e-05,0.735626916601
751000000,75,751000000,world,-0.000249173728994,-1.60793410668e-05,0.746522375986
761000000,76,761000000,world,-0.000259690183158,-1.67085717306e-05,0.757940673994
771000000,77,771000000,world,-0.000270242031678,-1.73478261237e-05,0.769862061601
781000000,78,781000000,world,-0.000280772312015,-1.79809536994e-05,0.782267687429
791000000,79,791000000,world,-0.000291141225087,-1.85626497396e-05,0.795139552906
801000000,80,801000000,world,-0.000301529576331,-1.91532928523e-05,0.808460470069
811000000,81,811000000,world,-0.000311929591034,-1.97510066742e-05,0.822213909906
821000000,82,821000000,world,-0.000322334424638,-2.03540140328e-05,0.836374522765
831000000,83,831000000,world,-0.000332542681978,-2.08988435985e-05,0.850902207979
841000000,84,841000000,world,-0.00034273403906,-2.14440544631e-05,0.865757509697
851000000,85,851000000,world,-0.000352927656846,-2.19961664269e-05,0.880903072282
861000000,86,861000000,world,-0.000363119422499,-2.25532872491e-05,0.896303515007
871000000,87,871000000,world,-0.000373304287267,-2.31138910652e-05,0.911925315246
881000000,88,881000000,world,-0.000383478004581,-2.36764465237e-05,0.927736699385
891000000,89,891000000,world,-0.000393468252738,-2.41941088193e-05,0.943707540821
901000000,90,901000000,world,-0.000403408135929,-2.46994681145e-05,0.959809264553
911000000,91,911000000,world,-0.000413325549868,-2.52082072622e-05,0.976014757835
921000000,92,921000000,world,-0.000423015213753,-2.56619862419e-05,0.992298286674
931000000,93,931000000,world,-0.000432679496177,-2.61061688506e-05,1.00863540622
941000000,94,941000000,world,-0.000442343730664,-2.65549723169e-05,1.02500195332
951000000,95,951000000,world,-0.000451941294526,-2.6990713783e-05,1.04137339795
961000000,96,961000000,world,-0.000461443783594,-2.74058243453e-05,1.05772630862
971000000,97,971000000,world,-0.000470949865876,-2.78260535826e-05,1.07403843839
981000000,98,981000000,world,-0.000480457467786,-2.82514003259e-05,1.090288658
991000000,99,991000000,world,-0.000489964531628,-2.86811059539e-05,1.10645689311
1001000000,100,1001000000,world,-0.000499468033858,-2.91137454464e-05,1.12252406558
1011000000,101,1011000000,world,-0.000508891520385,-2.95304727283e-05,1.13847210055
1021000000,102,1021000000,world,-0.000518202305647,-2.9922967047e-05,1.15428635328
1031000000,103,1031000000,world,-0.000527441819967,-3.03013745619e-05,1.16995614223
1041000000,104,1041000000,world,-0.000536525009329,-3.06450274027e-05,1.1854714784
1051000000,105,1051000000,world,-0.000545613536448,-3.09931211669e-05,1.20082282091
1061000000,106,1061000000,world,-0.000554690834275,-3.13424293508e-05,1.2160010552
1071000000,107,1071000000,world,-0.000563640048126,-3.16680206173e-05,1.23099747232
1081000000,108,1081000000,world,-0.000572597069853,-3.19980045075e-05,1.24580374931
1091000000,109,1091000000,world,-0.000581559267698,-3.23316634216e-05,1.26041193068
1101000000,110,1101000000,world,-0.000590523867683,-3.26681195925e-05,1.27481441077
1111000000,111,1111000000,world,-0.000599487620053,-3.30064849882e-05,1.28900391722
1121000000,112,1121000000,world,-0.000608378570334,-3.33337183461e-05,1.3029734951
1131000000,113,1131000000,world,-0.000617165382425,-3.36444241988e-05,1.31671649206
1141000000,114,1141000000,world,-0.000625950936479,-3.39569906378e-05,1.3302308608
1151000000,115,1151000000,world,-0.000634731939738,-3.42706022713e-05,1.34353208642
1161000000,116,1161000000,world,-0.000643346717785,-3.45587993297e-05,1.35663950624
1171000000,117,1171000000,world,-0.000651956923562,-3.48472267019e-05,1.36957192584
1181000000,118,1181000000,world,-0.000660559378076,-3.51350585794e-05,1.38234762255
1191000000,119,1191000000,world,-0.000669054184585,-3.54063094833e-05,1.39498435029
1201000000,120,1201000000,world,-0.000677499349254,-3.56698705585e-05,1.40749934535
1211000000,121,1211000000,world,-0.000685934332531,-3.59321913722e-05,1.41990932655
1221000000,122,1221000000,world,-0.000694356055782,-3.61932688585e-05,1.43222873925
1231000000,123,1231000000,world,-0.000702745252253,-3.64514610366e-05,1.44446763188
1241000000,124,1241000000,world,-0.000711022801353,-3.66969720438e-05,1.4566351929
1251000000,125,1251000000,world,-0.000719283882088,-3.69399718948e-05,1.46874029469
1261000000,126,1261000000,world,-0.000727476796593,-3.71789280525e-05,1.48079150235
1271000000,127,1271000000,world,-0.000735619388439,-3.74137580035e-05,1.49279708268
1281000000,128,1281000000,world,-0.000743743674127,-3.76449058044e-05,1.50476501293
1291000000,129,1291000000,world,-0.00075184752493,-3.78728730572e-05,1.51670298953
1301000000,130,1301000000,world,-0.000759929273464,-3.80978222023e-05,1.52861843659
1311000000,131,1311000000,world,-0.000767987399229,-3.8319345201e-05,1.54051851436
1321000000,132,1321000000,world,-0.000775974565076,-3.85436414062e-05,1.55241012747
1331000000,133,1331000000,world,-0.000783930569128,-3.87648223935e-05,1.56429993026
1341000000,134,1341000000,world,-0.000791859299039,-3.89815811774e-05,1.57619357286
1351000000,135,1351000000,world,-0.000799754568353,-3.92083495552e-05,1.58809479865
1361000000,136,1361000000,world,-0.000807618786996,-3.94365775405e-05,1.60000698715
1371000000,137,1371000000,world,-0.000815453956876,-3.96605585786e-05,1.61193339089
1381000000,138,1381000000,world,-0.000823260721052,-3.98804350718e-05,1.62387713988
1391000000,139,1391000000,world,-0.000831076644614,-4.01263887785e-05,1.63584124607
1401000000,140,1401000000,world,-0.000838863948134,-4.03742428143e-05,1.64782860758
1411000000,141,1411000000,world,-0.000846618173958,-4.06163357225e-05,1.65984198968
1421000000,142,1421000000,world,-0.000854339929261,-4.08530255787e-05,1.67188206173
1431000000,143,1431000000,world,-0.000862072485863,-4.11100319392e-05,1.68394611737
1441000000,144,1441000000,world,-0.00086981367054,-4.13867278251e-05,1.69603124608
1451000000,145,1451000000,world,-0.000877521886416,-4.16581958736e-05,1.7081346556
1461000000,146,1461000000,world,-0.000885197110307,-4.19248080226e-05,1.72025366687
1471000000,147,1471000000,world,-0.000892884312014,-4.2208461808e-05,1.7323857093
1481000000,148,1481000000,world,-0.000900639223759,-4.25356334336e-05,1.7445283162
1491000000,149,1491000000,world,-0.000908357920971,-4.28564002911e-05,1.75667912049
1501000000,150,1501000000,world,-0.000916042236803,-4.31716100943e-05,1.7688358506
1511000000,151,1511000000,world,-0.000923865125945,-4.35568750218e-05,1.78099632645
1521000000,152,1521000000,world,-0.000931668643323,-4.39434877012e-05,1.79315845575
1531000000,153,1531000000,world,-0.000939484938648,-4.43440426821e-05,1.80532017556
1541000000,154,1541000000,world,-0.000947458079422,-4.4817730804e-05,1.817477261
1551000000,155,1551000000,world,-0.00095538371312,-4.52810297133e-05,1.8296227758
1561000000,156,1561000000,world,-0.000963264550089,-4.57347992299e-05,1.84174989397
1571000000,157,1571000000,world,-0.000971104463671,-4.61802559698e-05,1.85385208
1581000000,158,1581000000,world,-0.000978908100441,-4.66198938544e-05,1.86592307572
1591000000,159,1591000000,world,-0.000986757954977,-4.70854773683e-05,1.87795688768
1601000000,160,1601000000,world,-0.000994802734879,-4.76338826881e-05,1.88994777538
1611000000,161,1611000000,world,-0.00100280922027,-4.81758266893e-05,1.90189023988
1621000000,162,1621000000,world,-0.00101078151241,-4.87128038437e-05,1.91377901314
1631000000,163,1631000000,world,-0.00101872506783,-4.92465967519e-05,1.92560904774
1641000000,164,1641000000,world,-0.00102664620773,-4.97792438893e-05,1.93737545289
1651000000,165,1651000000,world,-0.00103455146979,-5.03134102903e-05,1.94907271456
1661000000,166,1661000000,world,-0.00104275754288,-5.09690007231e-05,1.96069492214
1671000000,167,1671000000,world,-0.00105148043947,-5.18196890153e-05,1.97223639988
1681000000,168,1681000000,world,-0.00106015494092,-5.2659882798e-05,1.98369171149
1691000000,169,1691000000,world,-0.00106878126415,-5.34899051286e-05,1.99505564934
1701000000,170,1701000000,world,-0.00107736327417,-5.4310868334e-05,2.00632322434
1711000000,171,1711000000,world,-0.00108621687635,-5.52339677558e-05,2.01748965623
1721000000,172,1721000000,world,-0.00109509627435,-5.61721423999e-05,2.02855036443
1741000000,174,1741000000,world,-0.00111271572146,-5.80188876303e-05,2.05033723352
1751000000,175,1751000000,world,-0.0011214723841,-5.89328519198e-05,2.06105515463
1761000000,176,1761000000,world,-0.00113020416228,-5.98445202686e-05,2.07165085698
1771000000,177,1771000000,world,-0.00113892062672,-6.07572626336e-05,2.08212063472
1781000000,178,1781000000,world,-0.00114763228865,-6.16744546647e-05,2.09246153279
1791000000,179,1791000000,world,-0.00115644595175,-6.2632671795e-05,2.10267311995
1801000000,180,1801000000,world,-0.00116586203096,-6.38084109708e-05,2.11275556877
1811000000,181,1811000000,world,-0.00117558173411,-6.51012347623e-05,2.12270904508
1821000000,182,1821000000,world,-0.00118559477166,-6.64973287742e-05,2.13253409409
1831000000,183,1831000000,world,-0.0011957755945,-6.79537739601e-05,2.14223289939
1841000000,184,1841000000,world,-0.00120590469226,-6.93973932071e-05,2.15180800245
1851000000,185,1851000000,world,-0.00121598695651,-7.08298753146e-05,2.1612618486
1861000000,186,1861000000,world,-0.00122603011756,-7.22537409248e-05,2.17059679055
1871000000,187,1871000000,world,-0.00123534164629,-7.37804847989e-05,2.17981509185
1881000000,188,1881000000,world,-0.00124422004375,-7.53697481981e-05,2.18891892999
1891000000,189,1891000000,world,-0.00125316769158,-7.69506752567e-05,2.19791039964
1901000000,190,1901000000,world,-0.00126220401641,-7.85266920146e-05,2.20679151576
1911000000,191,1911000000,world,-0.00127148284964,-8.0261828566e-05,2.2155642165
1921000000,192,1921000000,world,-0.00128089257022,-8.20178302058e-05,2.22423036607
1931000000,193,1931000000,world,-0.0012904165001,-8.37681862035e-05,2.23279176006
1941000000,194,1941000000,world,-0.00130029385246,-8.5583628619e-05,2.24125085108
1951000000,195,1951000000,world,-0.00131062376244,-8.75186681472e-05,2.24961161347
1961000000,196,1961000000,world,-0.00132104771787,-8.94481399757e-05,2.25787808699
1971000000,197,1971000000,world,-0.00133156505807,-9.13757721014e-05,2.26605416159
1981000000,198,1981000000,world,-0.00134217659031,-9.33053911373e-05,2.27414358269
1991000000,199,1991000000,world,-0.00135326945598,-9.53602581924e-05,2.28214995623
2001000000,200,2001000000,world,-0.00136463714865,-9.74808533356e-05,2.29007675364
2011000000,201,2011000000,world,-0.00137606175899,-9.96038325117e-05,2.29792729497
2021000000,202,2021000000,world,-0.00138775125949,-0.000101800520353,2.30570388764
2031000000,203,2031000000,world,-0.00139978972312,-0.000104101831564,2.31340760714
2041000000,204,2041000000,world,-0.00141185028907,-0.00010640607826,2.32103941388
2051000000,205,2051000000,world,-0.00142393168369,-0.000108716350362,2.32860023111
2061000000,206,2061000000,world,-0.00143638577646,-0.000111148919714,2.33609094629
2071000000,207,2071000000,world,-0.00144892819117,-0.000113623738826,2.34351241255
2081000000,208,2081000000,world,-0.00146146912417,-0.000116104199336,2.35086544995
2091000000,209,2091000000,world,-0.0014741185911,-0.000118624672848,2.3581508467
2101000000,210,2101000000,world,-0.00148701137871,-0.000121247452018,2.36536936044
2111000000,211,2111000000,world,-0.00149989208495,-0.00012387742945,2.37252171943
2121000000,212,2121000000,world,-0.00151276415631,-0.000126517675223,2.37960862362
2131000000,213,2131000000,world,-0.00152563314612,-0.000129170990909,2.38663074578
2141000000,214,2141000000,world,-0.00153853348261,-0.000131849899153,2.39358887708
2151000000,215,2151000000,world,-0.00155168879573,-0.00013463505947,2.40048529147
2161000000,216,2161000000,world,-0.00156484404954,-0.000137435202122,2.40732305866
2171000000,217,2171000000,world,-0.00157800414175,-0.000140252403523,2.41410514285
2181000000,218,2181000000,world,-0.00159128153448,-0.000143123209472,2.42083439646
2191000000,219,2191000000,world,-0.00160465374205,-0.000146041559246,2.4275135642
2201000000,220,2201000000,world,-0.00161803463572,-0.000148980497177,2.43414528698
2211000000,221,2211000000,world,-0.00163142930234,-0.000151941078875,2.4407321057
2221000000,222,2221000000,world,-0.00164484185975,-0.00015492428784,2.44727646485
2231000000,223,2231000000,world,-0.00165827676693,-0.000157931273388,2.45378071611
2241000000,224,2241000000,world,-0.00167173809203,-0.000160963064908,2.4602471217
2251000000,225,2251000000,world,-0.00168529683808,-0.000164035697689,2.46667729931
2261000000,226,2261000000,world,-0.0016989128641,-0.000167140156353,2.473069766
2271000000,227,2271000000,world,-0.0017125622233,-0.000170252604562,2.47942209628
2281000000,228,2281000000,world,-0.00172624029221,-0.000173392719565,2.48573196277
2291000000,229,2291000000,world,-0.0017399481784,-0.000176559585064,2.49199713213
2301000000,230,2301000000,world,-0.00175368607551,-0.000179752532566,2.4982154611
2311000000,231,2311000000,world,-0.0017674270119,-0.00018295894856,2.50438489281
2321000000,232,2321000000,world,-0.00178109414286,-0.000186125970021,2.51050345312
2331000000,233,2331000000,world,-0.00179478458884,-0.000189321229961,2.51656924927
2341000000,234,2341000000,world,-0.00180828020933,-0.000192416044228,2.52258101388
2351000000,235,2351000000,world,-0.00182182318071,-0.000195546149205,2.52853875056
2361000000,236,2361000000,world,-0.00183541404644,-0.00019871014383,2.53444262353
2371000000,237,2371000000,world,-0.00184905089311,-0.000201905980638,2.54029279052
2381000000,238,2381000000,world,-0.00186273054938,-0.000205131310911,2.54608940305
2391000000,239,2391000000,world,-0.00187624846522,-0.000208276648222,2.55183260673
2401000000,240,2401000000,world,-0.001889681062,-0.000211382957896,2.55752254145
2411000000,241,2411000000,world,-0.00190316177066,-0.000214522084085,2.56315927977
2421000000,242,2421000000,world,-0.00191668516795,-0.00021769206122,2.56874142341
2431000000,243,2431000000,world,-0.00193024527527,-0.000220889258472,2.57426617791
2441000000,244,2441000000,world,-0.00194336850938,-0.000223864079178,2.57973080243
2451000000,245,2451000000,world,-0.00195654261849,-0.000226871074314,2.58513266747
2461000000,246,2461000000,world,-0.00196952985243,-0.000229781500609,2.59046925023
2471000000,247,2471000000,world,-0.00198222927694,-0.000232541237697,2.59573813008
2481000000,248,2481000000,world,-0.00199499543262,-0.000235342099371,2.60093698436
2491000000,249,2491000000,world,-0.00200782193765,-0.000238181744259,2.60606358425
2501000000,250,2501000000,world,-0.00202069941675,-0.000241055978373,2.61111579091
2511000000,251,2511000000,world,-0.00203361853595,-0.000243958124569,2.61609155173
2521000000,252,2521000000,world,-0.00204599077506,-0.000246570832895,2.62098889673
2531000000,253,2531000000,world,-0.00205835265173,-0.000249181926268,2.62580593531
2541000000,254,2541000000,world,-0.00207076144246,-0.00025182208299,2.63054166488
2551000000,255,2551000000,world,-0.00208320566137,-0.000254485632896,2.63519753557
2561000000,256,2561000000,world,-0.00209546113017,-0.000257072022662,2.63977537702
2571000000,257,2571000000,world,-0.00210711966858,-0.000259307399896,2.64427694869
2581000000,258,2581000000,world,-0.00211882144221,-0.000261572761181,2.64870394288
2591000000,259,2591000000,world,-0.00213046525399,-0.000263809794697,2.65305798686
2601000000,260,2601000000,world,-0.00214132784975,-0.000265614599154,2.65734064535
2611000000,261,2611000000,world,-0.00215225283406,-0.000267457465306,2.6615534289
2621000000,262,2621000000,world,-0.00216313301734,-0.000269276953823,2.66569802054
2631000000,263,2631000000,world,-0.00217320411857,-0.000270630740377,2.66977633603
2641000000,264,2641000000,world,-0.00218335619733,-0.000272036388658,2.67379023737
2651000000,265,2651000000,world,-0.00219357760418,-0.000273488540197,2.67774151514
2661000000,266,2661000000,world,-0.00220324287259,-0.000274621109766,2.68163189123
2671000000,267,2671000000,world,-0.00221258440768,-0.000275568504419,2.68546302169
2681000000,268,2681000000,world,-0.00222200857518,-0.000276567536494,2.68923649913
2691000000,269,2691000000,world,-0.00223149883309,-0.000277608688429,2.69295385489
2701000000,270,2701000000,world,-0.00224103482276,-0.000278680863583,2.69661656148
2711000000,271,2711000000,world,-0.00225015373507,-0.000279505061635,2.70022603463
2721000000,272,2721000000,world,-0.00225865353131,-0.000279960657094,2.70378363564
2731000000,273,2731000000,world,-0.00226719552294,-0.000280448707913,2.70729067364
2741000000,274,2741000000,world,-0.00227576261227,-0.000280957110718,2.7107484071
2751000000,275,2751000000,world,-0.0022843335882,-0.000281472753331,2.71415804595
2761000000,276,2761000000,world,-0.00229277135676,-0.000281911628912,2.71752073542
2771000000,277,2771000000,world,-0.00230017679283,-0.000281722911865,2.72083744201
2781000000,278,2781000000,world,-0.00230711177991,-0.000281242242269,2.72410903614
2801000000,280,2801000000,world,-0.00231966786992,-0.000279472943015,2.73052019967
2811000000,281,2811000000,world,-0.00232598992076,-0.000278628920769,2.73366134581
2821000000,282,2821000000,world,-0.00233231894174,-0.000277796691334,2.73676053505
2831000000,283,2831000000,world,-0.00233863347889,-0.00027696252227,2.7398184812
2841000000,284,2841000000,world,-0.00234434833836,-0.000275757956835,2.74283587008
2851000000,285,2851000000,world,-0.00234966860107,-0.000274312491731,2.74581336119
2861000000,286,2861000000,world,-0.00235496113742,-0.000272857682835,2.74875158844
2871000000,287,2871000000,world,-0.00235965042472,-0.000271011391867,2.75165120212
2881000000,288,2881000000,world,-0.00236349114432,-0.000268609944356,2.75451452774
2891000000,289,2891000000,world,-0.00236732665289,-0.000266214449259,2.75734599706
2901000000,290,2901000000,world,-0.00237114131876,-0.000263814622545,2.76015001874
2911000000,291,2911000000,world,-0.00237481617275,-0.000261326835025,2.76293083808
2921000000,292,2921000000,world,-0.00237756368299,-0.000258193238698,2.7656925424
2931000000,293,2931000000,world,-0.00238028585049,-0.000255055817873,2.76843900386
2941000000,294,2941000000,world,-0.00238297358731,-0.000251911745013,2.77117050313
2951000000,295,2951000000,world,-0.00238561113502,-0.000248750948744,2.77388225725
2961000000,296,2961000000,world,-0.00238733605823,-0.000244944946066,2.77656927981
2971000000,297,2971000000,world,-0.00238892814718,-0.000241060803836,2.77922679319
2981000000,298,2981000000,world,-0.0023897874325,-0.000236496166727,2.78185021777
2991000000,299,2991000000,world,-0.00238466416748,-0.00022616293203,2.78443516086
3001000000,300,3001000000,world,-0.00237985650987,-0.000216175077704,2.78697741871
3011000000,301,3011000000,world,-0.00237539417498,-0.000206566907272,2.78947296527
3021000000,302,3021000000,world,-0.0023712817539,-0.000197348428104,2.79192009276
3031000000,303,3031000000,world,-0.00236750621008,-0.000188509640713,2.79432195034
3041000000,304,3041000000,world,-0.00236208954496,-0.000178189658785,2.79668219875
3051000000,305,3051000000,world,-0.0023568515561,-0.000168103689644,2.79900436418
3061000000,306,3061000000,world,-0.00235198827926,-0.000158437710936,2.80129183973
3071000000,307,3071000000,world,-0.00234673330379,-0.000148464431198,2.80354789052
3081000000,308,3081000000,world,-0.00234168625515,-0.00013875587168,2.80577565987
3091000000,309,3091000000,world,-0.00233693377924,-0.000129395614087,2.80797817244
3101000000,310,3101000000,world,-0.00233242525785,-0.000120334228184,2.81015833868
3111000000,311,3111000000,world,-0.00232764723606,-0.000111017560398,2.81231895875
3121000000,312,3121000000,world,-0.00232295060595,-0.000101832456461,2.81446272753
3131000000,313,3131000000,world,-0.00231836701888,-9.28181756944e-05,2.81659214963
3141000000,314,3141000000,world,-0.00231384542524,-8.3923982608e-05,2.81870754745
3151000000,315,3151000000,world,-0.00230895405131,-7.45823148746e-05,2.8208071659
3161000000,316,3161000000,world,-0.00230395786124,-6.51678652794e-05,2.82288923555
3171000000,317,3171000000,world,-0.00229891530401,-5.57727124375e-05,2.8249520578
3181000000,318,3181000000,world,-0.00229378820757,-4.6354937494e-05,2.82699400203
3191000000,319,3191000000,world,-0.00228822538946,-3.63365991683e-05,2.82901350254
3201000000,320,3201000000,world,-0.00228244884915,-2.61193365767e-05,2.83100905679
3211000000,321,3211000000,world,-0.00227651211132,-1.58122559796e-05,2.83297923075
3221000000,322,3221000000,world,-0.00227039033676,-5.38676767457e-06,2.83492338869
3231000000,323,3231000000,world,-0.00226383224107,5.79947871999e-06,2.83684216842
3241000000,324,3241000000,world,-0.00225706023454,1.71202499138e-05,2.83873630079
3251000000,325,3251000000,world,-0.00225006005915,2.85955679918e-05,2.84060648786
3261000000,326,3261000000,world,-0.00224281533659,4.02456019984e-05,2.84245340447
3271000000,327,3271000000,world,-0.00223532591787,5.24935981943e-05,2.84427769901
3281000000,328,3281000000,world,-0.00222757289032,6.50272191956e-05,2.84607999494
3291000000,329,3291000000,world,-0.00221954678292,7.77547530385e-05,2.84786089136
3301000000,330,3301000000,world,-0.00221124336618,9.06882912961e-05,2.84962096402
3311000000,331,3311000000,world,-0.00220287456365,0.000104073777899,2.85136076624
3321000000,332,3321000000,world,-0.00219430615481,0.000117771309722,2.85308082977
3331000000,333,3331000000,world,-0.00218544143391,0.000131684435818,2.85478164164
3341000000,334,3341000000,world,-0.00217651176513,0.000145878682285,2.85646268033
3351000000,335,3351000000,world,-0.00216761607679,0.000160383388799,2.85812217078
3361000000,336,3361000000,world,-0.00215840232967,0.000175110832184,2.85975832711
3371000000,337,3371000000,world,-0.00214887776525,0.000190064702584,2.86136943521
3381000000,338,3381000000,world,-0.00213905306335,0.000205246816976,2.86295384959
3391000000,339,3391000000,world,-0.00212979551662,0.000220582785307,2.86450999085
3401000000,340,3401000000,world,-0.00212026179568,0.000236144475656,2.86603634233
3411000000,341,3411000000,world,-0.00211041134104,0.000251939444065,2.86753145002
3421000000,342,3421000000,world,-0.0021002586768,0.000267965860969,2.86899441121
3431000000,343,3431000000,world,-0.00209073905231,0.000283940856221,2.87042545542
3441000000,344,3441000000,world,-0.00208128722969,0.00030004176204,2.87182494702
3451000000,345,3451000000,world,-0.00207151367291,0.00031639006271,2.87319323621
3461000000,346,3461000000,world,-0.00206143986392,0.00033298107898,2.87453065958
3471000000,347,3471000000,world,-0.00205960451671,0.000345495138633,2.87583754231
3481000000,348,3481000000,world,-0.00206254730207,0.000354285764785,2.87711419415
3491000000,349,3491000000,world,-0.00206434294311,0.000363841225244,2.87836091207
3501000000,350,3501000000,world,-0.00206494287569,0.000374200882178,2.87957798328
3511000000,351,3511000000,world,-0.00207191914061,0.000380170122035,2.88076568427
3521000000,352,3521000000,world,-0.00207856958701,0.000385994524368,2.88192427893
3531000000,353,3531000000,world,-0.00208350044568,0.000393040671032,2.8830540226
3541000000,354,3541000000,world,-0.00208674500498,0.000401303218519,2.88415518852
3551000000,355,3551000000,world,-0.00208836674989,0.000410745052983,2.88522807486
3561000000,356,3561000000,world,-0.0020917258259,0.000418536771428,2.88627296999
3571000000,357,3571000000,world,-0.00209608521856,0.000425331536638,2.88729015113
3581000000,358,3581000000,world,-0.00209878226441,0.000433419157266,2.88827988522
3591000000,359,3591000000,world,-0.00210341914377,0.00043893048351,2.88924242762
3601000000,360,3601000000,world,-0.00210641893215,0.000445827060964,2.8901780253
3611000000,361,3611000000,world,-0.00210789988922,0.000454046219283,2.89108691796
3621000000,362,3621000000,world,-0.00210872457346,0.00046253342247,2.89197037227
3631000000,363,3631000000,world,-0.00210932836267,0.000470007540655,2.89283207306
3641000000,364,3641000000,world,-0.00210873538047,0.000478701421171,2.89367592386
3651000000,365,3651000000,world,-0.00210709237343,0.000488520409827,2.89450568233
3661000000,366,3661000000,world,-0.00210356245009,0.000498543707152,2.89532496581
3671000000,367,3671000000,world,-0.00209789753154,0.00050832857493,2.89613725595
3681000000,368,3681000000,world,-0.00209178627941,0.000519030191469,2.89694590326
3691000000,369,3691000000,world,-0.00208538668712,0.000530541753878,2.89775413268
3701000000,370,3701000000,world,-0.00207883593618,0.000542749317185,2.89856504764
3711000000,371,3711000000,world,-0.00207051993182,0.000554124659594,2.89938163491
3721000000,372,3721000000,world,-0.00206197017642,0.000565713729505,2.90020676768
3731000000,373,3731000000,world,-0.0020537496331,0.000577790185803,2.90104320815
3741000000,374,3741000000,world,-0.00204595386978,0.000590262787492,2.9018929284
3751000000,375,3751000000,world,-0.00203352361609,0.000610432511518,2.90275630689
3761000000,376,3761000000,world,-0.00202071341296,0.000632175574927,2.90363349801
3771000000,377,3771000000,world,-0.00200894183666,0.00065342853317,2.90452465259
3781000000,378,3781000000,world,-0.00199812194967,0.000674381728982,2.90542991705
3791000000,379,3791000000,world,-0.001987858203,0.000695844613396,2.90634943251
3801000000,380,3801000000,world,-0.00197880333258,0.000716422676824,2.90728333318
3811000000,381,3811000000,world,-0.00197096096549,0.00073605659238,2.90823174882
3821000000,382,3821000000,world,-0.00196431724735,0.000754709034453,2.9091942167
3831000000,383,3831000000,world,-0.00195884453484,0.000772362928617,2.910167933
3841000000,384,3841000000,world,-0.00195450531221,0.000789014955102,2.91114963279
3851000000,385,3851000000,world,-0.00195200710084,0.000803785767766,2.9121361835
3861000000,386,3861000000,world,-0.00195070318723,0.000817298867657,2.91312458145
3871000000,387,3871000000,world,-0.00195136848645,0.000828339859141,2.91411194351
3881000000,388,3881000000,world,-0.00195283543182,0.000838647515114,2.91509550593
3891000000,389,3891000000,world,-0.00195504046943,0.00084826995381,2.91607261573
3901000000,390,3901000000,world,-0.00195792741759,0.000857248002174,2.91704072736
3911000000,391,3911000000,world,-0.00196144751383,0.000865615068296,2.91799739822
3921000000,392,3921000000,world,-0.00196555689398,0.00087339784245,2.9189402844
3931000000,393,3931000000,world,-0.00197054859626,0.000879930449854,2.91986714778
3941000000,394,3941000000,world,-0.00197700582665,0.000883739380506,2.92077632318
3951000000,395,3951000000,world,-0.00198403103791,0.0008868218041,2.92166683717
3961000000,396,3961000000,world,-0.00199142497292,0.000889609277646,2.9225377939
3971000000,397,3971000000,world,-0.00199916155489,0.000892121221354,2.92338833273
3981000000,398,3981000000,world,-0.00200722210295,0.000894365450182,2.9242176271
3991000000,399,3991000000,world,-0.00201573531469,0.00089595341332,2.92502488288
4001000000,400,4001000000,world,-0.00202486432368,0.000896156562412,2.92580933726
4011000000,401,4011000000,world,-0.00203426210419,0.000896160437098,2.92657027188
4021000000,402,4021000000,world,-0.00204436471268,0.000894438279846,2.92730753158
4031000000,403,4031000000,world,-0.00205475069234,0.000892420349449,2.92802166098
4041000000,404,4041000000,world,-0.0020653665673,0.000890270859366,2.92871322709
4051000000,405,4051000000,world,-0.00207621222909,0.000887971312365,2.92938277467
4061000000,406,4061000000,world,-0.00208729183441,0.000885494954411,2.93003082725
4071000000,407,4071000000,world,-0.00209861049483,0.000882810135827,2.93065788798
4081000000,408,4081000000,world,-0.00211029635326,0.000879420564119,2.93126444
4091000000,409,4091000000,world,-0.0021225038018,0.000874428935088,2.93185094743
4101000000,410,4101000000,world,-0.0021351468359,0.000867722099093,2.93241785669
4111000000,411,4111000000,world,-0.00214806066987,0.000860511991369,2.93296559786
4121000000,412,4121000000,world,-0.00216119257094,0.000853174499758,2.93349458367
4131000000,413,4131000000,world,-0.00217454467229,0.000845687568881,2.93400521093
4141000000,414,4141000000,world,-0.00218812733673,0.000837843056147,2.93449799785
4151000000,415,4151000000,world,-0.00220199407507,0.000828231317858,2.93497374589
4161000000,416,4161000000,world,-0.00221608539207,0.000818479213774,2.93543326767
4171000000,417,4171000000,world,-0.0022304015842,0.000808563395715,2.93587734304
4181000000,418,4181000000,world,-0.00224483078028,0.000797308347763,2.93630672083
4191000000,419,4191000000,world,-0.00225944271493,0.000785415159532,2.93672212202
4201000000,420,4201000000,world,-0.00227428481805,0.000773366240214,2.93712423942
4211000000,421,4211000000,world,-0.00228935755768,0.00076113499719,2.93751373405
4221000000,422,4221000000,world,-0.0023043720425,0.00074768827645,2.93789105348
4231000000,423,4231000000,world,-0.00231950695936,0.000733637266917,2.93825638777
4241000000,424,4241000000,world,-0.00233488469619,0.000719401632562,2.93860990393
4251000000,425,4251000000,world,-0.0023504989433,0.000704955355042,2.9389517622
4261000000,426,4261000000,world,-0.00236613705672,0.000689913370351,2.93928211635
4271000000,427,4271000000,world,-0.00238153912328,0.000673813535424,2.93960111405
4281000000,428,4281000000,world,-0.00239718861853,0.000657489300298,2.93990889795
4291000000,429,4291000000,world,-0.00241307865027,0.000640921516722,2.94020560462
4301000000,430,4301000000,world,-0.00242919718696,0.000624088671609,2.94049136531
4311000000,431,4311000000,world,-0.0024455286711,0.000606968114541,2.94076630611
4321000000,432,4321000000,world,-0.00246205501376,0.000589536555667,2.94103054819
4331000000,433,4331000000,world,-0.00247783027082,0.000570939270308,2.94128422006
4341000000,434,4341000000,world,-0.00249381398348,0.000552038921238,2.9415279595
4351000000,435,4351000000,world,-0.00250394096539,0.000536362616971,2.94176304335
4361000000,436,4361000000,world,-0.00250870951436,0.00052360308694,2.94199073856
4371000000,437,4371000000,world,-0.00251441578661,0.000510060664121,2.94221226123
4381000000,438,4381000000,world,-0.00251830364474,0.000497782366403,2.94242878421
4391000000,439,4391000000,world,-0.00251925572683,0.000488313255328,2.94264143436
4401000000,440,4401000000,world,-0.00252163588267,0.000477590522966,2.94285129246
4411000000,441,4411000000,world,-0.00252544795811,0.000465578059017,2.94305939992
4421000000,442,4421000000,world,-0.00253065716827,0.000452272832209,2.94326684426
4431000000,443,4431000000,world,-0.00253683042693,0.000437968440209,2.94347486246
4441000000,444,4441000000,world,-0.00254100846301,0.000427368147392,2.94368467243
4451000000,445,4451000000,world,-0.0025465623872,0.000415282173983,2.9438974387
4461000000,446,4461000000,world,-0.00255340786247,0.000401733726273,2.94411428473
4471000000,447,4471000000,world,-0.00256126770182,0.000386981892316,2.94433628968
4481000000,448,4481000000,world,-0.00256868944059,0.000374353392853,2.9445644931
4491000000,449,4491000000,world,-0.00257716532358,0.000360639115062,2.94479989055
4501000000,450,4501000000,world,-0.00258658744355,0.000345481899117,2.94504344114
4511000000,451,4511000000,world,-0.00259684052065,0.000328964611528,2.94529606661
4521000000,452,4521000000,world,-0.00260780136814,0.000314836680654,2.94555865362
4531000000,453,4531000000,world,-0.00261935783733,0.000299720083211,2.94583204846
4541000000,454,4541000000,world,-0.00263139733839,0.000283270256544,2.94611667542
4551000000,455,4551000000,world,-0.00264401317178,0.000266478145748,2.94641228595
4561000000,456,4561000000,world,-0.00265734785654,0.000250539455987,2.94671857964
4571000000,457,4571000000,world,-0.00267082266372,0.000233384879801,2.94703526743
4581000000,458,4581000000,world,-0.00268434792924,0.00021511115956,2.94736207205
4591000000,459,4591000000,world,-0.00269882405794,0.00019790045541,2.94769872743
4601000000,460,4601000000,world,-0.00271355143184,0.000180525281752,2.94804497737
4611000000,461,4611000000,world,-0.00272802592262,0.000162152925446,2.94840055752
4621000000,462,4621000000,world,-0.00274218806271,0.000142875839773,2.9487644617
4631000000,463,4631000000,world,-0.00275599083118,0.000122792571352,2.94913475495
4641000000,464,4641000000,world,-0.00276974544483,0.000102380675966,2.94950951781
4651000000,465,4651000000,world,-0.00278440690552,8.28029210351e-05,2.94988690799
4661000000,466,4661000000,world,-0.00279852068559,6.26238295911e-05,2.9502651566
4671000000,467,4671000000,world,-0.00281225580603,4.21138205291e-05,2.95064256593
4681000000,468,4681000000,world,-0.00282708610536,2.27760506249e-05,2.95101750638
4691000000,469,4691000000,world,-0.00284121115089,2.98192739046e-06,2.951388413
4701000000,470,4701000000,world,-0.00285605460261,-1.65139766146e-05,2.95175378403
4711000000,471,4711000000,world,-0.00287069761561,-3.60780389255e-05,2.95211217711
4721000000,472,4721000000,world,-0.00288450027757,-5.59416147026e-05,2.95246220762
4731000000,473,4731000000,world,-0.00289746816424,-7.60353754432e-05,2.95280254537
4741000000,474,4741000000,world,-0.00290897148348,-0.000104883174628,2.9531316688
4751000000,475,4751000000,world,-0.00291956651559,-0.000135404260484,2.95344756337
4761000000,476,4761000000,world,-0.00292946000209,-0.000165237489114,2.95374822452
4771000000,477,4771000000,world,-0.00293869421292,-0.000194265721748,2.95403172894
4781000000,478,4781000000,world,-0.00294731338099,-0.000222403966905,2.95429623054
4791000000,479,4791000000,world,-0.00295516173147,-0.000251388190357,2.95453995803
4801000000,480,4801000000,world,-0.00296246668796,-0.00027947020335,2.95476120984
4811000000,481,4811000000,world,-0.00296929234828,-0.000306411034282,2.95495836181
4821000000,482,4821000000,world,-0.00297567548347,-0.000332196747158,2.95513094606
4831000000,483,4831000000,world,-0.00298178032275,-0.000356036854521,2.95528061494
4841000000,484,4841000000,world,-0.00298751023099,-0.000378751518419,2.9554091964
4851000000,485,4851000000,world,-0.00299288971805,-0.000400418356337,2.95551844802
4861000000,486,4861000000,world,-0.00299794820028,-0.000421073323826,2.95561005992
4871000000,487,4871000000,world,-0.00300527506297,-0.000441406410099,2.95568565833
4881000000,488,4881000000,world,-0.00301217211958,-0.000460798751274,2.95574680506
4891000000,489,4891000000,world,-0.0030186424326,-0.000479249236633,2.95579500284
4901000000,490,4901000000,world,-0.0030250637603,-0.00049645458813,2.95583169647
4911000000,491,4911000000,world,-0.00303172769521,-0.000512037949468,2.95585827505
4921000000,492,4921000000,world,-0.00303794705316,-0.000526856364072,2.95587607459
4931000000,493,4931000000,world,-0.00304374113373,-0.000540948678028,2.95588637932
4941000000,494,4941000000,world,-0.00304912829102,-0.000554345655401,2.95589036354
4951000000,495,4951000000,world,-0.00305478598195,-0.000565547477379,2.9558889758
4961000000,496,4961000000,world,-0.00306012236279,-0.000576030508206,2.95588309702
4971000000,497,4971000000,world,-0.00306508961243,-0.000586002245689,2.95587357337
4981000000,498,4981000000,world,-0.00307044292996,-0.000593976565708,2.95586121726
4991000000,499,4991000000,world,-0.0030755717262,-0.000601200966901,2.95584681099
5001000000,500,5001000000,world,-0.00308037505537,-0.000608086500377,2.9558311061
5011000000,501,5011000000,world,-0.00308488156688,-0.000614642228538,2.95581482461
5021000000,502,5021000000,world,-0.00308912114618,-0.000620868375476,2.95579864779
5031000000,503,5031000000,world,-0.00309423435631,-0.000624919352049,2.95578320786
5041000000,504,5041000000,world,-0.00309908638358,-0.000628638620148,2.95576911272
5051000000,505,5051000000,world,-0.00310370619747,-0.000632124920866,2.95575694557
5061000000,506,5061000000,world,-0.00310812602632,-0.000635368013317,2.95574726684
5071000000,507,5071000000,world,-0.00311309174842,-0.000637346670385,2.95574061441
5081000000,508,5081000000,world,-0.00311857916062,-0.00063812075583,2.95573750591
5091000000,509,5091000000,world,-0.00312387994642,-0.000638708787248,2.95573843957
5101000000,510,5101000000,world,-0.00312902172345,-0.000639092920928,2.95574389348
5111000000,511,5111000000,world,-0.00313403724448,-0.000639248734245,2.95575432706
5121000000,512,5121000000,world,-0.00313896237147,-0.000639147183302,2.95577018185
5131000000,513,5131000000,world,-0.00314383410478,-0.000638756374398,2.9557918821
5141000000,514,5141000000,world,-0.00315015920838,-0.000636294059461,2.95581971013
5151000000,515,5151000000,world,-0.00315658133465,-0.000633391015983,2.9558530159
5161000000,516,5161000000,world,-0.00316417073281,-0.00062902529398,2.9558907653
5171000000,517,5171000000,world,-0.0031728514959,-0.000623276504143,2.95593196476
5181000000,518,5181000000,world,-0.00318138371264,-0.000617375406503,2.95597566132
5191000000,519,5191000000,world,-0.00318978830523,-0.000611309183931,2.95602093873
5201000000,520,5201000000,world,-0.00319911715092,-0.000604317179628,2.95606691618
5211000000,521,5211000000,world,-0.00320898748955,-0.000596567667735,2.9561127543
5221000000,522,5221000000,world,-0.00321936408997,-0.000588333895244,2.95615811717
5231000000,523,5231000000,world,-0.00323104861281,-0.000578975686729,2.95620347316
5241000000,524,5241000000,world,-0.00324253676574,-0.000569492557161,2.95624934883
5251000000,525,5251000000,world,-0.00325385937142,-0.000559862752109,2.95629624889
5261000000,526,5261000000,world,-0.00326642810769,-0.000549378519365,2.95634465733
5271000000,527,5271000000,world,-0.00327972887013,-0.000538288105861,2.95639504067
5281000000,528,5281000000,world,-0.00329285617147,-0.000527036238298,2.9564478476
5291000000,529,5291000000,world,-0.0033058546228,-0.000515598069097,2.95650350865
5301000000,530,5301000000,world,-0.00332039306064,-0.000503441181568,2.95656243634
5311000000,531,5311000000,world,-0.00333565637673,-0.000490746077936,2.95662502871
5321000000,532,5321000000,world,-0.00335078187892,-0.000477840205313,2.95669166849
5331000000,533,5331000000,world,-0.00336581537917,-0.000464702345713,2.95676272222
5341000000,534,5341000000,world,-0.00338396284938,-0.000453143061499,2.95683837209
5351000000,535,5351000000,world,-0.00341116113141,-0.000446560933518,2.95691841783
5361000000,536,5361000000,world,-0.00343766007706,-0.000439232231609,2.95700261947
5371000000,537,5371000000,world,-0.00346343217569,-0.000431091035068,2.95709074597
5381000000,538,5381000000,world,-0.00349038772158,-0.00042425123732,2.95718257476
5391000000,539,5391000000,world,-0.00351999714841,-0.000420310380966,2.95727789198
5401000000,540,5401000000,world,-0.00354864855699,-0.000415107070552,2.95737649239
5411000000,541,5411000000,world,-0.00357638616144,-0.000408608940768,2.95747817858
5421000000,542,5421000000,world,-0.00360328092028,-0.000400815909734,2.95758262894
5431000000,543,5431000000,world,-0.00363020470388,-0.000394213941697,2.9576892422
5441000000,544,5441000000,world,-0.00365719657463,-0.000388639532516,2.9577974016
5451000000,545,5451000000,world,-0.00368355131714,-0.000381585686713,2.95790651447
5461000000,546,5461000000,world,-0.00370873447838,-0.000375594876016,2.95801601335
5471000000,547,5471000000,world,-0.00373312027971,-0.000369702491048,2.95812535129
5481000000,548,5481000000,world,-0.00375726903637,-0.000362233929555,2.95823400263
5491000000,549,5491000000,world,-0.00378129726839,-0.000353251778465,2.95834146337
5501000000,550,5501000000,world,-0.00380531412298,-0.000342839443994,2.95844724936
5511000000,551,5511000000,world,-0.00382942053526,-0.000331094954338,2.95855089555
5521000000,552,5521000000,world,-0.00385370832786,-0.000318130341377,2.95865195524
5531000000,553,5531000000,world,-0.00387825967219,-0.000304060458531,2.95874999934
5541000000,554,5541000000,world,-0.00390288989824,-0.000289329216255,2.95884461586
5551000000,555,5551000000,world,-0.00392568517184,-0.000276573103305,2.95893536006
5561000000,556,5561000000,world,-0.00394696287878,-0.00026414162319,2.9590215271
5571000000,557,5571000000,world,-0.00396593124086,-0.000253085673329,2.95910235037
5581000000,558,5581000000,world,-0.00398594777261,-0.000241006354748,2.95917709039
5591000000,559,5591000000,world,-0.00400567081388,-0.000228888555186,2.95924504062
5601000000,560,5601000000,world,-0.00402457240835,-0.000217182305408,2.95930552174
5611000000,561,5611000000,world,-0.00404486665198,-0.000204549331186,2.95935787955
5621000000,562,5621000000,world,-0.00406657100966,-0.00019106491704,2.95940222431
5631000000,563,5631000000,world,-0.00408606638123,-0.000178400802128,2.95944085445
5641000000,564,5641000000,world,-0.00410696882914,-0.000165043381989,2.95947637186
5651000000,565,5651000000,world,-0.00412945808851,-0.000150985576493,2.95951128167
5661000000,566,5661000000,world,-0.00415349600192,-0.00013631529015,2.95954799396
5671000000,567,5671000000,world,-0.00417572862604,-0.000122421682047,2.9595888286
5681000000,568,5681000000,world,-0.00419922737584,-0.000108160428652,2.95963601401
5691000000,569,5691000000,world,-0.00422431677956,-9.34594145697e-05,2.95969169497
5701000000,570,5701000000,world,-0.00425092515552,-7.83947953055e-05,2.95975793449
5711000000,571,5711000000,world,-0.00427570060657,-6.36352015926e-05,2.95983671797
5721000000,572,5721000000,world,-0.00430165716978,-4.86959947762e-05,2.95992995228
5731000000,573,5731000000,world,-0.00432909600886,-3.35805014166e-05,2.96003946807
5741000000,574,5741000000,world,-0.00435554188704,-1.88259581791e-05,2.96016580657
5751000000,575,5751000000,world,-0.0043828554763,-4.11844847193e-06,2.96030677738
5761000000,576,5761000000,world,-0.00441157395534,1.06047495363e-05,2.96045992285
5771000000,577,5771000000,world,-0.00444160597116,2.52901510951e-05,2.96062288486
5781000000,578,5781000000,world,-0.00447185746994,3.9948922904e-05,2.96079340068
5791000000,579,5791000000,world,-0.00450101484686,5.46076020338e-05,2.96096929875
5801000000,580,5801000000,world,-0.00453137645608,6.90668022935e-05,2.96114849397
5811000000,581,5811000000,world,-0.00456286291958,8.32797091778e-05,2.96132898988
5821000000,582,5821000000,world,-0.00459450957965,9.73237881247e-05,2.96150922056
5831000000,583,5831000000,world,-0.00462586748786,0.000111210532082,2.96168827224
5841000000,584,5841000000,world,-0.0046582031407,0.000124723102188,2.96186532234
5851000000,585,5851000000,world,-0.00469143139943,0.000137832018463,2.96203958114
5861000000,586,5861000000,world,-0.00472546243601,0.000150510806212,2.96221029021
5871000000,587,5871000000,world,-0.00475784661366,0.000163360577364,2.96237672151
5881000000,588,5881000000,world,-0.00479099422018,0.000175701008632,2.96253817492
5891000000,589,5891000000,world,-0.00482483845281,0.000187511311366,2.96269397848
5901000000,590,5901000000,world,-0.0048593043813,0.000198776518151,2.9628434868
5911000000,591,5911000000,world,-0.00489431365812,0.000209486330839,2.96298607998
5921000000,592,5921000000,world,-0.0049285657648,0.000220380018363,2.96312116294
5931000000,593,5931000000,world,-0.00496297997962,0.000230844049334,2.96324816402
5941000000,594,5941000000,world,-0.00499780517186,0.000240676941588,2.9633666808
5951000000,595,5951000000,world,-0.0050326535711,0.000250082011085,2.96347665217
5961000000,596,5961000000,world,-0.00506654576751,0.00025964948512,2.96357806232
5971000000,597,5971000000,world,-0.00510401326859,0.000269043316803,2.96367089643
5981000000,598,5981000000,world,-0.00514895678366,0.000278898251468,2.96375514102
5991000000,599,5991000000,world,-0.00519344046053,0.000287949652815,2.96383077996
6001000000,600,6001000000,world,-0.00523733558504,0.000296193212907,2.96389779957
6011000000,601,6011000000,world,-0.00528054575839,0.000303632813449,2.96395618673
6021000000,602,6021000000,world,-0.00532300193687,0.000310279652689,2.96400598315
6031000000,603,6031000000,world,-0.00536466231407,0.000316150718205,2.96404763422
6041000000,604,6041000000,world,-0.00540550160734,0.000321266398405,2.96408174688
6051000000,605,6051000000,world,-0.00544666880373,0.000325682617476,2.96410890543
6061000000,606,6061000000,world,-0.00548785961364,0.000329415092821,2.96412967106
6071000000,607,6071000000,world,-0.00552806189653,0.00033241420052,2.96414458276
6081000000,608,6081000000,world,-0.00556720017783,0.000334496522276,2.96415415885
6091000000,609,6091000000,world,-0.00560539837005,0.000335960643952,2.96415889758
6101000000,610,6101000000,world,-0.00564268046582,0.000336835393288,2.96415927771
6111000000,611,6111000000,world,-0.00567888585827,0.000337130966382,2.9641557593
6121000000,612,6121000000,world,-0.00571259380098,0.000336581649499,2.9641487837
6131000000,613,6131000000,world,-0.0057455854221,0.000335537192219,2.9641387767
6141000000,614,6141000000,world,-0.00577790431661,0.000334020735812,2.96412614664
6151000000,615,6151000000,world,-0.0058093860868,0.000332035988159,2.9641113112
6161000000,616,6161000000,world,-0.00583851901497,0.000329474478943,2.96409527368
6171000000,617,6171000000,world,-0.00586718582047,0.000326506738736,2.96407959709
6181000000,618,6181000000,world,-0.00589542189445,0.000323150972487,2.96406580821
6191000000,619,6191000000,world,-0.00592163567216,0.000319405265813,2.9640553742
6201000000,620,6201000000,world,-0.00594715216939,0.000315297001971,2.96404970717
6211000000,621,6211000000,world,-0.00597240354444,0.000310841746054,2.96405014405
6221000000,622,6221000000,world,-0.00599602806221,0.000306050327274,2.9640562219
6231000000,623,6231000000,world,-0.0060087601454,0.000306878296985,2.9640645544
6241000000,624,6241000000,world,-0.00602064285479,0.000307680431041,2.96407162469
6251000000,625,6251000000,world,-0.0060331477238,0.000307736450473,2.96407405722
6261000000,626,6261000000,world,-0.00604631247772,0.000307026322831,2.96406861394
6271000000,627,6271000000,world,-0.00605447246301,0.000309383181214,2.96405218618
6281000000,628,6281000000,world,-0.00606221516873,0.000311684822044,2.96402179619
6291000000,629,6291000000,world,-0.00607099538679,0.000312926974065,2.96397458634
6301000000,630,6301000000,world,-0.00608002026049,0.000313761541315,2.963907814
6311000000,631,6311000000,world,-0.00608708120667,0.0003160498459,2.96381884682
6321000000,632,6321000000,world,-0.00609520610081,0.000317156897526,2.96370516183
6331000000,633,6331000000,world,-0.00610431196588,0.000317114573487,2.96356438273
6341000000,634,6341000000,world,-0.00611429051025,0.000315971575907,2.96339612003
6351000000,635,6351000000,world,-0.00612501615723,0.000313787989846,2.96320243816
6361000000,636,6361000000,world,-0.00613582854085,0.00031205675037,2.96298547939
6371000000,637,6371000000,world,-0.00614680446724,0.000310269962187,2.96274730435
6381000000,638,6381000000,world,-0.00615817222597,0.000307511780683,2.96248989508
6391000000,639,6391000000,world,-0.00617241665074,0.000300913245725,2.96221515956
6401000000,640,6401000000,world,-0.00619046304427,0.000288343275072,2.96192493188
6411000000,641,6411000000,world,-0.00620810958674,0.000275555566825,2.96162097181
6421000000,642,6421000000,world,-0.00622545346334,0.000261598346262,2.96130494415
6431000000,643,6431000000,world,-0.00624226156234,0.00024702392357,2.96097835875
6441000000,644,6441000000,world,-0.00625825193733,0.000232676756417,2.96064265095
6451000000,645,6451000000,world,-0.0062733402531,0.000218633375524,2.9602992009
6461000000,646,6461000000,world,-0.00628733515632,0.000204987559806,2.95994933547
6471000000,647,6471000000,world,-0.00629919974895,0.000192062213972,2.95959432961
6481000000,648,6481000000,world,-0.00631009711869,0.000179542632303,2.959235411
6491000000,649,6491000000,world,-0.00632001922021,0.000167438699726,2.95887375887
6501000000,650,6501000000,world,-0.00632838633127,0.000156268761086,2.95851050639
6511000000,651,6511000000,world,-0.00633496985556,0.0001462357887,2.95814674321
6521000000,652,6521000000,world,-0.00634068211131,0.000136520825663,2.9577835178
6531000000,653,6531000000,world,-0.00634554738033,0.000127103766896,2.95742185611
6541000000,654,6541000000,world,-0.00634958412406,0.000117970648933,2.95706351625
6551000000,655,6551000000,world,-0.00635280834759,0.000109108330432,2.95671118422
6561000000,656,6561000000,world,-0.00635523748302,0.000100505398256,2.95636750814
6571000000,657,6571000000,world,-0.00635688888357,9.21514708682e-05,2.95603503558
6581000000,658,6581000000,world,-0.0063567927313,8.53422394293e-05,2.95571621634
6591000000,659,6591000000,world,-0.00635601219744,7.8689578455e-05,2.95541340894
6601000000,660,6601000000,world,-0.00635457416034,7.21809525079e-05,2.95512888105
6611000000,661,6611000000,world,-0.00635221571297,6.65971474406e-05,2.95486479203
6621000000,662,6621000000,world,-0.00635416712424,6.95756163435e-05,2.95462233721
6631000000,663,6631000000,world,-0.0063587024119,7.69028087472e-05,2.95440152423
6641000000,664,6641000000,world,-0.00636211826457,8.34598052383e-05,2.95420228664
6651000000,665,6651000000,world,-0.006364381908,8.91799160143e-05,2.95402456217
6661000000,666,6661000000,world,-0.00636548332895,9.40394078117e-05,2.95386829104
6671000000,667,6671000000,world,-0.00637034808331,0.00010239480615,2.95373341733
6681000000,668,6681000000,world,-0.00637584565719,0.000111496955608,2.95361988441
6691000000,669,6691000000,world,-0.00638026298693,0.000119781098445,2.95352763884
6701000000,670,6701000000,world,-0.00638729503315,0.000129888342848,2.95345663072
6711000000,671,6711000000,world,-0.00639251909036,0.000138745078342,2.95340680972
6721000000,672,6721000000,world,-0.00639595354969,0.00014641163082,2.95337812895
6731000000,673,6731000000,world,-0.00639764814918,0.000152975211469,2.95337054335
6741000000,674,6741000000,world,-0.00639767879958,0.000158540629401,2.95338400963
6751000000,675,6751000000,world,-0.00639613811385,0.000163227356866,2.95341848075
6761000000,676,6761000000,world,-0.00639312118298,0.000167162963615,2.953473442
6771000000,677,6771000000,world,-0.00639108435158,0.000170983740349,2.95354760889
6781000000,678,6781000000,world,-0.00638918091176,0.000174606217316,2.95363967302
6791000000,679,6791000000,world,-0.00638865399792,0.00017749845393,2.95374837902
6801000000,680,6801000000,world,-0.0063869621246,0.000180053390718,2.95387251995
6811000000,681,6811000000,world,-0.00638386655215,0.00018241329374,2.95401093691
6821000000,682,6821000000,world,-0.00637946093758,0.000184680666965,2.95416227435
6831000000,683,6831000000,world,-0.00637546104332,0.000185723262555,2.95432469241
6841000000,684,6841000000,world,-0.00637064539789,0.00018662916811,2.95449635217
6851000000,685,6851000000,world,-0.00636468955657,0.00018780296324,2.95467548905
6861000000,686,6861000000,world,-0.00635881927112,0.000187342818531,2.95486041063
6871000000,687,6871000000,world,-0.00635221796844,0.000186925423684,2.95504948997
6881000000,688,6881000000,world,-0.00634468895391,0.000187129458269,2.95524116589
6891000000,689,6891000000,world,-0.0063363309781,0.000188008015114,2.9554339399
6901000000,690,6901000000,world,-0.00632723599794,0.000189598199173,2.95562637333
6911000000,691,6911000000,world,-0.00631797570685,0.000189986625936,2.95581708595
6921000000,692,6921000000,world,-0.00630824991944,0.000190427518544,2.95600475085
6931000000,693,6931000000,world,-0.00629801919197,0.000191798358892,2.95618809508
6941000000,694,6941000000,world,-0.00628740661754,0.000194109305181,2.95636601575
6951000000,695,6951000000,world,-0.00627722416863,0.000194482424797,2.9565377141
6961000000,696,6961000000,world,-0.00626672106461,0.00019594768757,2.95670245676
6971000000,697,6971000000,world,-0.00625595872498,0.000198501521231,2.9568595405
6981000000,698,6981000000,world,-0.00624399989459,0.000202260307399,2.95700828973
6991000000,699,6991000000,world,-0.00622328021784,0.000209576761588,2.95714805674
7001000000,700,7001000000,world,-0.00620306049543,0.000217724887789,2.95727821794
7011000000,701,7011000000,world,-0.00618346786936,0.00022663647227,2.95739817153
7021000000,702,7021000000,world,-0.00616459111198,0.000236246357031,2.95750718696
7031000000,703,7031000000,world,-0.00614417028138,0.000247319243867,2.95760436664
7041000000,704,7041000000,world,-0.00612470570377,0.000258921192542,2.95768883582
7051000000,705,7051000000,world,-0.00610622871465,0.000270990247479,2.95775975443
7061000000,706,7061000000,world,-0.0060887506032,0.000283472587304,2.95781631572
7071000000,707,7071000000,world,-0.00607280825174,0.000295947405995,2.95785774489
7081000000,708,7081000000,world,-0.00605786737983,0.000308730467636,2.9578832978
7091000000,709,7091000000,world,-0.00604383244855,0.000321831987464,2.95789225979
7101000000,710,7101000000,world,-0.0060326401656,0.0003328276281,2.95788394458
7111000000,711,7111000000,world,-0.00602985495135,0.000334897863841,2.95785769297
7121000000,712,7121000000,world,-0.00602724908492,0.000337929276507,2.95781287068
7131000000,713,7131000000,world,-0.0060247070185,0.000341979995796,2.95774887263
7141000000,714,7141000000,world,-0.00602214955977,0.000347073046272,2.95766594489
7151000000,715,7151000000,world,-0.00602431202887,0.000346007745457,2.95756616312
7161000000,716,7161000000,world,-0.0060266094827,0.000345611043951,2.95745176632
7171000000,717,7171000000,world,-0.00602844240013,0.000346724363187,2.95732490829
7181000000,718,7181000000,world,-0.00603042437242,0.000348218784453,2.95718766041
7191000000,719,7191000000,world,-0.00603435244452,0.000346892127,2.95704201435
7201000000,720,7201000000,world,-0.00603763300625,0.00034725816236,2.95688988686
7211000000,721,7211000000,world,-0.00604028648465,0.000349260774989,2.95673312085
7221000000,722,7221000000,world,-0.00604235594692,0.000352815646038,2.95657332834
7231000000,723,7231000000,world,-0.00604490582294,0.000354746550053,2.95641158272
7241000000,724,7241000000,world,-0.0060470489327,0.000357660976197,2.95624883111
7251000000,725,7251000000,world,-0.00604874016177,0.000362015579261,2.95608598363
7261000000,726,7261000000,world,-0.00605005707565,0.000367690081848,2.95592391507
7271000000,727,7271000000,world,-0.00605108982179,0.000372732120646,2.95576346591
7281000000,728,7281000000,world,-0.00605191048872,0.000378171806861,2.95560544439
7291000000,729,7291000000,world,-0.00605259865408,0.000384695270711,2.95545062739
7301000000,730,7301000000,world,-0.00605323516895,0.00039218271274,2.95529976151
7311000000,731,7311000000,world,-0.00605375882216,0.000400254791816,2.95515356433
7321000000,732,7321000000,world,-0.00605385041485,0.00040806405259,2.95501272551
