%time,field.header.seq,field.header.stamp,field.header.frame_id,field.twist.linear.x,field.twist.linear.y,field.twist.linear.z,field.twist.angular.x,field.twist.angular.y,field.twist.angular.z
26000000,1,26000000,,0.00768064578716,0.0202722078726,-0.0641713145649,0.0,0.0,0.0
32000000,2,32000000,,0.0283103751681,-0.015588640052,-0.168999993973,0.0,0.0,0.0
42000000,3,42000000,,-0.00394272962666,-0.000738001524052,-0.233912844145,0.0,0.0,0.0
52000000,4,52000000,,0.0511659326233,-0.0174716249471,-0.355136696334,0.0,0.0,0.0
62000000,5,62000000,,0.00466431093144,-0.0230356750273,-0.411464182254,0.0,0.0,0.0
82000000,7,82000000,,-0.0146017264845,-0.0225200200483,-0.648701392652,0.0,0.0,0.0
118000000,9,118000000,,-0.00618289119211,-0.00140266937338,-0.874263481713,0.0,0.0,0.0
123000000,10,123000000,,0.019532098059,0.00413162557334,-1.03098565881,0.0,0.0,0.0
131000000,11,131000000,,-0.00987120725451,-0.0232844939235,-1.15126449706,0.0,0.0,0.0
151000000,12,151000000,,0.0266138266419,0.00370550959242,-1.22879888036,0.0,0.0,0.0
169000000,13,169000000,,0.00517724965499,0.0244385234048,-1.30513078682,0.0,0.0,0.0
169000000,14,169000000,,-0.00700510077068,-0.0263513461586,-1.4232505447,0.0,0.0,0.0
172000000,15,172000000,,-0.000860026274429,0.00978233974547,-0.411666898506,0.0,0.0,0.0
181000000,16,181000000,,-0.0138464417399,-0.0221411055189,-0.0295311533915,0.0,0.0,0.0
192000000,17,192000000,,0.00239040325756,-0.0251437727793,0.018343021107,0.0,0.0,0.0
201000000,18,201000000,,0.00206232408271,0.00901389544648,-0.010461453679,0.0,0.0,0.0
211000000,19,211000000,,0.0323604027079,-0.0108720331445,0.0202238024115,0.0,0.0,0.0
224000000,20,224000000,,0.0161360070594,0.00464806969701,-0.0486240971296,0.0,0.0,0.0
231000000,21,231000000,,0.0109191195359,0.0258397614723,0.0218982398369,0.0,0.0,0.0
241000000,22,241000000,,-0.00763105926833,-0.035406449797,-0.00577128102242,0.0,0.0,0.0
252000000,23,252000000,,-0.0146428243381,-0.0259136894886,0.0155351809966,0.0,0.0,0.0
263000000,24,263000000,,-0.014219340515,0.00896678927731,-0.0113073398641,0.0,0.0,0.0
273000000,25,273000000,,0.00515541982198,-0.0221572228892,-0.0381200161581,0.0,0.0,0.0
281000000,26,281000000,,0.015228599978,0.00407978180766,0.0026881208848,0.0,0.0,0.0
291000000,27,291000000,,-0.00384987169407,0.00314423477563,0.0188627847741,0.0,0.0,0.0
301000000,28,301000000,,-0.0116843982004,-0.0135358912681,0.0345711402997,0.0,0.0,0.0
311000000,29,311000000,,0.0349455210646,0.00536745056604,0.00663281421793,0.0,0.0,0.0
321000000,30,321000000,,-1.36870950656e-05,0.013142746679,0.0082971318361,0.0,0.0,0.0
331000000,31,331000000,,-0.0127262989692,-0.0115695490474,-0.00522048001997,0.0,0.0,0.0
341000000,32,341000000,,-0.00506413866991,-0.00985445453345,0.000505249329998,0.0,0.0,0.0
351000000,33,351000000,,0.00730935924316,0.00204466405065,0.0472032222309,0.0,0.0,0.0
361000000,34,361000000,,0.0196555225765,0.00393206291656,0.00800361973732,0.0,0.0,0.0
371000000,35,371000000,,-0.0254269780983,0.00584062403104,0.0151854504453,0.0,0.0,0.0
381000000,36,381000000,,0.00553766991966,-0.024698490825,-0.0525346192361,0.0,0.0,0.0
391000000,37,391000000,,0.0177429562197,0.0205285832137,0.00378257432301,0.0,0.0,0.0
401000000,38,401000000,,-0.00906983040252,-0.00646189009714,0.0132748316794,0.0,0.0,0.0
412000000,39,412000000,,0.00866173203563,-0.00574038932672,-0.00339452943024,0.0,0.0,0.0
421000000,40,421000000,,0.0195751434401,-0.0443197105918,-0.0407191098014,0.0,0.0,0.0
431000000,41,431000000,,0.00531987580169,-0.00252196307189,-0.0337214438797,0.0,0.0,0.0
441000000,42,441000000,,0.0161241975247,0.0035633436294,-0.00669770159557,0.0,0.0,0.0
451000000,43,451000000,,-0.0278405399155,0.0103632197523,-0.0151233468118,0.0,0.0,0.0
461000000,44,461000000,,0.0336755913034,0.0192302006909,-0.0175006816682,0.0,0.0,0.0
472000000,45,472000000,,-0.0230117786808,-0.0154879696321,-0.0277141743419,0.0,0.0,0.0
481000000,46,481000000,,0.0388550206894,0.00261468914131,-0.00949781090012,0.0,0.0,0.0
491000000,47,491000000,,-0.0284997574548,-0.0116588919488,0.0104327465094,0.0,0.0,0.0
501000000,48,501000000,,-0.0041398527929,0.00879022205717,0.0167642462047,0.0,0.0,0.0
511000000,49,511000000,,0.0185549570472,-0.00248901683421,0.0163400593773,0.0,0.0,0.0
521000000,50,521000000,,-0.0064594920383,0.0541818944843,0.0129348021251,0.0,0.0,0.0
531000000,51,531000000,,0.00772493616444,0.00159417009528,0.0408967386969,0.0,0.0,0.0
541000000,52,541000000,,-0.00670532591164,0.00415724925393,0.06399836073,0.0,0.0,0.0
551000000,53,551000000,,-0.0342929889,0.00129312165006,0.118576397325,0.0,0.0,0.0
561000000,54,561000000,,0.00683034671113,0.00425834937158,0.0850738980582,0.0,0.0,0.0
571000000,55,571000000,,-0.00925850366167,-0.017037092524,0.115225338884,0.0,0.0,0.0
581000000,56,581000000,,0.024322559095,0.0139326518365,0.206869604622,0.0,0.0,0.0
591000000,57,591000000,,-0.0282905024417,0.0419090481194,0.236817053393,0.0,0.0,0.0
601000000,58,601000000,,0.0147278708875,-0.00276822207414,0.235196524823,0.0,0.0,0.0
613000000,59,613000000,,-0.0106040348489,-0.010530410569,0.299843895843,0.0,0.0,0.0
625000000,60,625000000,,-0.00544140317958,-0.0238296970706,0.310323884748,0.0,0.0,0.0
631000000,61,631000000,,0.0106127913323,-0.0401377925088,0.392686371841,0.0,0.0,0.0
647000000,62,647000000,,0.0258716282102,0.00101128516235,0.433784941462,0.0,0.0,0.0
651000000,63,651000000,,0.00598755462365,-0.00313904277308,0.475597996401,0.0,0.0,0.0
662000000,64,662000000,,-0.00595085280115,-0.0369793030187,0.568155874068,0.0,0.0,0.0
673000000,65,673000000,,-0.0306967018302,0.00621081349456,0.593010729691,0.0,0.0,0.0
682000000,66,682000000,,-0.0119238539053,0.0234400350298,0.658538934704,0.0,0.0,0.0
691000000,67,691000000,,0.0347772668169,0.0181919933984,0.661043194151,0.0,0.0,0.0
701000000,68,701000000,,-0.000818763389029,0.0200164809034,0.747133546503,0.0,0.0,0.0
711000000,69,711000000,,-0.0113680116191,0.00791126789975,0.796402985577,0.0,0.0,0.0
721000000,70,721000000,,0.0166948400187,-0.0151996991731,0.884094404883,0.0,0.0,0.0
731000000,71,731000000,,0.0185753268774,-0.0189848702336,0.929222859354,0.0,0.0,0.0
744000000,72,744000000,,0.0105048261818,0.00717515317221,0.993552217433,0.0,0.0,0.0
752000000,73,752000000,,-0.0122568403708,-0.0191864494671,1.07795774287,0.0,0.0,0.0
761000000,74,761000000,,0.032420259837,-0.034174693537,1.09668798873,0.0,0.0,0.0
771000000,75,771000000,,-0.03529544639,0.0360648620389,1.16019938202,0.0,0.0,0.0
781000000,76,781000000,,-0.0015885564125,-0.0215043755275,1.19984632838,0.0,0.0,0.0
791000000,77,791000000,,0.0101282955902,-0.0109958684312,1.21820228494,0.0,0.0,0.0
802000000,78,802000000,,0.00683215912351,-0.0136488726745,1.3086496979,0.0,0.0,0.0
812000000,79,812000000,,0.0320569532298,-0.0296139627197,1.33822814335,0.0,0.0,0.0
821000000,80,821000000,,-0.0345485907352,0.00867555467565,1.42661676771,0.0,0.0,0.0
831000000,81,831000000,,-0.00660997124612,-0.0545698407356,1.41622902417,0.0,0.0,0.0
842000000,82,842000000,,-0.00028161622709,0.0144426318202,1.45107687565,0.0,0.0,0.0
851000000,83,851000000,,0.00645910472439,-0.0256463763725,1.5101420212,0.0,0.0,0.0
862000000,84,862000000,,-0.010324902547,0.0201027513413,1.47899721451,0.0,0.0,0.0
872000000,85,872000000,,-0.0278799485258,-0.00715758571478,1.54143751407,0.0,0.0,0.0
882000000,86,882000000,,0.00329473404637,0.0270145079543,1.60675096924,0.0,0.0,0.0
892000000,87,892000000,,-0.0187286512202,0.0114599789424,1.59083786206,0.0,0.0,0.0
902000000,88,902000000,,-0.0198623670282,-0.00300122074032,1.58426280321,0.0,0.0,0.0
912000000,89,912000000,,-0.0101173052013,-0.0258147156566,1.58764752605,0.0,0.0,0.0
921000000,90,921000000,,0.0222127485921,-0.00680796757508,1.62435184077,0.0,0.0,0.0
931000000,91,931000000,,0.00726024049462,-0.000167205987853,1.62152584008,0.0,0.0,0.0
941000000,92,941000000,,-0.0132280094279,0.0282176311233,1.64558310948,0.0,0.0,0.0
953000000,93,953000000,,-0.0426476819774,-0.00412070315323,1.62865324007,0.0,0.0,0.0
961000000,94,961000000,,-0.0148984458075,-0.00145132348517,1.62987567283,0.0,0.0,0.0
973000000,95,973000000,,0.0244411565243,0.0530670675941,1.64005060227,0.0,0.0,0.0
981000000,96,981000000,,-0.0206597521779,-0.0316581530199,1.66514397766,0.0,0.0,0.0
994000000,97,994000000,,-0.013552806004,-0.00228118574535,1.63601208786,0.0,0.0,0.0
1004000000,98,1004000000,,0.00480371858845,-0.00432610667349,1.62087482455,0.0,0.0,0.0
1012000000,99,1012000000,,-0.0047310971065,-0.00215443646347,1.62762973935,0.0,0.0,0.0
1024000000,100,1024000000,,0.0056745793451,-0.0294239946458,1.5657488396,0.0,0.0,0.0
1031000000,101,1031000000,,0.0327439747414,-0.00891361691184,1.58619778528,0.0,0.0,0.0
1042000000,102,1042000000,,-0.0211454174563,0.0233079263348,1.55135543625,0.0,0.0,0.0
1051000000,103,1051000000,,-0.00394971723476,0.00141046951441,1.51679528706,0.0,0.0,0.0
1061000000,104,1061000000,,0.0122320328291,0.0152457397291,1.54334070726,0.0,0.0,0.0
1071000000,105,1071000000,,0.01379466016,0.00914274692417,1.55242047785,0.0,0.0,0.0
1081000000,106,1081000000,,-0.0348779408844,0.00118515915102,1.47209570597,0.0,0.0,0.0
1092000000,107,1092000000,,0.00334694282782,-0.016450218105,1.4909990323,0.0,0.0,0.0
1102000000,108,1102000000,,0.0163045633108,-0.0471959070952,1.44983061264,0.0,0.0,0.0
1112000000,109,1112000000,,0.00375102554958,-0.00668590416781,1.44214099156,0.0,0.0,0.0
1122000000,110,1122000000,,0.00207687148331,-0.0113051461806,1.38736112267,0.0,0.0,0.0
1131000000,111,1131000000,,-0.0250768343113,-0.00685145244126,1.40355406081,0.0,0.0,0.0
1143000000,112,1143000000,,0.0330611673724,-0.0256525134829,1.34906093004,0.0,0.0,0.0
1152000000,113,1152000000,,-0.0129879141214,-0.0127219983551,1.34066678759,0.0,0.0,0.0
1163000000,114,1163000000,,-0.00736544193768,0.00926530679343,1.32973399776,0.0,0.0,0.0
1171000000,115,1171000000,,0.0100957671615,-0.0110772974583,1.31355127851,0.0,0.0,0.0
1181000000,116,1181000000,,0.0138343632822,0.0150046114799,1.30304289436,0.0,0.0,0.0
1191000000,117,1191000000,,0.0100238418748,0.00478962386304,1.26206845445,0.0,0.0,0.0
1202000000,118,1202000000,,-0.0199108160796,-0.0258531965082,1.24636176155,0.0,0.0,0.0
1212000000,119,1212000000,,0.02324548887,0.0176798333291,1.23084447963,0.0,0.0,0.0
1221000000,120,1221000000,,-0.00522108904971,-0.00946950215423,1.2525685888,0.0,0.0,0.0
1232000000,121,1232000000,,0.00637555736044,0.0111467672559,1.26546210065,0.0,0.0,0.0
1242000000,122,1242000000,,0.0382967379162,-0.00874321725517,1.21529506157,0.0,0.0,0.0
1252000000,123,1252000000,,0.00953112661159,0.00401042205143,1.19692946989,0.0,0.0,0.0
1261000000,124,1261000000,,-0.0167290735441,0.0139334830132,1.21414909686,0.0,0.0,0.0
1272000000,125,1272000000,,-0.00101523155653,-0.00798464237411,1.19666352619,0.0,0.0,0.0
1282000000,126,1282000000,,0.00241499333155,0.0139074829627,1.21338183227,0.0,0.0,0.0
1291000000,127,1291000000,,-0.00730789652333,0.00998157372829,1.20243054736,0.0,0.0,0.0
1301000000,128,1301000000,,-0.0538630747385,0.0264237324222,1.17768974109,0.0,0.0,0.0
1311000000,129,1311000000,,0.0107779830672,0.0145360050048,1.22246999407,0.0,0.0,0.0
1322000000,130,1322000000,,0.00972577224497,-0.0130184584174,1.1788969977,0.0,0.0,0.0
1331000000,131,1331000000,,0.0140685660522,-0.010168740155,1.20107571488,0.0,0.0,0.0
1341000000,132,1341000000,,0.0167084584693,0.018510074187,1.1685639362,0.0,0.0,0.0
1351000000,133,1351000000,,-0.0282599925673,-0.0244872980643,1.1892180178,0.0,0.0,0.0
1361000000,134,1361000000,,0.0139612341144,0.0181388933842,1.16938315659,0.0,0.0,0.0
1371000000,135,1371000000,,-0.0251867458105,0.0109097340605,1.17365123251,0.0,0.0,0.0
1381000000,136,1381000000,,0.000174032255774,-0.0149964448445,1.19935393072,0.0,0.0,0.0
1392000000,137,1392000000,,-0.00149299064904,0.0388642602675,1.18193095022,0.0,0.0,0.0
1402000000,138,1402000000,,-0.0166465817112,0.0233776833146,1.22542473279,0.0,0.0,0.0
1412000000,139,1412000000,,1.55471627986e-05,0.0137829376194,1.1873117019,0.0,0.0,0.0
1421000000,140,1421000000,,-0.0164296600426,-0.00711808609117,1.20226204955,0.0,0.0,0.0
1431000000,141,1431000000,,-0.0583057180905,0.0092045132113,1.2352159603,0.0,0.0,0.0
1442000000,142,1442000000,,-0.0149336601506,-0.0355179413237,1.21112892116,0.0,0.0,0.0
1451000000,143,1451000000,,-0.0105281057307,0.00866472765478,1.2349130848,0.0,0.0,0.0
1462000000,144,1462000000,,0.00909854572368,0.0135587650745,1.19858510398,0.0,0.0,0.0
1472000000,145,1472000000,,-0.0268013424804,0.00161552569926,1.19378083603,0.0,0.0,0.0
1482000000,146,1482000000,,-0.00301014896494,-0.0407779644006,1.19216555258,0.0,0.0,0.0
1491000000,147,1491000000,,0.0168325897529,-0.00743683417605,1.20848922532,0.0,0.0,0.0
1502000000,148,1502000000,,-0.00676650685447,-0.00112842490156,1.23107534638,0.0,0.0,0.0
1511000000,149,1511000000,,-0.026190966393,-0.00829787996319,1.22551409737,0.0,0.0,0.0
1522000000,150,1522000000,,-0.00965992070336,0.0198189741559,1.20078644335,0.0,0.0,0.0
1531000000,151,1531000000,,-0.0249727703291,0.0304295071748,1.21532237118,0.0,0.0,0.0
1541000000,152,1541000000,,0.021073888724,0.00332211124246,1.2358368275,0.0,0.0,0.0
1551000000,153,1551000000,,0.00677720428585,-0.0114864951521,1.22165590466,0.0,0.0,0.0
1561000000,154,1561000000,,0.00941063726932,0.0164725567271,1.22060907892,0.0,0.0,0.0
1571000000,155,1571000000,,0.0443137987869,0.00897356899793,1.21900086351,0.0,0.0,0.0
1581000000,156,1581000000,,-0.00730777987496,-0.0500037532594,1.19967448675,0.0,0.0,0.0
1591000000,157,1591000000,,0.0454390229002,-0.00953222722743,1.22219443445,0.0,0.0,0.0
1601000000,158,1601000000,,-0.0547167689892,-0.0169923991409,1.20920991193,0.0,0.0,0.0
1621000000,160,1621000000,,-0.0317461615506,-0.00211875465039,1.17293141151,0.0,0.0,0.0
1634000000,161,1634000000,,0.0084033990021,-0.0203339861504,1.20695503034,0.0,0.0,0.0
1646000000,162,1646000000,,-0.00481175707084,-0.0251556827982,1.18533171238,0.0,0.0,0.0
1651000000,163,1651000000,,0.0086027796645,-0.00950529753019,1.18568569831,0.0,0.0,0.0
1661000000,164,1661000000,,0.0103863273262,0.0051661089074,1.17933126802,0.0,0.0,0.0
1671000000,165,1671000000,,-0.0271505974323,0.000443580130057,1.16455674622,0.0,0.0,0.0
1685000000,166,1685000000,,-0.0144054328245,-0.0163235190728,1.14390462899,0.0,0.0,0.0
1696000000,167,1696000000,,-0.0133790706245,0.00723504473238,1.13298562094,0.0,0.0,0.0
1701000000,168,1701000000,,-0.00132442080848,0.00891461784249,1.11751232179,0.0,0.0,0.0
1712000000,169,1712000000,,0.00488727288271,-0.0058109719715,1.12167401136,0.0,0.0,0.0
1722000000,170,1722000000,,-0.00702351818414,0.0204154648307,1.11829894247,0.0,0.0,0.0
1755000000,171,1755000000,,0.0275335487408,0.00303835293153,1.10505202498,0.0,0.0,0.0
1755000000,172,1755000000,,-0.0187567810362,0.00190378848064,1.06346077694,0.0,0.0,0.0
1772000000,173,1772000000,,-0.0348191236936,-0.0217697562063,1.06673731191,0.0,0.0,0.0
1772000000,174,1772000000,,0.0197742083155,0.00742857246282,1.05327542252,0.0,0.0,0.0
1788000000,175,1788000000,,0.0030802686079,0.0166572307761,1.02579649822,0.0,0.0,0.0
1792000000,176,1792000000,,0.000908145861431,-0.00802981716484,1.0160271701,0.0,0.0,0.0
1801000000,177,1801000000,,-0.0244266702341,0.00693403535271,0.986651330563,0.0,0.0,0.0
1813000000,178,1813000000,,0.0178024386423,0.00291009395858,1.03472232646,0.0,0.0,0.0
1822000000,179,1822000000,,-0.000213412865915,-0.00166801612635,0.995755154729,0.0,0.0,0.0
1832000000,180,1832000000,,0.000240695681648,0.0146825301437,0.975590233117,0.0,0.0,0.0
1841000000,181,1841000000,,0.0188472140335,-0.0047777343341,0.949165968727,0.0,0.0,0.0
1862000000,182,1862000000,,-0.0110986753191,-0.0269913704594,0.97503710962,0.0,0.0,0.0
1862000000,183,1862000000,,0.0156480539072,0.00694156875809,0.979503193665,0.0,0.0,0.0
1872000000,184,1872000000,,0.0038512795319,0.00380247701242,0.952586404467,0.0,0.0,0.0
1881000000,185,1881000000,,-0.0181721440684,-0.0143047576327,0.916471287304,0.0,0.0,0.0
1892000000,186,1892000000,,-0.0422032294063,-0.0210356344448,0.879697579906,0.0,0.0,0.0
1903000000,187,1903000000,,0.0216188219055,-0.00273472129769,0.88591589876,0.0,0.0,0.0
1912000000,188,1912000000,,-0.025446774102,-0.0148011405797,0.848807968414,0.0,0.0,0.0
1921000000,189,1921000000,,-0.0193815488386,0.00337218385576,0.8955058798,0.0,0.0,0.0
1931000000,190,1931000000,,-0.0415160826624,-0.0115567246527,0.865618596281,0.0,0.0,0.0
1941000000,191,1941000000,,0.0054543359224,-0.0122080064248,0.863889218572,0.0,0.0,0.0
1952000000,192,1952000000,,0.00174508307857,0.00888579821776,0.860366278817,0.0,0.0,0.0
1961000000,193,1961000000,,0.00825376273516,-0.0299326512947,0.766729770459,0.0,0.0,0.0
1972000000,194,1972000000,,-0.0186895594038,-0.0211025743812,0.8469243998,0.0,0.0,0.0
1982000000,195,1982000000,,-0.0321810822115,-0.0216722709961,0.806351294192,0.0,0.0,0.0
1992000000,196,1992000000,,-0.0256116741312,-0.0328478755943,0.823509946725,0.0,0.0,0.0
2001000000,197,2001000000,,0.0433362471083,0.00797569305291,0.808778150941,0.0,0.0,0.0
2012000000,198,2012000000,,0.0190533415721,-0.0370555420517,0.807911728936,0.0,0.0,0.0
2021000000,199,2021000000,,-0.0123144085858,0.0473531564972,0.770615860685,0.0,0.0,0.0
2031000000,200,2031000000,,-0.0371607985186,0.00196991129642,0.783871579197,0.0,0.0,0.0
2042000000,201,2042000000,,0.00575516843163,0.00666465373437,0.77644840961,0.0,0.0,0.0
2051000000,202,2051000000,,-0.00276262916472,-0.0184547099877,0.763797644459,0.0,0.0,0.0
2061000000,203,2061000000,,-0.026055242097,-0.00295481305592,0.769518824609,0.0,0.0,0.0
2071000000,204,2071000000,,-0.04086840688,-0.0430313352837,0.787728624949,0.0,0.0,0.0
2081000000,205,2081000000,,0.0231501725756,0.0239413670275,0.787051142294,0.0,0.0,0.0
2091000000,206,2091000000,,-0.0167314457445,0.0205179993784,0.684308304903,0.0,0.0,0.0
2101000000,207,2101000000,,0.000907633973097,-0.00628429215426,0.737450485435,0.0,0.0,0.0
2111000000,208,2111000000,,0.00681600430711,0.00305344653111,0.703928507717,0.0,0.0,0.0
2122000000,209,2122000000,,0.0127708839704,0.0181229426208,0.719840970222,0.0,0.0,0.0
2133000000,210,2133000000,,0.00367805038742,-0.00309245664107,0.692051522706,0.0,0.0,0.0
2142000000,211,2142000000,,0.00876866281764,0.0549639517265,0.705212747167,0.0,0.0,0.0
2153000000,212,2153000000,,0.0225403438099,-0.0288615071991,0.680699317583,0.0,0.0,0.0
2165000000,213,2165000000,,0.00806964414354,-0.00242863486625,0.662087671039,0.0,0.0,0.0
2171000000,214,2171000000,,-0.0191152545479,-0.0310647225109,0.687294154202,0.0,0.0,0.0
2182000000,215,2182000000,,0.0215181093338,0.0190307614787,0.691995880205,0.0,0.0,0.0
2191000000,216,2191000000,,-0.0238449746493,0.0193907454833,0.67453597361,0.0,0.0,0.0
2202000000,217,2202000000,,-0.0249270452652,0.0229346930307,0.667742646423,0.0,0.0,0.0
2212000000,218,2212000000,,-0.0389469820908,-0.0172369242634,0.659389406327,0.0,0.0,0.0
2237000000,219,2237000000,,-0.0298207495504,-0.0146744376925,0.652166068646,0.0,0.0,0.0
2237000000,220,2237000000,,-0.0157132028532,0.00216955200925,0.6366214997,0.0,0.0,0.0
2241000000,221,2241000000,,0.0210810617037,0.0269031987381,0.673002887009,0.0,0.0,0.0
2251000000,222,2251000000,,-0.0162940648064,0.0192618866035,0.658914348667,0.0,0.0,0.0
2261000000,223,2261000000,,0.0126792253546,-0.0363414537398,0.66856236432,0.0,0.0,0.0
2271000000,224,2271000000,,-0.0317883774766,0.00962212352516,0.652838053193,0.0,0.0,0.0
2281000000,225,2281000000,,-0.0338930082909,0.03098576826,0.622967846648,0.0,0.0,0.0
2291000000,226,2291000000,,-0.00962947619469,-0.0196022121982,0.596799384376,0.0,0.0,0.0
2301000000,227,2301000000,,-0.000846038430406,0.0176441167382,0.617612256269,0.0,0.0,0.0
2311000000,228,2311000000,,-0.0107543478831,-0.00709781404066,0.600358317605,0.0,0.0,0.0
2322000000,229,2322000000,,0.0527367156066,0.00523740363109,0.6333776842,0.0,0.0,0.0
2332000000,230,2332000000,,0.0413683579233,-0.0132167330519,0.590915640073,0.0,0.0,0.0
2342000000,231,2342000000,,-0.0378317774641,0.00899039057119,0.597123740249,0.0,0.0,0.0
2352000000,232,2352000000,,-0.00514003661652,0.0308123688277,0.59828187499,0.0,0.0,0.0
2363000000,233,2363000000,,0.00596233568445,-0.00149462825344,0.591772962295,0.0,0.0,0.0
2371000000,234,2371000000,,0.0282422416175,0.00831629856744,0.600775756019,0.0,0.0,0.0
2381000000,235,2381000000,,0.0180584826634,-0.018523993477,0.607544481489,0.0,0.0,0.0
2391000000,236,2391000000,,0.0018065366002,0.0235575806591,0.59653745792,0.0,0.0,0.0
2402000000,237,2402000000,,-0.0140224762443,-0.0053435451587,0.53263493751,0.0,0.0,0.0
2412000000,238,2412000000,,0.0114808721096,-0.00436101382979,0.544984919113,0.0,0.0,0.0
2421000000,239,2421000000,,-0.0387928094017,-0.0123142097497,0.584761456445,0.0,0.0,0.0
2431000000,240,2431000000,,-0.0216458985522,-0.00547772751697,0.535048961519,0.0,0.0,0.0
2442000000,241,2442000000,,0.00936302836624,0.00929980374254,0.521748060143,0.0,0.0,0.0
2451000000,242,2451000000,,-0.00412507164069,-0.0219730187143,0.566810512144,0.0,0.0,0.0
2461000000,243,2461000000,,-0.0119526386411,-0.0218060955396,0.521489651603,0.0,0.0,0.0
2472000000,244,2472000000,,-0.00351619501387,-0.0176435464271,0.506271593187,0.0,0.0,0.0
2481000000,245,2481000000,,0.0241816509035,0.0210984060117,0.577592533195,0.0,0.0,0.0
2491000000,246,2491000000,,0.00108046814232,0.0228284820391,0.50800743157,0.0,0.0,0.0
2504000000,247,2504000000,,0.0303951806418,0.0092529144972,0.510659723816,0.0,0.0,0.0
2511000000,248,2511000000,,-0.0113509693428,-0.0185275038823,0.518479603524,0.0,0.0,0.0
2522000000,249,2522000000,,0.0365280326585,0.00511999215888,0.508015646058,0.0,0.0,0.0
2531000000,250,2531000000,,-0.0170636785036,-0.0225989322125,0.486553765498,0.0,0.0,0.0
2542000000,251,2542000000,,0.0184437795041,-0.0196342920758,0.494650395186,0.0,0.0,0.0
2551000000,252,2551000000,,0.0020914790607,0.00795825061432,0.479635700501,0.0,0.0,0.0
2562000000,253,2562000000,,0.0193507345189,-0.0356107793637,0.45962645239,0.0,0.0,0.0
2571000000,254,2571000000,,0.0333811841941,0.00482638842872,0.450831280825,0.0,0.0,0.0
2582000000,255,2582000000,,0.00443739024195,0.00624890577292,0.446725762395,0.0,0.0,0.0
2592000000,256,2592000000,,-0.00928234396548,-0.0157380639965,0.436148429892,0.0,0.0,0.0
2601000000,257,2601000000,,-0.0199792110944,-0.00509542817595,0.401555328853,0.0,0.0,0.0
2612000000,258,2612000000,,-0.0242437054313,-0.0036441189444,0.440101363325,0.0,0.0,0.0
2622000000,259,2622000000,,-0.00183911174107,-0.0214532020455,0.443124551891,0.0,0.0,0.0
2632000000,260,2632000000,,0.00854057895294,-0.0222299918345,0.429244795802,0.0,0.0,0.0
2641000000,261,2641000000,,0.000913372858722,-0.0157760027106,0.374516136581,0.0,0.0,0.0
2651000000,262,2651000000,,0.00410774743453,0.0214848624606,0.419172306151,0.0,0.0,0.0
2660000000,263,2660000000,,-0.0307880288899,-0.0224468544909,0.386740916993,0.0,0.0,0.0
2671000000,264,2671000000,,-0.0261837321599,0.0029127488146,0.410320776342,0.0,0.0,0.0
2682000000,265,2682000000,,-0.02986891145,0.0259181460978,0.379001648411,0.0,0.0,0.0
2692000000,266,2692000000,,0.0149914896654,0.00128059893095,0.358982142751,0.0,0.0,0.0
2703000000,267,2703000000,,-0.00742551750017,8.00930424444e-05,0.355970203515,0.0,0.0,0.0
2712000000,268,2712000000,,0.00942549858628,-0.0304613740177,0.350421136194,0.0,0.0,0.0
2721000000,269,2721000000,,-0.0185057672048,-0.0277965328034,0.383110256695,0.0,0.0,0.0
2743000000,270,2743000000,,0.0122358054761,0.0218722588717,0.351353101468,0.0,0.0,0.0
2743000000,271,2743000000,,-0.00211645544604,-0.0181324579433,0.358981198536,0.0,0.0,0.0
2752000000,272,2752000000,,0.0314459586634,-0.0404555987023,0.38105021413,0.0,0.0,0.0
2761000000,273,2761000000,,-0.011997904629,0.000131980257529,0.37622744373,0.0,0.0,0.0
2771000000,274,2771000000,,0.0224711428407,-0.021340134085,0.351096263021,0.0,0.0,0.0
2785000000,275,2785000000,,-0.0347941378437,-0.00982230354499,0.314206228346,0.0,0.0,0.0
2815000000,276,2815000000,,0.028350591335,-0.00376930306008,0.310981470201,0.0,0.0,0.0
2815000000,277,2815000000,,0.00580656575592,-0.00537536551625,0.36674534333,0.0,0.0,0.0
2833000000,278,2833000000,,0.0187010040639,-0.0174014909425,0.306161865867,0.0,0.0,0.0
2833000000,279,2833000000,,0.00132112842273,0.00717407169098,0.322194829159,0.0,0.0,0.0
2862000000,280,2862000000,,0.00840613407146,-0.00419668014244,0.348738056221,0.0,0.0,0.0
2862000000,282,2862000000,,-0.0263565167113,-0.00728721710456,0.279151373532,0.0,0.0,0.0
2873000000,283,2873000000,,-0.0310413504786,0.0369671521494,0.285079516259,0.0,0.0,0.0
2881000000,284,2881000000,,-0.0158769160567,-0.00503130594662,0.28039568889,0.0,0.0,0.0
2906000000,285,2906000000,,0.0206664887056,0.00843169435991,0.273924851678,0.0,0.0,0.0
2906000000,286,2906000000,,0.00851949191703,0.00956747455166,0.255881498971,0.0,0.0,0.0
2911000000,287,2911000000,,-0.00165643203641,0.00387458860944,0.309382934838,0.0,0.0,0.0
2921000000,288,2921000000,,0.0215396879434,0.00703487658411,0.253680466913,0.0,0.0,0.0
2931000000,289,2931000000,,0.00290298486137,-0.0225281906843,0.283489857157,0.0,0.0,0.0
2941000000,290,2941000000,,0.0209830644994,-0.0279487333197,0.285445232277,0.0,0.0,0.0
2953000000,291,2953000000,,-0.0321321761815,-0.03196813728,0.267349074274,0.0,0.0,0.0
2964000000,292,2964000000,,-0.00904054704806,0.0135877417148,0.267028679089,0.0,0.0,0.0
2972000000,293,2972000000,,0.0133806747124,-0.0242195593514,0.278541596404,0.0,0.0,0.0
2982000000,294,2982000000,,-0.000597914721855,-0.000821116726431,0.265350673257,0.0,0.0,0.0
2991000000,295,2991000000,,-0.00119100681104,0.0148744076288,0.236277756095,0.0,0.0,0.0
3001000000,296,3001000000,,-0.0109956627398,-0.0230599771512,0.22751962454,0.0,0.0,0.0
3011000000,297,3011000000,,-0.0156249619745,0.00416067240171,0.257638740479,0.0,0.0,0.0
3021000000,298,3021000000,,0.0200823943563,0.025709413499,0.244877931105,0.0,0.0,0.0
3031000000,299,3031000000,,0.00492760431457,-0.013242753772,0.240400968124,0.0,0.0,0.0
3042000000,300,3042000000,,-0.00262701088383,-0.00535860637343,0.227848416617,0.0,0.0,0.0
3051000000,301,3051000000,,0.0273699662321,-0.0038140405362,0.20375392888,0.0,0.0,0.0
3061000000,302,3061000000,,-0.0200060112125,-0.00571619457718,0.268164777659,0.0,0.0,0.0
3071000000,303,3071000000,,6.17860366325e-05,0.00710123169468,0.239611974451,0.0,0.0,0.0
3081000000,304,3081000000,,-0.0189998914835,-0.0250554828607,0.22993106409,0.0,0.0,0.0
3091000000,305,3091000000,,0.00319152901772,-0.0128122793292,0.235799168941,0.0,0.0,0.0
3101000000,306,3101000000,,-0.00827688847169,0.0111555991941,0.191022473043,0.0,0.0,0.0
3111000000,307,3111000000,,0.000140596631932,-3.63631930294e-05,0.238766832951,0.0,0.0,0.0
3121000000,308,3121000000,,0.0226382933055,-0.0165208941573,0.173786073717,0.0,0.0,0.0
3131000000,309,3131000000,,-0.00473383253644,-0.00955856931977,0.213386404525,0.0,0.0,0.0
3141000000,310,3141000000,,-0.0408555495637,-0.0266044426141,0.237666495198,0.0,0.0,0.0
3151000000,311,3151000000,,0.00538175099616,0.0285218370744,0.251597207157,0.0,0.0,0.0
3161000000,312,3161000000,,0.0183450933587,-0.0191358342595,0.208051891063,0.0,0.0,0.0
3171000000,313,3171000000,,-0.0212999204292,-0.0138917033552,0.240054991138,0.0,0.0,0.0
3181000000,314,3181000000,,0.012886544371,0.0215476176462,0.207114510976,0.0,0.0,0.0
3191000000,315,3191000000,,0.0178760889856,0.0152586427845,0.194458463493,0.0,0.0,0.0
3202000000,316,3202000000,,0.0142529187797,-0.0048393864545,0.239736623331,0.0,0.0,0.0
3211000000,317,3211000000,,-0.0158350455473,-0.00583331338583,0.1517117899,0.0,0.0,0.0
3221000000,318,3221000000,,0.00203922417348,0.0270288981104,0.208722120337,0.0,0.0,0.0
3231000000,319,3231000000,,-0.00985561236555,-0.00426105211266,0.212324983846,0.0,0.0,0.0
3241000000,320,3241000000,,0.00689901699764,0.00996375427934,0.180098591247,0.0,0.0,0.0
3251000000,321,3251000000,,-0.00592129124745,0.0581497382565,0.212866780005,0.0,0.0,0.0
3261000000,322,3261000000,,-0.0329489538839,0.00410831967964,0.177667537871,0.0,0.0,0.0
3272000000,323,3272000000,,0.012300977165,0.00317400281431,0.177201108717,0.0,0.0,0.0
3281000000,324,3281000000,,0.00582788843346,0.0326234116589,0.196989072788,0.0,0.0,0.0
3292000000,325,3292000000,,-0.013744685727,0.0449855579647,0.172832021011,0.0,0.0,0.0
3302000000,326,3302000000,,0.0063950747046,0.0359667207839,0.198099966135,0.0,0.0,0.0
3312000000,327,3312000000,,0.0119598164305,-0.00888726122389,0.170668692501,0.0,0.0,0.0
3325000000,328,3325000000,,0.00918046109119,-0.00319388174007,0.227179579714,0.0,0.0,0.0
3331000000,329,3331000000,,-0.0265637481298,0.0104139803573,0.161929031564,0.0,0.0,0.0
3342000000,330,3342000000,,0.00826275630914,0.0199692725224,0.184875346063,0.0,0.0,0.0
3354000000,331,3354000000,,0.0134510910274,-0.0128250360102,0.156558414329,0.0,0.0,0.0
3361000000,332,3361000000,,-0.00476226586509,-0.0276290310452,0.149554926088,0.0,0.0,0.0
3372000000,333,3372000000,,-0.0037308233959,-0.00166657742069,0.142597062799,0.0,0.0,0.0
3381000000,334,3381000000,,-0.0411140279911,-0.00459889616775,0.160631797588,0.0,0.0,0.0
3391000000,335,3391000000,,0.0149307091039,0.00579009056521,0.205424267416,0.0,0.0,0.0
3401000000,336,3401000000,,0.0160914552632,-0.0294796217421,0.138879068898,0.0,0.0,0.0
3411000000,337,3411000000,,0.0195833633583,0.00860331801776,0.145013636718,0.0,0.0,0.0
3421000000,338,3421000000,,0.0227596631438,-0.00692220307337,0.153398689075,0.0,0.0,0.0
3435000000,339,3435000000,,-0.00369752563525,0.00780321078876,0.15485880235,0.0,0.0,0.0
3444000000,340,3444000000,,0.00179596595069,0.040771189896,0.141858517605,0.0,0.0,0.0
3451000000,341,3451000000,,-0.0136652133718,0.00121851984287,0.142204898122,0.0,0.0,0.0
3462000000,342,3462000000,,-0.0134359779111,0.000691331113433,0.143190212552,0.0,0.0,0.0
3471000000,343,3471000000,,-0.00723999922004,-0.0229394204394,0.146117421605,0.0,0.0,0.0
3481000000,344,3481000000,,-0.000473374583893,-0.0072186451472,0.118971588279,0.0,0.0,0.0
3491000000,345,3491000000,,-0.0272962713892,-0.0045399776965,0.180672263035,0.0,0.0,0.0
3501000000,346,3501000000,,0.00995282963144,0.0272784163228,0.088090696736,0.0,0.0,0.0
3511000000,347,3511000000,,0.0206956420328,-0.0262112505184,0.139176473638,0.0,0.0,0.0
3521000000,348,3521000000,,0.0485542044948,0.0244112967361,0.123650915025,0.0,0.0,0.0
3532000000,349,3532000000,,-0.00771686301138,0.00127235990449,0.0962080436753,0.0,0.0,0.0
3542000000,350,3542000000,,-0.0154274327969,-0.0102385718104,0.120548342905,0.0,0.0,0.0
3552000000,351,3552000000,,0.0239615932126,0.0136573276673,0.107233065702,0.0,0.0,0.0
3561000000,352,3561000000,,0.0313058834885,-0.00649617767189,0.0674070013734,0.0,0.0,0.0
3571000000,353,3571000000,,-0.000162460163294,0.00701330808493,0.079613927309,0.0,0.0,0.0
3581000000,354,3581000000,,0.0185819026304,0.0131441854804,0.125166791165,0.0,0.0,0.0
3591000000,355,3591000000,,-0.005169100259,-0.0309696243497,0.0813828861587,0.0,0.0,0.0
3602000000,356,3602000000,,0.0191703736084,0.0323990004164,0.0929508981165,0.0,0.0,0.0
3611000000,357,3611000000,,0.0516584186875,-0.0289690889718,0.0947748369694,0.0,0.0,0.0
3622000000,358,3622000000,,0.0203506526621,0.000807070688369,0.0463744507511,0.0,0.0,0.0
3631000000,359,3631000000,,-0.0110543391735,0.00455253100163,0.0980089719233,0.0,0.0,0.0
3641000000,360,3641000000,,-0.0103967140496,-0.00905328796725,0.0883790360216,0.0,0.0,0.0
3651000000,361,3651000000,,-0.0265030578714,0.0450879645651,0.106776447607,0.0,0.0,0.0
3661000000,362,3661000000,,-0.0329009669248,-0.000552389233533,0.0839802453546,0.0,0.0,0.0
3671000000,363,3671000000,,0.0123495251547,0.0216292645716,0.0600317798296,0.0,0.0,0.0
3681000000,364,3681000000,,0.00216509530316,0.00353534272992,0.0703732576445,0.0,0.0,0.0
3691000000,365,3691000000,,0.0164229164807,0.0230701633687,0.057427079803,0.0,0.0,0.0
3701000000,366,3701000000,,0.00755448010566,0.01351192515,0.0430016651507,0.0,0.0,0.0
3716000000,367,3716000000,,0.0301763694248,-0.0293645948435,0.060624412013,0.0,0.0,0.0
3721000000,368,3721000000,,0.012566830867,0.0170582952208,0.117753018824,0.0,0.0,0.0
3731000000,369,3731000000,,-0.0300252320766,0.0605400603911,0.0926898841417,0.0,0.0,0.0
3741000000,370,3741000000,,-0.00419876925555,0.0144938020971,0.0747358801714,0.0,0.0,0.0
3751000000,371,3751000000,,0.0138802326377,-0.0402137312017,0.097370404303,0.0,0.0,0.0
3761000000,372,3761000000,,0.0269572637872,0.00218707439294,0.0475487612483,0.0,0.0,0.0
3771000000,373,3771000000,,0.017880417528,0.0128265003593,0.0879925016745,0.0,0.0,0.0
3781000000,374,3781000000,,0.0162742073399,-0.00963680586553,0.0756802020592,0.0,0.0,0.0
3791000000,375,3791000000,,-0.0315564161101,0.013858046738,0.104927599497,0.0,0.0,0.0
3802000000,376,3802000000,,-0.0272295427008,0.0156849199925,0.0846963955864,0.0,0.0,0.0
3813000000,377,3813000000,,-0.0202637431283,-0.0130452623177,0.0834111461916,0.0,0.0,0.0
3822000000,378,3822000000,,-0.00218526581798,0.0124119645928,0.0938402200101,0.0,0.0,0.0
3831000000,379,3831000000,,-0.0266954712807,0.0232527706368,0.0803136645847,0.0,0.0,0.0
3841000000,380,3841000000,,-0.00800992198338,-0.0160843076022,0.0980162393112,0.0,0.0,0.0
3851000000,381,3851000000,,-0.0143409114039,0.0126656930826,0.0548052256656,0.0,0.0,0.0
3861000000,382,3861000000,,0.0202973143189,-0.0136334510834,0.0981971984288,0.0,0.0,0.0
3871000000,383,3871000000,,0.0201916148336,0.0199671504666,0.106795441795,0.0,0.0,0.0
3881000000,384,3881000000,,0.0299768276556,0.0194420035227,0.10072912705,0.0,0.0,0.0
3893000000,385,3893000000,,-0.0133992529181,-0.022254751571,0.100476923886,0.0,0.0,0.0
3901000000,386,3901000000,,-0.0127369707289,-0.00509971048145,0.0786306551755,0.0,0.0,0.0
3913000000,387,3913000000,,0.0121451031674,0.0109922250674,0.101717639245,0.0,0.0,0.0
3921000000,388,3921000000,,-0.0109362854786,0.015139165784,0.0838394481508,0.0,0.0,0.0
3931000000,389,3931000000,,-0.0014714345893,-0.0321462371172,0.0866876333139,0.0,0.0,0.0
3941000000,390,3941000000,,0.00605522433816,0.00588806804334,0.057783728168,0.0,0.0,0.0
3951000000,391,3951000000,,-0.0389731365467,0.00501344492577,0.106409401871,0.0,0.0,0.0
3961000000,392,3961000000,,-9.20836207957e-05,-0.016474325287,0.0609763712808,0.0,0.0,0.0
3983000000,394,3983000000,,-0.00217587223778,0.0279836514521,0.0457982148217,0.0,0.0,0.0
3991000000,395,3991000000,,-0.0139889398202,-0.0424789995585,0.0738589278111,0.0,0.0,0.0
4001000000,396,4001000000,,-0.016238658603,0.0262060644704,0.10984583673,0.0,0.0,0.0
4011000000,397,4011000000,,-0.0372045880354,0.000600963997211,0.123179286145,0.0,0.0,0.0
4021000000,398,4021000000,,0.00762773914141,-0.0138417272008,0.0242602216756,0.0,0.0,0.0
4031000000,399,4031000000,,-0.0124582306357,0.0171291596154,0.0774477308019,0.0,0.0,0.0
4041000000,400,4041000000,,-0.0152302073418,-0.0084541925478,0.084088478921,0.0,0.0,0.0
4051000000,401,4051000000,,0.0367553723353,-0.0148411094815,0.0971275786711,0.0,0.0,0.0
4061000000,402,4061000000,,-0.00514423497965,0.0243129943468,0.0727929088251,0.0,0.0,0.0
4072000000,403,4072000000,,-0.01300205046,0.00201165005927,0.0668479920903,0.0,0.0,0.0
4082000000,404,4082000000,,0.0121625834933,0.019876255815,0.0502052966544,0.0,0.0,0.0
4091000000,405,4091000000,,-0.0320677624211,0.023242162664,0.05441284731,0.0,0.0,0.0
4102000000,406,4102000000,,-0.0293995166451,-0.0106396103804,0.0623348309369,0.0,0.0,0.0
4112000000,407,4112000000,,-0.020535519476,0.016088662677,0.0948970503577,0.0,0.0,0.0
4121000000,408,4121000000,,-0.0392090122068,0.0364476497181,0.0692823971038,0.0,0.0,0.0
4132000000,409,4132000000,,-0.03939979291,0.0133300185613,0.0405043841016,0.0,0.0,0.0
4141000000,410,4141000000,,-0.0192385090698,0.0133565140505,0.0688753215093,0.0,0.0,0.0
4151000000,411,4151000000,,-0.00739800559732,0.0117169867313,0.072190903134,0.0,0.0,0.0
4161000000,412,4161000000,,0.0154597138297,0.0158140701014,0.0451771467674,0.0,0.0,0.0
4171000000,413,4171000000,,-0.00938615530177,0.0118126416193,0.0598564537063,0.0,0.0,0.0
4181000000,414,4181000000,,0.0142713411812,-0.0220032422975,0.0603154278751,0.0,0.0,0.0
4191000000,415,4191000000,,0.0119117313961,-0.0155502488173,0.0546421193503,0.0,0.0,0.0
4201000000,416,4201000000,,0.0261869036564,-0.014648689463,0.0671416778573,0.0,0.0,0.0
4211000000,417,4211000000,,-0.00829183275496,0.0213668521256,0.0384986627547,0.0,0.0,0.0
4221000000,418,4221000000,,-0.015793747952,-0.00557137517999,0.033032550163,0.0,0.0,0.0
4231000000,419,4231000000,,-0.0137652623511,-4.99270316157e-05,0.032803824313,0.0,0.0,0.0
4241000000,420,4241000000,,-0.000649944806953,-0.0136522683165,0.04648209742,0.0,0.0,0.0
4251000000,421,4251000000,,0.003685910746,0.0180759795999,0.0580551489051,0.0,0.0,0.0
4261000000,422,4261000000,,0.0111616066877,0.00823626914196,0.0675296078544,0.0,0.0,0.0
4271000000,423,4271000000,,-0.00113176240376,-0.0228785221774,0.040278018555,0.0,0.0,0.0
4281000000,424,4281000000,,0.039354175855,0.0228793832625,0.026291548932,0.0,0.0,0.0
4291000000,425,4291000000,,-0.00243212286613,-0.0158293632979,0.0250554864142,0.0,0.0,0.0
4301000000,426,4301000000,,0.0190803629085,-0.0285004434883,0.0359697888778,0.0,0.0,0.0
4312000000,427,4312000000,,-0.0120798934906,0.0359492709222,0.0130716563205,0.0,0.0,0.0
4321000000,428,4321000000,,-0.0413326878182,0.00405025826974,0.000227592429558,0.0,0.0,0.0
4331000000,429,4331000000,,-0.0366675501543,-0.00335825907448,0.0128658344333,0.0,0.0,0.0
4341000000,430,4341000000,,-0.00762907678794,-0.0072809290642,0.0393078979349,0.0,0.0,0.0
4351000000,431,4351000000,,-0.0176661685418,-0.00931992311754,0.0728385471298,0.0,0.0,0.0
4361000000,432,4361000000,,-0.0024539360177,-0.0158626120885,0.0320812869595,0.0,0.0,0.0
4371000000,433,4371000000,,-0.00558517796506,-0.0121231034651,-0.00428365951262,0.0,0.0,0.0
4382000000,434,4382000000,,0.0124398515303,-8.44939963789e-06,0.00116156510915,0.0,0.0,0.0
4392000000,435,4392000000,,-0.0152686639604,0.00532650348138,-0.00745925327563,0.0,0.0,0.0
4402000000,436,4402000000,,0.00515528405082,-0.0271227404639,0.0471362708811,0.0,0.0,0.0
4411000000,437,4411000000,,0.0188899055151,0.0140485231421,0.0219594741739,0.0,0.0,0.0
4422000000,438,4422000000,,0.0272103073877,-0.0228684826896,0.0600456638738,0.0,0.0,0.0
4432000000,439,4432000000,,-0.000327662013819,0.00921002218002,-0.00599211863869,0.0,0.0,0.0
4443000000,440,4443000000,,-0.0190461859369,-0.0114900542254,0.0243127559558,0.0,0.0,0.0
4452000000,441,4452000000,,-0.0106095683278,-0.019769816171,0.0092934420337,0.0,0.0,0.0
4461000000,442,4461000000,,-0.0268043678698,-0.0160670088486,0.0284662778748,0.0,0.0,0.0
4472000000,443,4472000000,,-0.0198457507404,-0.0028193943058,0.0423626430722,0.0,0.0,0.0
4482000000,444,4482000000,,-0.0123696606387,0.00430951960315,0.00530298241449,0.0,0.0,0.0
4492000000,445,4492000000,,-0.0432149511432,0.00527059733422,-0.0125160260096,0.0,0.0,0.0
4501000000,446,4501000000,,0.00804563739486,0.0457929776094,0.0346087125026,0.0,0.0,0.0
4511000000,447,4511000000,,0.00191130908956,-0.0201519637128,0.0494132443432,0.0,0.0,0.0
4521000000,448,4521000000,,0.0281939326743,-0.0280187304602,0.023255835037,0.0,0.0,0.0
4532000000,449,4532000000,,0.0305953125772,-0.017275345658,-0.00360604170096,0.0,0.0,0.0
4542000000,450,4542000000,,-0.0135426922563,-0.0331838850436,0.0257655294753,0.0,0.0,0.0
4551000000,451,4551000000,,-0.0086287212753,-0.0231056320884,0.0175367581327,0.0,0.0,0.0
4561000000,452,4561000000,,0.00589260829399,-0.00636418239186,0.0122359789592,0.0,0.0,0.0
4572000000,453,4572000000,,0.00213602546851,-0.0250376326604,0.0259206187326,0.0,0.0,0.0
4583000000,454,4583000000,,-0.00981378382609,0.0108686925445,0.0159891343827,0.0,0.0,0.0
4591000000,455,4591000000,,0.0143365525549,-0.00188572770351,0.017510767427,0.0,0.0,0.0
4602000000,456,4602000000,,0.0245954323022,0.0067565279042,0.0365244685981,0.0,0.0,0.0
4611000000,457,4611000000,,-0.012803329938,-0.0357877474737,0.0310045833764,0.0,0.0,0.0
4621000000,458,4621000000,,0.0259958111333,0.00712430173695,0.0484619890733,0.0,0.0,0.0
4631000000,459,4631000000,,0.0301922847063,0.0105460378001,0.0228286784745,0.0,0.0,0.0
4644000000,460,4644000000,,-0.00169936177516,-0.0251750425109,0.0290070222476,0.0,0.0,0.0
4651000000,461,4651000000,,-0.00838552225846,-0.0303293342376,0.0540683839699,0.0,0.0,0.0
4661000000,462,4661000000,,0.0223974606068,-0.00613557080212,0.00969054302167,0.0,0.0,0.0
4671000000,463,4671000000,,0.0106987468524,0.00231931418955,0.0706280549502,0.0,0.0,0.0
4681000000,464,4681000000,,-0.0181691171847,0.0138096601523,0.0372779960897,0.0,0.0,0.0
4691000000,465,4691000000,,-0.00845556053442,0.0249386294738,0.0575778890316,0.0,0.0,0.0
4702000000,466,4702000000,,0.0111454534096,0.0240666086594,0.0471227812639,0.0,0.0,0.0
4711000000,467,4711000000,,-0.0287589773488,-0.0294382127557,0.0417632625418,0.0,0.0,0.0
4722000000,468,4722000000,,-0.000615101476395,0.0231340945995,0.0320877452928,0.0,0.0,0.0
4732000000,469,4732000000,,-0.0110672904335,0.0140680119751,0.0105137795145,0.0,0.0,0.0
4742000000,470,4742000000,,0.0111412202657,-0.0237456378592,0.0609289912544,0.0,0.0,0.0
4751000000,471,4751000000,,-0.0168529811033,-0.00191686534778,0.049232678336,0.0,0.0,0.0
4761000000,472,4761000000,,-0.00246362079094,-0.0277888409131,0.0142971893149,0.0,0.0,0.0
4771000000,473,4771000000,,-0.00256793320014,0.00816228477603,0.0298201182279,0.0,0.0,0.0
4781000000,474,4781000000,,0.0069385297485,-0.0241810442929,0.00999497764152,0.0,0.0,0.0
4791000000,475,4791000000,,-0.0057260262684,-0.00615884889173,0.0160303908227,0.0,0.0,0.0
4801000000,476,4801000000,,-0.025178676451,-0.00296747618535,0.061349103101,0.0,0.0,0.0
4811000000,477,4811000000,,-0.00735518854057,-0.0168454224722,0.0168385951837,0.0,0.0,0.0
4821000000,478,4821000000,,0.00407235704775,0.00873537091632,0.0083572119618,0.0,0.0,0.0
4831000000,479,4831000000,,-0.00981194576741,-0.0274274835077,0.00487762416465,0.0,0.0,0.0
4841000000,480,4841000000,,-0.00755059361969,-0.0329384313697,0.0292647988728,0.0,0.0,0.0
4851000000,481,4851000000,,0.0315878546984,-0.0160822198581,0.0255491281115,0.0,0.0,0.0
4861000000,482,4861000000,,-0.0283836241236,0.00405877938716,0.00427041353027,0.0,0.0,0.0
4871000000,483,4871000000,,-0.000843330203134,-0.0445194757304,0.0324645938807,0.0,0.0,0.0
4881000000,484,4881000000,,-0.00295456926503,-0.00601762701011,0.0154930982147,0.0,0.0,0.0
4891000000,485,4891000000,,0.00496846909424,-0.0121063417967,0.00288360794947,0.0,0.0,0.0
4901000000,486,4901000000,,-0.0190891378567,0.00183222656833,-0.00482893504551,0.0,0.0,0.0
4911000000,487,4911000000,,-0.0269256458304,0.0226218112099,-0.00903050410125,0.0,0.0,0.0
4921000000,488,4921000000,,0.000974165902257,0.0108028335163,0.0113146164875,0.0,0.0,0.0
4931000000,489,4931000000,,0.00598353493643,0.0104893904434,-0.010084548532,0.0,0.0,0.0
4941000000,490,4941000000,,0.0301982583778,-0.00234860114007,0.0113524610113,0.0,0.0,0.0
4951000000,491,4951000000,,-0.0257535724377,-0.0368963180288,-0.00712636924262,0.0,0.0,0.0
4961000000,492,4961000000,,-0.00511575740241,0.0100788578236,-0.0118238510155,0.0,0.0,0.0
4971000000,493,4971000000,,0.00770626845793,-0.0223759607309,-0.0179090640046,0.0,0.0,0.0
4981000000,494,4981000000,,-0.0194103215408,-0.00519490504392,0.015195336679,0.0,0.0,0.0
4991000000,495,4991000000,,-0.00124878864292,-0.0185631008875,-0.0052877842979,0.0,0.0,0.0
5001000000,496,5001000000,,0.0312026126252,0.024375376768,0.0355443899594,0.0,0.0,0.0
5011000000,497,5011000000,,-0.00925646587758,-0.000815231483177,-0.018978153863,0.0,0.0,0.0
5021000000,498,5021000000,,0.0184303340181,0.0060386536654,-0.0241931642855,0.0,0.0,0.0
5031000000,499,5031000000,,-0.0178746297955,0.0224703351116,0.00911521162134,0.0,0.0,0.0
5041000000,500,5041000000,,-0.00730648913318,-0.0298309880443,-0.00798881445539,0.0,0.0,0.0
5051000000,501,5051000000,,-0.00344849721185,-0.017305739556,-0.00708010128708,0.0,0.0,0.0
5061000000,502,5061000000,,-0.0260013463684,-0.0371056536695,0.0122400034256,0.0,0.0,0.0
5071000000,503,5071000000,,0.00161497445819,-0.00774151091115,-0.0012414190927,0.0,0.0,0.0
5081000000,504,5081000000,,-0.0232214195721,-0.0372479759327,0.0164640346468,0.0,0.0,0.0
5091000000,505,5091000000,,0.0300178014079,-0.0188618963418,0.0176051729537,0.0,0.0,0.0
5101000000,506,5101000000,,-0.00402652451534,0.0188093958154,0.00607805170677,0.0,0.0,0.0
5111000000,507,5111000000,,-0.021817659171,0.0113740727702,-0.00881612117794,0.0,0.0,0.0
5121000000,508,5121000000,,0.00192619507955,0.0237517498663,0.0150956398978,0.0,0.0,0.0
5131000000,509,5131000000,,-0.0106719165425,0.0104119904137,-0.0260032937784,0.0,0.0,0.0
5141000000,510,5141000000,,-0.0436487976251,0.0161066482779,-0.0226360621161,0.0,0.0,0.0
5152000000,511,5152000000,,0.00958646120472,-0.0524453999009,-0.0243615319036,0.0,0.0,0.0
5162000000,512,5162000000,,0.00508995661882,0.0117883799485,-0.0246282914829,0.0,0.0,0.0
5171000000,513,5171000000,,0.00253030764711,-0.0378901026077,-0.0129683725014,0.0,0.0,0.0
5181000000,514,5181000000,,-0.0139056946701,-0.000428582340844,0.00081059676481,0.0,0.0,0.0
5191000000,515,5191000000,,0.0189481874081,0.0148058527564,-0.00122028835456,0.0,0.0,0.0
5201000000,516,5201000000,,-0.0260267425374,-0.00114281896348,-0.015439477873,0.0,0.0,0.0
5211000000,517,5211000000,,0.015103653333,-0.0166809592859,0.00191548662533,0.0,0.0,0.0
5221000000,518,5221000000,,0.00325570065738,0.0148785138575,0.000712555175882,0.0,0.0,0.0
5231000000,519,5231000000,,0.0196516231106,0.0129319255797,0.0144979696666,0.0,0.0,0.0
5242000000,520,5242000000,,0.00918479420349,-0.00702648334283,0.0121318708293,0.0,0.0,0.0
5251000000,521,5251000000,,0.0191811658503,-0.00805354758449,0.00275698338738,0.0,0.0,0.0
5261000000,522,5261000000,,-0.0166923232009,-0.0191343972933,0.000632450752542,0.0,0.0,0.0
5271000000,523,5271000000,,-0.0207583691445,-0.0121240079289,-0.00530457190697,0.0,0.0,0.0
5281000000,524,5281000000,,-0.0144356887907,0.00390069779121,0.00915993196003,0.0,0.0,0.0
5292000000,525,5292000000,,-0.0400628788654,-0.00538620042904,-0.00345902575859,0.0,0.0,0.0
5302000000,526,5302000000,,-0.0134629282929,0.0177198804283,-0.0137025937654,0.0,0.0,0.0
5312000000,527,5312000000,,0.0289853837981,0.0151236951617,-0.0131392940939,0.0,0.0,0.0
5321000000,528,5321000000,,0.00556553046526,-0.0173997070902,0.0322722830807,0.0,0.0,0.0
5331000000,529,5331000000,,-0.0329496461551,0.0218435641381,0.00911762665702,0.0,0.0,0.0
5341000000,530,5341000000,,-0.0224552489218,0.0021110290798,0.0029157230039,0.0,0.0,0.0
5351000000,531,5351000000,,0.0121229017514,-0.0262003854631,0.0285754541812,0.0,0.0,0.0
5364000000,532,5364000000,,-0.00902641252367,0.00995935011034,-0.00859697284708,0.0,0.0,0.0
5372000000,533,5372000000,,0.0458683289382,0.00121290952268,-0.00355602330996,0.0,0.0,0.0
5382000000,534,5382000000,,-0.0255498182551,0.00675928575922,0.0169567855468,0.0,0.0,0.0
5392000000,535,5392000000,,0.0447357594852,-0.0123767204478,0.00466602589959,0.0,0.0,0.0
5403000000,536,5403000000,,0.00949638434298,0.0164329178855,0.00823347800703,0.0,0.0,0.0
5412000000,537,5412000000,,-0.00917535573925,0.00421271051238,0.0258570634035,0.0,0.0,0.0
5424000000,538,5424000000,,-0.00625657894177,-0.00734188886866,0.0385852895561,0.0,0.0,0.0
5436000000,539,5436000000,,-0.0119086663261,-0.0122140354879,0.0486591390891,0.0,0.0,0.0
5443000000,540,5443000000,,-0.0580455864526,-0.0434303696088,0.0115528385917,0.0,0.0,0.0
5452000000,541,5452000000,,-0.00995744103579,0.0243908507891,-0.00542214541017,0.0,0.0,0.0
5463000000,542,5463000000,,-0.00135950851412,-0.0174341732122,0.0436006838916,0.0,0.0,0.0
5471000000,543,5471000000,,0.00820269165145,-0.0110975621502,-0.0112657335083,0.0,0.0,0.0
5481000000,544,5481000000,,-0.0116638679978,-0.0135384962011,0.00377936613122,0.0,0.0,0.0
5492000000,545,5492000000,,-0.00344723320084,-0.0154889152473,0.0198976372337,0.0,0.0,0.0
5502000000,546,5502000000,,-0.0197769597336,-0.0117202620896,0.000812408962519,0.0,0.0,0.0
5515000000,547,5515000000,,-0.0146743594645,-0.0141126254729,-0.00397313598919,0.0,0.0,0.0
5523000000,548,5523000000,,-0.00500121321849,-0.00319347260602,-0.00641123863963,0.0,0.0,0.0
5532000000,549,5532000000,,-0.000100072317867,-0.012477268708,0.0024906396877,0.0,0.0,0.0
5541000000,550,5541000000,,0.0108258993193,0.0131211756568,-0.00290097358686,0.0,0.0,0.0
5551000000,551,5551000000,,0.0178480428224,-0.00197638845419,0.0225043529795,0.0,0.0,0.0
5561000000,552,5561000000,,-0.0212386174936,0.012744350955,0.0336407153186,0.0,0.0,0.0
5571000000,553,5571000000,,-0.0114449276061,-0.0216044593036,0.0513996517537,0.0,0.0,0.0
5581000000,554,5581000000,,0.00970062810576,0.0190745039801,0.0172134265977,0.0,0.0,0.0
5591000000,555,5591000000,,0.0118890702496,0.000650902663011,-0.045670949812,0.0,0.0,0.0
5601000000,556,5601000000,,-0.0164202689553,-0.0103604633421,0.0205101619422,0.0,0.0,0.0
5612000000,557,5612000000,,-0.0147211668431,-0.0184019782052,-0.00248004607312,0.0,0.0,0.0
5621000000,558,5621000000,,-0.03345371617,-0.0214867107678,0.00681664578005,0.0,0.0,0.0
5631000000,559,5631000000,,-0.0298036405975,0.0247986088899,-0.0313079625735,0.0,0.0,0.0
5641000000,560,5641000000,,-0.00650472246854,-0.0167964868482,0.000232648094933,0.0,0.0,0.0
5651000000,561,5651000000,,-0.0116181703538,0.0176001128487,-0.00283025257197,0.0,0.0,0.0
5661000000,562,5661000000,,0.0193328194691,0.0196007957938,-0.0109672250715,0.0,0.0,0.0
5672000000,563,5672000000,,-0.0433679141962,0.0128613480879,0.035618022757,0.0,0.0,0.0
5682000000,564,5682000000,,0.0163061320483,0.002623177596,0.0204619781814,0.0,0.0,0.0
5692000000,565,5692000000,,-0.00594963941327,-0.00212821428015,0.00564989467487,0.0,0.0,0.0
5701000000,566,5701000000,,-0.0209298240241,-0.00420173213022,0.00385115153874,0.0,0.0,0.0
5711000000,567,5711000000,,0.000311044139578,0.0132278577221,0.0223712320804,0.0,0.0,0.0
5721000000,568,5721000000,,-0.020099916882,0.00209345128124,0.0157482125752,0.0,0.0,0.0
5732000000,569,5732000000,,0.0159475971887,0.0224488570945,-0.0156225428841,0.0,0.0,0.0
5741000000,570,5741000000,,0.00917683373339,-0.0126555340561,-0.012837160412,0.0,0.0,0.0
5751000000,571,5751000000,,0.00230143168647,0.00944804695668,-0.00368110385295,0.0,0.0,0.0
5762000000,572,5762000000,,-0.0294549686687,-0.00541008302522,0.026853056021,0.0,0.0,0.0
5772000000,573,5772000000,,-0.00584099345882,0.0302806744689,2.06376883653e-05,0.0,0.0,0.0
5782000000,574,5782000000,,-0.015358326195,0.037249490914,-0.0125626067057,0.0,0.0,0.0
5792000000,575,5792000000,,-0.00896302767237,0.025055357137,0.0148501708523,0.0,0.0,0.0
5802000000,576,5802000000,,0.0252120041951,0.0248538046657,0.00786366529363,0.0,0.0,0.0
5811000000,577,5811000000,,0.0359530079133,-0.000708997121159,7.72137876658e-05,0.0,0.0,0.0
5822000000,578,5822000000,,-0.0243562822493,-0.0108637897184,0.0117912363521,0.0,0.0,0.0
5833000000,579,5833000000,,0.0127504669983,0.0250404633889,0.0342101442319,0.0,0.0,0.0
5842000000,580,5842000000,,0.0171433367106,-0.00888926210632,0.0395461957568,0.0,0.0,0.0
5852000000,581,5852000000,,-0.0220471573195,-0.0216784292871,0.0406448921994,0.0,0.0,0.0
5861000000,582,5861000000,,0.00966413180246,-0.0189241415836,0.00482723192714,0.0,0.0,0.0
5871000000,583,5871000000,,-0.0118911561267,-0.037718237714,0.00546046774922,0.0,0.0,0.0
5881000000,584,5881000000,,-9.44661734257e-05,0.00339674198444,0.0115164547845,0.0,0.0,0.0
5893000000,585,5893000000,,0.0172795143452,-0.019208192057,0.00761552975498,0.0,0.0,0.0
5901000000,586,5901000000,,-0.0275197016733,0.0134848830537,-0.0171638217746,0.0,0.0,0.0
5911000000,587,5911000000,,0.0139896555214,-0.00656318845641,0.015099888996,0.0,0.0,0.0
5922000000,588,5922000000,,-0.002347102951,-0.00657256421552,0.00702223159868,0.0,0.0,0.0
5931000000,589,5931000000,,-0.00765868909358,0.00660564171071,-0.00787384802714,0.0,0.0,0.0
5941000000,590,5941000000,,0.00194207419751,0.0137530562354,0.0181266256886,0.0,0.0,0.0
5951000000,591,5951000000,,-0.0011558775568,0.00282773223347,-0.00588812293246,0.0,0.0,0.0
5961000000,592,5961000000,,0.0193936830772,0.0234311972739,-0.0199448485451,0.0,0.0,0.0
5971000000,593,5971000000,,0.0129946980867,-0.00633194698746,0.0367369657311,0.0,0.0,0.0
5981000000,594,5981000000,,-0.00625499767973,-0.0509043215726,0.0344154910059,0.0,0.0,0.0
5991000000,595,5991000000,,0.00258185717383,0.0185932478623,-0.00570288395294,0.0,0.0,0.0
6001000000,596,6001000000,,-0.0169781887002,0.0258209870385,0.0508266375875,0.0,0.0,0.0
6012000000,597,6012000000,,0.00972427998019,0.0114133139827,-0.00180858875701,0.0,0.0,0.0
6021000000,598,6021000000,,0.00259570125354,-0.0355204951587,0.0669543769466,0.0,0.0,0.0
6031000000,599,6031000000,,0.00978993547817,0.0169984025639,-0.0194744917617,0.0,0.0,0.0
6041000000,600,6041000000,,-0.00103309348529,0.00434283726706,0.017177015971,0.0,0.0,0.0
6052000000,601,6052000000,,-0.00502841467207,0.00682194417266,0.0124637570903,0.0,0.0,0.0
6062000000,602,6062000000,,-0.023458537672,0.0129375864585,-0.000204431949864,0.0,0.0,0.0
6072000000,603,6072000000,,0.0207966797939,-0.00705101177601,0.00806822408417,0.0,0.0,0.0
6082000000,604,6082000000,,0.00349330287148,-0.00613185610684,-0.0264182665128,0.0,0.0,0.0
6091000000,605,6091000000,,-0.0279908817821,-0.0254619913695,-0.0433707940118,0.0,0.0,0.0
6103000000,606,6103000000,,-0.0351362961702,-0.00336106456456,0.0169797685147,0.0,0.0,0.0
6111000000,607,6111000000,,-0.0149688139331,0.00307254820016,0.0339605566444,0.0,0.0,0.0
6121000000,608,6121000000,,-0.04063948648,-0.0217145945563,0.0244143100853,0.0,0.0,0.0
6145000000,609,6145000000,,0.0042467071793,0.0165790658067,-0.0321879131226,0.0,0.0,0.0
6145000000,610,6145000000,,0.0104455512329,-0.0166751557585,0.0102187020864,0.0,0.0,0.0
6151000000,611,6151000000,,0.0199032813216,-0.0139201610397,0.00323187764712,0.0,0.0,0.0
6162000000,612,6162000000,,-0.0228990076946,0.0145351167619,0.0143157846049,0.0,0.0,0.0
6173000000,613,6173000000,,0.0289611643665,0.0118320486768,-0.00611231234679,0.0,0.0,0.0
6183000000,614,6183000000,,-0.013539090143,0.0100046772892,-0.0132567428932,0.0,0.0,0.0
6192000000,615,6192000000,,-0.00669309025632,0.00735080148738,0.0473194167273,0.0,0.0,0.0
6202000000,616,6202000000,,0.00529634561601,-0.0499596635424,-0.000189809246867,0.0,0.0,0.0
6212000000,617,6212000000,,0.0138675605836,-0.0163563543908,-0.0216363709516,0.0,0.0,0.0
6222000000,618,6222000000,,0.00702749318846,0.0224282815544,0.0272536804657,0.0,0.0,0.0
6231000000,619,6231000000,,0.0264016253621,0.04217669231,0.00986137025873,0.0,0.0,0.0
6242000000,620,6242000000,,-0.0516935588282,-0.0366447309285,0.00593100785236,0.0,0.0,0.0
6253000000,621,6253000000,,0.0446711946106,0.00128058542183,-0.0237096128331,0.0,0.0,0.0
6262000000,622,6262000000,,0.0378742699961,-0.0178445099977,0.0303209165603,0.0,0.0,0.0
6287000000,624,6287000000,,-0.00403963755348,-0.00524587797824,8.84966712679e-05,0.0,0.0,0.0
6291000000,625,6291000000,,-0.0353148383127,-0.000115801138195,0.00936936906236,0.0,0.0,0.0
6301000000,626,6301000000,,-0.0180903784053,-0.00255205681047,-0.025455895342,0.0,0.0,0.0
6311000000,627,6311000000,,-7.55656684416e-05,0.0209755873474,-0.0301998644341,0.0,0.0,0.0
6322000000,628,6322000000,,0.00426208976825,0.00325849015406,-0.0362381872915,0.0,0.0,0.0
6333000000,629,6333000000,,-0.00788492934794,-0.0118218263427,-0.0033991207601,0.0,0.0,0.0
6343000000,630,6343000000,,-0.0273136898019,-0.00460035301078,-0.0470783834319,0.0,0.0,0.0
6351000000,631,6351000000,,-0.0201235296696,0.0101131432798,-0.00840572627981,0.0,0.0,0.0
6363000000,632,6363000000,,-0.00389049252958,-0.0287305132045,-0.0264336980495,0.0,0.0,0.0
6372000000,633,6372000000,,-0.0181407147313,-0.045195612095,-0.0244152698561,0.0,0.0,0.0
6381000000,634,6381000000,,0.00862572247507,-0.0121765029477,-0.0189001792705,0.0,0.0,0.0
6391000000,635,6391000000,,-0.0187529757313,-0.00647140188629,-0.00429035153917,0.0,0.0,0.0
6402000000,636,6402000000,,0.00983740885719,-0.015587607476,-0.00633297742644,0.0,0.0,0.0
6411000000,637,6411000000,,0.00384503498694,-0.00370896710369,0.012966626961,0.0,0.0,0.0
6421000000,638,6421000000,,-0.0479975484973,0.0233280826445,-0.0434670139466,0.0,0.0,0.0
6431000000,639,6431000000,,-0.00232240912039,0.0073151087253,-0.0484465319916,0.0,0.0,0.0
6447000000,640,6447000000,,-0.0198967107668,-0.00432070190353,-0.0448773773079,0.0,0.0,0.0
6452000000,641,6452000000,,0.0485968624943,-0.00321924332852,-0.0299444817464,0.0,0.0,0.0
6462000000,642,6462000000,,-0.0139256949868,-0.00072425225167,-0.0320527199848,0.0,0.0,0.0
6471000000,643,6471000000,,-0.0288577270644,0.000977840277152,-0.0413255774842,0.0,0.0,0.0
6482000000,644,6482000000,,-0.00103590496806,-0.0214840757684,-0.0575669599562,0.0,0.0,0.0
6491000000,645,6491000000,,-0.00359435431779,0.0136978354651,-0.0489948744735,0.0,0.0,0.0
6501000000,646,6501000000,,-0.00420870739901,-0.00187963844729,-0.015821877489,0.0,0.0,0.0
6512000000,647,6512000000,,0.0449187015883,0.0294489601417,-0.0215998888623,0.0,0.0,0.0
6522000000,648,6522000000,,0.0095287703301,-0.00836985978165,-0.0211265029036,0.0,0.0,0.0
6532000000,649,6532000000,,0.0195927160618,-0.0163996716259,-0.0442456217817,0.0,0.0,0.0
6541000000,650,6541000000,,0.0326225181953,0.0174005997767,-0.0151205297744,0.0,0.0,0.0
6553000000,651,6553000000,,0.00672511289828,0.00157808469847,-0.0583535214109,0.0,0.0,0.0
6562000000,652,6562000000,,-0.00771563813713,0.0263442225033,-0.0133679693619,0.0,0.0,0.0
6571000000,653,6571000000,,0.00270093919963,0.023939793283,-0.0433714743119,0.0,0.0,0.0
6582000000,654,6582000000,,0.0153133666535,-0.0102490152074,-0.0155921826736,0.0,0.0,0.0
6591000000,655,6591000000,,0.00639071401962,0.0357515088996,-0.0459888227611,0.0,0.0,0.0
6601000000,656,6601000000,,0.0098032656439,0.0188530405294,-0.0293208141574,0.0,0.0,0.0
6611000000,657,6611000000,,0.024026502245,-0.0332701304907,-0.0365527878289,0.0,0.0,0.0
6621000000,658,6621000000,,-0.0105474565718,-0.00204217762251,-0.0367209606805,0.0,0.0,0.0
6631000000,659,6631000000,,0.0315754968412,0.0269213101405,-0.0342939275005,0.0,0.0,0.0
6641000000,660,6641000000,,-0.00637790980614,-0.0157760949006,-0.00319753487901,0.0,0.0,0.0
6652000000,661,6652000000,,-0.0172227484432,-0.00886195419859,-0.0343570454639,0.0,0.0,0.0
6661000000,662,6661000000,,0.00152202401812,0.01751122004,0.00216916114558,0.0,0.0,0.0
6671000000,663,6671000000,,-0.0386391572934,0.0315244208827,-0.00950044018502,0.0,0.0,0.0
6681000000,664,6681000000,,-0.00586469134576,-0.0244791948565,-0.028737402036,0.0,0.0,0.0
6692000000,665,6692000000,,-0.00139114341324,-0.0487401710793,-0.026220831921,0.0,0.0,0.0
6702000000,666,6702000000,,-0.00766573056961,0.00343978761688,0.00272366706087,0.0,0.0,0.0
6711000000,667,6711000000,,-0.00427181550843,0.00417048467013,-0.0474066135982,0.0,0.0,0.0
6721000000,668,6721000000,,-0.0344485348547,0.0288407869393,0.0116307584253,0.0,0.0,0.0
6739000000,669,6739000000,,-0.0109053113711,-0.00186019340792,-0.0234200116149,0.0,0.0,0.0
6747000000,670,6747000000,,0.00458361217866,-0.0177895958343,0.00928294190185,0.0,0.0,0.0
6759000000,671,6759000000,,0.0200283903538,0.0261723119318,-0.00125189616513,0.0,0.0,0.0
6764000000,672,6764000000,,0.0165202233167,0.0267871840855,0.0328792249702,0.0,0.0,0.0
6771000000,673,6771000000,,0.00405639771504,-0.00546301550449,0.00107704237948,0.0,0.0,0.0
6781000000,674,6781000000,,-0.00217820444273,-0.00666339591459,-0.0242192707042,0.0,0.0,0.0
6793000000,675,6793000000,,0.024714313267,0.0115119892698,-0.00133250494856,0.0,0.0,0.0
6802000000,676,6802000000,,0.0149650681597,-0.0134793524181,-8.87872499827e-05,0.0,0.0,0.0
6811000000,677,6811000000,,-0.00656165874375,-0.00946658240005,0.0419470436947,0.0,0.0,0.0
6821000000,678,6821000000,,0.00658897318639,-0.00594406522822,0.00708325177703,0.0,0.0,0.0
6832000000,679,6832000000,,-0.0116532217885,0.00940771652741,0.0459740433027,0.0,0.0,0.0
6841000000,680,6841000000,,0.0261033020489,-0.0171168200701,0.0417703396889,0.0,0.0,0.0
6851000000,681,6851000000,,0.0242249029433,-0.00453235227789,0.0338656883518,0.0,0.0,0.0
6861000000,682,6861000000,,-0.013649494576,0.00558101613359,0.00375955495351,0.0,0.0,0.0
6871000000,683,6871000000,,-0.0132745630653,-0.0208109484815,0.0676506618175,0.0,0.0,0.0
6881000000,684,6881000000,,0.0243434255995,0.00953581070491,-0.00518693406045,0.0,0.0,0.0
6891000000,685,6891000000,,0.00206490081194,0.024572353092,0.0063119314473,0.0,0.0,0.0
6901000000,686,6901000000,,-0.0100789022828,-0.0331583523446,0.0180547639361,0.0,0.0,0.0
